%time,field.header.seq,field.header.stamp,field.header.frame_id,field.child_frame_id,field.pose.pose.position.x,field.pose.pose.position.y,field.pose.pose.position.z,field.pose.pose.orientation.x,field.pose.pose.orientation.y,field.pose.pose.orientation.z,field.pose.pose.orientation.w,field.pose.covariance0,field.pose.covariance1,field.pose.covariance2,field.pose.covariance3,field.pose.covariance4,field.pose.covariance5,field.pose.covariance6,field.pose.covariance7,field.pose.covariance8,field.pose.covariance9,field.pose.covariance10,field.pose.covariance11,field.pose.covariance12,field.pose.covariance13,field.pose.covariance14,field.pose.covariance15,field.pose.covariance16,field.pose.covariance17,field.pose.covariance18,field.pose.covariance19,field.pose.covariance20,field.pose.covariance21,field.pose.covariance22,field.pose.covariance23,field.pose.covariance24,field.pose.covariance25,field.pose.covariance26,field.pose.covariance27,field.pose.covariance28,field.pose.covariance29,field.pose.covariance30,field.pose.covariance31,field.pose.covariance32,field.pose.covariance33,field.pose.covariance34,field.pose.covariance35,field.twist.twist.linear.x,field.twist.twist.linear.y,field.twist.twist.linear.z,field.twist.twist.angular.x,field.twist.twist.angular.y,field.twist.twist.angular.z,field.twist.covariance0,field.twist.covariance1,field.twist.covariance2,field.twist.covariance3,field.twist.covariance4,field.twist.covariance5,field.twist.covariance6,field.twist.covariance7,field.twist.covariance8,field.twist.covariance9,field.twist.covariance10,field.twist.covariance11,field.twist.covariance12,field.twist.covariance13,field.twist.covariance14,field.twist.covariance15,field.twist.covariance16,field.twist.covariance17,field.twist.covariance18,field.twist.covariance19,field.twist.covariance20,field.twist.covariance21,field.twist.covariance22,field.twist.covariance23,field.twist.covariance24,field.twist.covariance25,field.twist.covariance26,field.twist.covariance27,field.twist.covariance28,field.twist.covariance29,field.twist.covariance30,field.twist.covariance31,field.twist.covariance32,field.twist.covariance33,field.twist.covariance34,field.twist.covariance35
1713690045562959201,11135,1713690043621040234,uav1/gps_garmin_origin,uav1/fcu,-14.508002386013539,14.526543173096938,0.07145110776587475,0.017551706095865354,-0.03242097834945276,-0.2870363067334912,-0.9572099959741258,0.003505505759837024,0.0,0.0,0.0,0.0,0.0,0.0,0.003505505759836815,0.0,0.0,0.0,0.0,0.0,0.0,0.03727843096749104,0.0,0.0,0.0,0.0,0.0,0.0,0.0,0.0,0.0,0.0,0.0,0.0,0.0,0.0,0.0,0.0,0.0,0.0,0.0,0.0,0.0,-0.005775337051535373,-0.017848471571427157,0.002308559274384427,-0.0022800564765930176,0.002974937204271555,-0.0011769088450819258,0.4572723535618605,0.0,0.0,0.0,0.0,0.0,0.0,0.4572723535613835,0.0,0.0,0.0,0.0,0.0,0.0,0.016420197038678863,0.0,0.0,0.0,0.0,0.0,0.0,0.0,0.0,0.0,0.0,0.0,0.0,0.0,0.0,0.0,0.0,0.0,0.0,0.0,0.0,0.0
1713690045562973947,11145,1713690043721057424,uav1/gps_garmin_origin,uav1/fcu,-14.508282662521099,14.52506387787473,0.07141440737252208,0.017515903788809916,-0.03242106301993777,-0.286802498451593,-0.9572807292895027,0.003507857136664528,0.0,0.0,0.0,0.0,0.0,0.0,0.0035078571366643583,0.0,0.0,0.0,0.0,0.0,0.0,0.03893192355253848,0.0,0.0,0.0,0.0,0.0,0.0,0.0,0.0,0.0,0.0,0.0,0.0,0.0,0.0,0.0,0.0,0.0,0.0,0.0,0.0,0.0,-0.007734515747272847,-0.015787105893068934,0.0022966627960612283,-0.0022232052870094776,0.0010373428231105213,0.00412590429186821,0.4573075700152212,0.0,0.0,0.0,0.0,0.0,0.0,0.4573075700148353,0.0,0.0,0.0,0.0,0.0,0.0,0.016423289052527185,0.0,0.0,0.0,0.0,0.0,0.0,0.0,0.0,0.0,0.0,0.0,0.0,0.0,0.0,0.0,0.0,0.0,0.0,0.0,0.0,0.0
1713690045563176717,11156,1713690043831065280,uav1/gps_garmin_origin,uav1/fcu,-14.50945364680038,14.524630762941023,0.07145224788940989,0.01747596845481429,-0.03240283189884978,-0.28630269806114456,-0.9574316748961308,0.0035129846161877695,0.0,0.0,0.0,0.0,0.0,0.0,0.003512984616187636,0.0,0.0,0.0,0.0,0.0,0.0,0.04712565730096864,0.0,0.0,0.0,0.0,0.0,0.0,0.0,0.0,0.0,0.0,0.0,0.0,0.0,0.0,0.0,0.0,0.0,0.0,0.0,0.0,0.0,-0.009513218254925246,-0.009615113862237045,0.002437591918058502,0.003422284498810768,-0.0035382218193262807,0.00700996071100235,0.4573774485017692,0.0,0.0,0.0,0.0,0.0,0.0,0.4573774485014635,0.0,0.0,0.0,0.0,0.0,0.0,0.01650778562437691,0.0,0.0,0.0,0.0,0.0,0.0,0.0,0.0,0.0,0.0,0.0,0.0,0.0,0.0,0.0,0.0,0.0,0.0,0.0,0.0,0.0
1713690045681020198,11188,1713690044151024335,uav1/gps_garmin_origin,uav1/fcu,-14.509064286604657,14.525714593667713,0.07140838888520787,0.01743476855509736,-0.03246787698541288,-0.28443947574043554,-0.9579854124411271,0.0035098402415278144,0.0,0.0,0.0,0.0,0.0,0.0,0.003509840241527746,0.0,0.0,0.0,0.0,0.0,0.0,0.04720496953829943,0.0,0.0,0.0,0.0,0.0,0.0,0.0,0.0,0.0,0.0,0.0,0.0,0.0,0.0,0.0,0.0,0.0,0.0,0.0,0.0,0.0,-0.0011223119619942579,0.0004619920171880129,0.0021050104480577676,-0.002450515516102314,0.0010650955373421311,-0.00014734662545379265,0.4573340205175768,0.0,0.0,0.0,0.0,0.0,0.0,0.4573340205174218,0.0,0.0,0.0,0.0,0.0,0.0,0.01645780593546239,0.0,0.0,0.0,0.0,0.0,0.0,0.0,0.0,0.0,0.0,0.0,0.0,0.0,0.0,0.0,0.0,0.0,0.0,0.0,0.0,0.0
1713690045681155820,11198,1713690044251061260,uav1/gps_garmin_origin,uav1/fcu,-14.50981318814744,14.526784874955391,0.07137191903159339,0.017403651235458645,-0.032455576958904574,-0.284001182909115,-0.9581164211901196,0.003505094682338625,0.0,0.0,0.0,0.0,0.0,0.0,0.0035050946823385687,0.0,0.0,0.0,0.0,0.0,0.0,0.03769416385890867,0.0,0.0,0.0,0.0,0.0,0.0,0.0,0.0,0.0,0.0,0.0,0.0,0.0,0.0,0.0,0.0,0.0,0.0,0.0,0.0,0.0,-0.0009729742125401409,0.005185144805692571,0.00193193702964644,0.000866527552716434,0.0017936569638550282,-0.0003062254982069137,0.4572637997249189,0.0,0.0,0.0,0.0,0.0,0.0,0.4572637997247935,0.0,0.0,0.0,0.0,0.0,0.0,0.01638311586187145,0.0,0.0,0.0,0.0,0.0,0.0,0.0,0.0,0.0,0.0,0.0,0.0,0.0,0.0,0.0,0.0,0.0,0.0,0.0,0.0,0.0
1713690045681177145,11208,1713690044351107828,uav1/gps_garmin_origin,uav1/fcu,-14.5096852527386,14.52617770519945,0.07135083833044256,0.017356645379635386,-0.03243870663711189,-0.28338085325338913,-0.9583015022331218,0.0035105790920460928,0.0,0.0,0.0,0.0,0.0,0.0,0.0035105790920460503,0.0,0.0,0.0,0.0,0.0,0.0,0.042180967816249866,0.0,0.0,0.0,0.0,0.0,0.0,0.0,0.0,0.0,0.0,0.0,0.0,0.0,0.0,0.0,0.0,0.0,0.0,0.0,0.0,0.0,-0.0012361199758919948,0.002038922898675677,0.0007098550530556807,0.0022315839305520058,-0.00487532839179039,0.0023380904458463196,0.4573428375835916,0.0,0.0,0.0,0.0,0.0,0.0,0.45734283758349026,0.0,0.0,0.0,0.0,0.0,0.0,0.01647815062331891,0.0,0.0,0.0,0.0,0.0,0.0,0.0,0.0,0.0,0.0,0.0,0.0,0.0,0.0,0.0,0.0,0.0,0.0,0.0,0.0,0.0
1713690045780634950,11219,1713690044461058506,uav1/gps_garmin_origin,uav1/fcu,-14.509458095425043,14.524402667170556,0.07134582503559074,0.017357788466471222,-0.03247516527934983,-0.2827739974124597,-0.9584794923246978,0.003509289102660973,0.0,0.0,0.0,0.0,0.0,0.0,0.0035092891026609375,0.0,0.0,0.0,0.0,0.0,0.0,0.047727232659693745,0.0,0.0,0.0,0.0,0.0,0.0,0.0,0.0,0.0,0.0,0.0,0.0,0.0,0.0,0.0,0.0,0.0,0.0,0.0,0.0,0.0,-0.0030207170446269463,-0.00337655341222317,0.000290076936124867,-2.7367876100470312e-05,0.002323131542652846,0.004704104736447334,0.4573226034939339,0.0,0.0,0.0,0.0,0.0,0.0,0.45732260349385345,0.0,0.0,0.0,0.0,0.0,0.0,0.01644743368279698,0.0,0.0,0.0,0.0,0.0,0.0,0.0,0.0,0.0,0.0,0.0,0.0,0.0,0.0,0.0,0.0,0.0,0.0,0.0,0.0,0.0
1713690045887606668,11241,1713690044681063042,uav1/gps_garmin_origin,uav1/fcu,-14.51266282782838,14.521235287479755,0.07131187636439348,0.01728782146253506,-0.03248175932151619,-0.2819883140986702,-0.9587119782563729,0.007743846814464178,0.0,0.0,0.0,0.0,0.0,0.0,0.0077438468144640105,0.0,0.0,0.0,0.0,0.0,0.0,0.06797280113504882,0.0,0.0,0.0,0.0,0.0,0.0,0.0,0.0,0.0,0.0,0.0,0.0,0.0,0.0,0.0,0.0,0.0,0.0,0.0,0.0,0.0,-0.013040752000297818,-0.0034537241405073194,-0.0008027426323624458,0.00248020444996655,-0.0013172405306249857,1.5095994058356316e-05,0.5097725850501469,0.0,0.0,0.0,0.0,0.0,0.0,0.5097725850500837,0.0,0.0,0.0,0.0,0.0,0.0,0.048349634014702415,0.0,0.0,0.0,0.0,0.0,0.0,0.0,0.0,0.0,0.0,0.0,0.0,0.0,0.0,0.0,0.0,0.0,0.0,0.0,0.0,0.0
1713690045919740192,11265,1713690044921146278,uav1/gps_garmin_origin,uav1/fcu,-14.515028824036364,14.523326511768436,0.0750740328192974,0.017246216580326306,-0.0325360068505061,-0.28063304365590924,-0.9591084772226284,0.0034977170265954706,0.0,0.0,0.0,0.0,0.0,0.0,0.0034977170265955973,0.0,0.0,0.0,0.0,0.0,0.0,0.04223054008398902,0.0,0.0,0.0,0.0,0.0,0.0,0.0,0.0,0.0,0.0,0.0,0.0,0.0,0.0,0.0,0.0,0.0,0.0,0.0,0.0,0.0,-0.007518060873446747,0.006169040669622897,-0.0020596951774416805,0.00042279105400666595,0.002877867314964533,0.0010821240721270438,0.45729817939048756,0.0,0.0,0.0,0.0,0.0,0.0,0.4572981793908923,0.0,0.0,0.0,0.0,0.0,0.0,0.01631818904087831,0.0,0.0,0.0,0.0,0.0,0.0,0.0,0.0,0.0,0.0,0.0,0.0,0.0,0.0,0.0,0.0,0.0,0.0,0.0,0.0,0.0
1713690045919752838,11277,1713690045041033662,uav1/gps_garmin_origin,uav1/fcu,-14.514155583727815,14.522352090829814,0.07131111775350717,0.01717822943631598,-0.03253755353367518,-0.28000249753210804,-0.9592939160753906,0.003492683271894494,0.0,0.0,0.0,0.0,0.0,0.0,0.0034926832718881052,0.0,0.0,0.0,0.0,0.0,0.0,0.03700094368362628,0.0,0.0,0.0,0.0,0.0,0.0,0.0,0.0,0.0,0.0,0.0,0.0,0.0,0.0,0.0,0.0,0.0,0.0,0.0,0.0,0.0,-0.004241695382441326,0.00025412930162437876,-0.0024518797949575548,-0.0033351313322782516,0.0028098660986870527,-0.00022164465917740052,0.457241146079376,0.0,0.0,0.0,0.0,0.0,0.0,0.4572411460788341,0.0,0.0,0.0,0.0,0.0,0.0,0.016418347440532256,0.0,0.0,0.0,0.0,0.0,0.0,0.0,0.0,0.0,0.0,0.0,0.0,0.0,0.0,0.0,0.0,0.0,0.0,0.0,0.0,0.0
1713690045974697938,11289,1713690045161096588,uav1/gps_garmin_origin,uav1/fcu,-14.515622373786288,14.523044937747859,0.07588334646497231,0.017152450217958998,-0.032508349930374214,-0.2795026222434579,-0.9594411314902835,0.003520750248457067,0.0,0.0,0.0,0.0,0.0,0.0,0.0035207502484572713,0.0,0.0,0.0,0.0,0.0,0.0,0.03779994341436859,0.0,0.0,0.0,0.0,0.0,0.0,0.0,0.0,0.0,0.0,0.0,0.0,0.0,0.0,0.0,0.0,0.0,0.0,0.0,0.0,0.0,-0.005573641373492786,0.005413044436065266,-0.00243490220519813,0.0024902455043047667,-0.003082593902945519,-0.0031475122086703773,0.4575132338298129,0.0,0.0,0.0,0.0,0.0,0.0,0.45751323383084197,0.0,0.0,0.0,0.0,0.0,0.0,0.016508097496586067,0.0,0.0,0.0,0.0,0.0,0.0,0.0,0.0,0.0,0.0,0.0,0.0,0.0,0.0,0.0,0.0,0.0,0.0,0.0,0.0,0.0
1713690046030354947,11299,1713690045261631095,uav1/gps_garmin_origin,uav1/fcu,-14.517748098144413,14.523811233685922,0.07610106255851845,0.017147212810295697,-0.03252776691500857,-0.2792891817045848,-0.9595027204000751,0.0035077437915491737,0.0,0.0,0.0,0.0,0.0,0.0,0.0035077437915494343,0.0,0.0,0.0,0.0,0.0,0.0,0.039671413283709156,0.0,0.0,0.0,0.0,0.0,0.0,0.0,0.0,0.0,0.0,0.0,0.0,0.0,0.0,0.0,0.0,0.0,0.0,0.0,0.0,0.0,-0.008166566415766475,0.010163072350138923,-0.003108231995121238,-0.0009908934589475393,0.001116495113819838,0.00390746770426631,0.4572763029706596,0.0,0.0,0.0,0.0,0.0,0.0,0.4572763029712614,0.0,0.0,0.0,0.0,0.0,0.0,0.016056887043542002,0.0,0.0,0.0,0.0,0.0,0.0,0.0,0.0,0.0,0.0,0.0,0.0,0.0,0.0,0.0,0.0,0.0,0.0,0.0,0.0,0.0
1713690046166429805,11314,1713690045411066602,uav1/gps_garmin_origin,uav1/fcu,-14.5172982958741,14.522292867348744,0.07124477906390977,0.017184682716458382,-0.03253412614740407,-0.2789845855035551,-0.9595904430365951,0.003502547208130884,0.0,0.0,0.0,0.0,0.0,0.0,0.0035025472081309933,0.0,0.0,0.0,0.0,0.0,0.0,0.037667449534971295,0.0,0.0,0.0,0.0,0.0,0.0,0.0,0.0,0.0,0.0,0.0,0.0,0.0,0.0,0.0,0.0,0.0,0.0,0.0,0.0,0.0,-0.005787129417259793,0.0014410129876743798,-0.0033158998773514,-0.003570771077647805,6.721066256431883e-06,-0.0017337817698717117,0.4572309875106759,0.0,0.0,0.0,0.0,0.0,0.0,0.4572309875109015,0.0,0.0,0.0,0.0,0.0,0.0,0.016343294567757995,0.0,0.0,0.0,0.0,0.0,0.0,0.0,0.0,0.0,0.0,0.0,0.0,0.0,0.0,0.0,0.0,0.0,0.0,0.0,0.0,0.0
1713690046417309872,11326,1713690045531121677,uav1/gps_garmin_origin,uav1/fcu,-14.517200244639794,14.521945839855556,0.07525675115373191,0.017154190491744225,-0.03254233229114188,-0.278923177882899,-0.9596085614443688,0.0035072241079559022,0.0,0.0,0.0,0.0,0.0,0.0,0.003507224107955951,0.0,0.0,0.0,0.0,0.0,0.0,0.03838542495347001,0.0,0.0,0.0,0.0,0.0,0.0,0.0,0.0,0.0,0.0,0.0,0.0,0.0,0.0,0.0,0.0,0.0,0.0,0.0,0.0,0.0,-0.004068391471829649,0.0003712987278707424,-0.0030860062541394713,-0.0020133426878601313,0.003929732367396355,0.0021828254684805866,0.4573030844927877,0.0,0.0,0.0,0.0,0.0,0.0,0.4573030844928849,0.0,0.0,0.0,0.0,0.0,0.0,0.016448818228382515,0.0,0.0,0.0,0.0,0.0,0.0,0.0,0.0,0.0,0.0,0.0,0.0,0.0,0.0,0.0,0.0,0.0,0.0,0.0,0.0,0.0
1713690046535008856,11337,1713690045641102219,uav1/gps_garmin_origin,uav1/fcu,-14.517796919659165,14.5225618695593,0.0776978051402528,0.017157533449743648,-0.032515962516329065,-0.27886441003608853,-0.9596264752719059,0.0035080110983999563,0.0,0.0,0.0,0.0,0.0,0.0,0.0035080110983999753,0.0,0.0,0.0,0.0,0.0,0.0,0.042158533799323994,0.0,0.0,0.0,0.0,0.0,0.0,0.0,0.0,0.0,0.0,0.0,0.0,0.0,0.0,0.0,0.0,0.0,0.0,0.0,0.0,0.0,-0.0031421540294457174,0.003072206879481219,-0.0032675845698800846,0.001718047191388905,-0.001144896377809346,-0.0017723694909363983,0.4573063528942731,0.0,0.0,0.0,0.0,0.0,0.0,0.45730635289431576,0.0,0.0,0.0,0.0,0.0,0.0,0.016451814279533836,0.0,0.0,0.0,0.0,0.0,0.0,0.0,0.0,0.0,0.0,0.0,0.0,0.0,0.0,0.0,0.0,0.0,0.0,0.0,0.0,0.0
1713690046535059213,11349,1713690045761789312,uav1/gps_garmin_origin,uav1/fcu,-14.518529165309577,14.523096577723788,0.0754593632921284,0.01712762045713573,-0.032509358302982946,-0.27885523771700954,-0.9596298987828562,0.0027244807992431595,0.0,0.0,0.0,0.0,0.0,0.0,0.002724480799243159,0.0,0.0,0.0,0.0,0.0,0.0,0.04180105595968582,0.0,0.0,0.0,0.0,0.0,0.0,0.0,0.0,0.0,0.0,0.0,0.0,0.0,0.0,0.0,0.0,0.0,0.0,0.0,0.0,0.0,-0.002893668884449405,0.004880275545625449,-0.0030196832817098607,-0.0024618273600935936,0.003298068651929498,0.004555752035230398,0.44538985290576094,0.0,0.0,0.0,0.0,0.0,0.0,0.4453898529057756,0.0,0.0,0.0,0.0,0.0,0.0,0.01626013979644486,0.0,0.0,0.0,0.0,0.0,0.0,0.0,0.0,0.0,0.0,0.0,0.0,0.0,0.0,0.0,0.0,0.0,0.0,0.0,0.0,0.0
1713690046559229556,11361,1713690045881063671,uav1/gps_garmin_origin,uav1/fcu,-14.519288866563375,14.523461197976944,0.07129683471092788,0.017118442818390027,-0.03250352552142357,-0.2787961861832417,-0.9596474177081034,0.003482933327614461,0.0,0.0,0.0,0.0,0.0,0.0,0.0034829333276204942,0.0,0.0,0.0,0.0,0.0,0.0,0.036950286425085375,0.0,0.0,0.0,0.0,0.0,0.0,0.0,0.0,0.0,0.0,0.0,0.0,0.0,0.0,0.0,0.0,0.0,0.0,0.0,0.0,0.0,-0.003023420400422484,0.0056734841715014965,-0.0026392935229918963,0.0020901833195239305,-8.625144255347455e-05,0.007752942852675915,0.4571549216426209,0.0,0.0,0.0,0.0,0.0,0.0,0.45715492164315735,0.0,0.0,0.0,0.0,0.0,0.0,0.01633670010245948,0.0,0.0,0.0,0.0,0.0,0.0,0.0,0.0,0.0,0.0,0.0,0.0,0.0,0.0,0.0,0.0,0.0,0.0,0.0,0.0,0.0
1713690046626534530,11373,1713690046001134375,uav1/gps_garmin_origin,uav1/fcu,-14.52186987145481,14.524574665028304,0.07119465506218148,0.017150370201999315,-0.03249683007625278,-0.27873336670418064,-0.9596653224550121,0.0035026264777323806,0.0,0.0,0.0,0.0,0.0,0.0,0.003502626477732214,0.0,0.0,0.0,0.0,0.0,0.0,0.03741092303587684,0.0,0.0,0.0,0.0,0.0,0.0,0.0,0.0,0.0,0.0,0.0,0.0,0.0,0.0,0.0,0.0,0.0,0.0,0.0,0.0,0.0,-0.006664316344097871,0.011409299991715372,-0.0025124924258078715,-0.0019048794638365507,0.0016429099487140781,0.005134951323270798,0.4572336633295392,0.0,0.0,0.0,0.0,0.0,0.0,0.45723366332859455,0.0,0.0,0.0,0.0,0.0,0.0,0.01640947622015414,0.0,0.0,0.0,0.0,0.0,0.0,0.0,0.0,0.0,0.0,0.0,0.0,0.0,0.0,0.0,0.0,0.0,0.0,0.0,0.0,0.0
1713690046814105744,11384,1713690046111099493,uav1/gps_garmin_origin,uav1/fcu,-14.52386222027173,14.525066933173754,0.07120477642544297,0.01709676583319056,-0.03251169441519558,-0.2787610952866297,-0.9596577213146865,0.0035083360834594996,0.0,0.0,0.0,0.0,0.0,0.0,0.0035083360834592707,0.0,0.0,0.0,0.0,0.0,0.0,0.03773279273027358,0.0,0.0,0.0,0.0,0.0,0.0,0.0,0.0,0.0,0.0,0.0,0.0,0.0,0.0,0.0,0.0,0.0,0.0,0.0,0.0,0.0,-0.008814463277090998,0.012852768530028154,-0.002630062023493555,0.00242202659137547,0.002626777859404683,0.0015068660723045466,0.45730534419406194,0.0,0.0,0.0,0.0,0.0,0.0,0.4573053441935481,0.0,0.0,0.0,0.0,0.0,0.0,0.01640690397117916,0.0,0.0,0.0,0.0,0.0,0.0,0.0,0.0,0.0,0.0,0.0,0.0,0.0,0.0,0.0,0.0,0.0,0.0,0.0,0.0,0.0
1713690046948962430,11395,1713690046221155560,uav1/gps_garmin_origin,uav1/fcu,-14.525246711748844,14.52535292226536,0.07121630220497815,0.017071442535548407,-0.032517924203511475,-0.2787327144256861,-0.9596662046587546,0.0035033545762230022,0.0,0.0,0.0,0.0,0.0,0.0,0.0035033545762228864,0.0,0.0,0.0,0.0,0.0,0.0,0.04202433338398605,0.0,0.0,0.0,0.0,0.0,0.0,0.0,0.0,0.0,0.0,0.0,0.0,0.0,0.0,0.0,0.0,0.0,0.0,0.0,0.0,0.0,-0.009190437171959345,0.012158896675123567,-0.0018728729221760675,-0.0023060243111103773,-0.0013415531720966107,-0.004678076133131981,0.4572424803186774,0.0,0.0,0.0,0.0,0.0,0.0,0.4572424803184319,0.0,0.0,0.0,0.0,0.0,0.0,0.01646062319818028,0.0,0.0,0.0,0.0,0.0,0.0,0.0,0.0,0.0,0.0,0.0,0.0,0.0,0.0,0.0,0.0,0.0,0.0,0.0,0.0,0.0
1713690046986304102,11408,1713690046351105391,uav1/gps_garmin_origin,uav1/fcu,-14.526298096514045,14.525392788580175,0.07125510387828345,0.01706792383107661,-0.03251446449766381,-0.27876047060706866,-0.9596583223217796,0.003494642860249092,0.0,0.0,0.0,0.0,0.0,0.0,0.0034946428602490444,0.0,0.0,0.0,0.0,0.0,0.0,0.04191674445885152,0.0,0.0,0.0,0.0,0.0,0.0,0.0,0.0,0.0,0.0,0.0,0.0,0.0,0.0,0.0,0.0,0.0,0.0,0.0,0.0,0.0,-0.008482819815752699,0.009628815496891634,-0.0007168630022845587,-0.0007699234411120415,-0.00048338749911636136,-0.0019536351319402456,0.4571448988207299,0.0,0.0,0.0,0.0,0.0,0.0,0.45714489882063275,0.0,0.0,0.0,0.0,0.0,0.0,0.016401569967015958,0.0,0.0,0.0,0.0,0.0,0.0,0.0,0.0,0.0,0.0,0.0,0.0,0.0,0.0,0.0,0.0,0.0,0.0,0.0,0.0,0.0
1713690047083247477,11420,1713690046471084926,uav1/gps_garmin_origin,uav1/fcu,-14.52690039845728,14.52511004235548,0.07128380035695517,0.017046301591242378,-0.0325158904486601,-0.27873551603957336,-0.9596659067449174,0.0035072048955666147,0.0,0.0,0.0,0.0,0.0,0.0,0.0035072048955665956,0.0,0.0,0.0,0.0,0.0,0.0,0.04704708658900164,0.0,0.0,0.0,0.0,0.0,0.0,0.0,0.0,0.0,0.0,0.0,0.0,0.0,0.0,0.0,0.0,0.0,0.0,0.0,0.0,0.0,-0.007572528814784008,0.006549931492326563,-0.00014580586168629663,-0.0007271509384736419,-0.001057205721735954,0.0012150572147220375,0.4573014421268143,0.0,0.0,0.0,0.0,0.0,0.0,0.4573014421267756,0.0,0.0,0.0,0.0,0.0,0.0,0.016425855247969405,0.0,0.0,0.0,0.0,0.0,0.0,0.0,0.0,0.0,0.0,0.0,0.0,0.0,0.0,0.0,0.0,0.0,0.0,0.0,0.0,0.0
1713690047165959759,11432,1713690046591167649,uav1/gps_garmin_origin,uav1/fcu,-14.527127044374561,14.525098302073935,0.07134148311494652,0.01706647486582374,-0.03253212899842773,-0.2786187614185295,-0.9596989016374295,0.003517975686958022,0.0,0.0,0.0,0.0,0.0,0.0,0.0035179756869580152,0.0,0.0,0.0,0.0,0.0,0.0,0.03748050900010153,0.0,0.0,0.0,0.0,0.0,0.0,0.0,0.0,0.0,0.0,0.0,0.0,0.0,0.0,0.0,0.0,0.0,0.0,0.0,0.0,0.0,-0.005618645123887986,0.004454187649052131,0.00171171239461469,-0.0005861131940037012,-0.0014799344353377823,-0.0028129888232797384,0.45743903765123844,0.0,0.0,0.0,0.0,0.0,0.0,0.45743903765122423,0.0,0.0,0.0,0.0,0.0,0.0,0.016526627788679533,0.0,0.0,0.0,0.0,0.0,0.0,0.0,0.0,0.0,0.0,0.0,0.0,0.0,0.0,0.0,0.0,0.0,0.0,0.0,0.0,0.0
1713690047387934094,11443,1713690046701725571,uav1/gps_garmin_origin,uav1/fcu,-14.527148991351755,14.525233742333716,0.07139997551479772,0.017039736108461937,-0.03253266019291768,-0.2785692650588591,-0.9597137270971449,0.004710887129983288,0.0,0.0,0.0,0.0,0.0,0.0,0.004710887130027739,0.0,0.0,0.0,0.0,0.0,0.0,0.03749557729368454,0.0,0.0,0.0,0.0,0.0,0.0,0.0,0.0,0.0,0.0,0.0,0.0,0.0,0.0,0.0,0.0,0.0,0.0,0.0,0.0,0.0,-0.0036765651905982084,0.0032728034859124126,0.003377831524332739,0.0016628619050607085,-0.0005197504069656136,-0.001790492213331163,0.4734298898107286,0.0,0.0,0.0,0.0,0.0,0.0,0.47342988981778605,0.0,0.0,0.0,0.0,0.0,0.0,0.016406076433515097,0.0,0.0,0.0,0.0,0.0,0.0,0.0,0.0,0.0,0.0,0.0,0.0,0.0,0.0,0.0,0.0,0.0,0.0,0.0,0.0,0.0
1713690047387947441,11455,1713690046821051074,uav1/gps_garmin_origin,uav1/fcu,-14.52517638763315,14.52894220064814,0.0714675477643355,0.01707095005550635,-0.03255649910692392,-0.2785377650479106,-0.9597215067258928,0.0035020783815733142,0.0,0.0,0.0,0.0,0.0,0.0,0.0035020783815741044,0.0,0.0,0.0,0.0,0.0,0.0,0.03830305113686665,0.0,0.0,0.0,0.0,0.0,0.0,0.0,0.0,0.0,0.0,0.0,0.0,0.0,0.0,0.0,0.0,0.0,0.0,0.0,0.0,0.0,0.008497269840423413,0.008348711917484554,0.006033687873874518,0.0004978742217645049,0.000894366356078536,0.005174441263079643,0.45727191036934156,0.0,0.0,0.0,0.0,0.0,0.0,0.45727191036876574,0.0,0.0,0.0,0.0,0.0,0.0,0.016366661608640788,0.0,0.0,0.0,0.0,0.0,0.0,0.0,0.0,0.0,0.0,0.0,0.0,0.0,0.0,0.0,0.0,0.0,0.0,0.0,0.0,0.0
1713690047579063918,11466,1713690046931173182,uav1/gps_garmin_origin,uav1/fcu,-14.524396510508142,14.531510716831127,0.07150558452763395,0.017097883766625712,-0.03252913929648669,-0.2784697799106745,-0.9597416835502318,0.0034994547736668965,0.0,0.0,0.0,0.0,0.0,0.0,0.0034994547736666884,0.0,0.0,0.0,0.0,0.0,0.0,0.03827631973899108,0.0,0.0,0.0,0.0,0.0,0.0,0.0,0.0,0.0,0.0,0.0,0.0,0.0,0.0,0.0,0.0,0.0,0.0,0.0,0.0,0.0,0.01210064340036096,0.011357958897194398,0.007236301177066932,-0.0028017445001751184,8.234849701693147e-06,-0.004891711287200451,0.45719373479454356,0.0,0.0,0.0,0.0,0.0,0.0,0.45719373479393904,0.0,0.0,0.0,0.0,0.0,0.0,0.014303721368883476,0.0,0.0,0.0,0.0,0.0,0.0,0.0,0.0,0.0,0.0,0.0,0.0,0.0,0.0,0.0,0.0,0.0,0.0,0.0,0.0,0.0
1713690047613798300,11478,1713690047051135210,uav1/gps_garmin_origin,uav1/fcu,-14.526666362429008,14.531598728588813,0.07160880925733518,0.017061929929284476,-0.03252051690452641,-0.2784846714241725,-0.9597382946976334,0.0035046335521552495,0.0,0.0,0.0,0.0,0.0,0.0,0.003504633552155084,0.0,0.0,0.0,0.0,0.0,0.0,0.04701595931681462,0.0,0.0,0.0,0.0,0.0,0.0,0.0,0.0,0.0,0.0,0.0,0.0,0.0,0.0,0.0,0.0,0.0,0.0,0.0,0.0,0.0,0.003065241814822946,0.011709235430727718,0.007388988676725841,-0.0005014751222915947,-0.0013652225024998195,-0.005486103240400553,0.4573500354587524,0.0,0.0,0.0,0.0,0.0,0.0,0.4573500354583966,0.0,0.0,0.0,0.0,0.0,0.0,0.01645118120489499,0.0,0.0,0.0,0.0,0.0,0.0,0.0,0.0,0.0,0.0,0.0,0.0,0.0,0.0,0.0,0.0,0.0,0.0,0.0,0.0,0.0
1713690047793821648,11490,1713690047171086869,uav1/gps_garmin_origin,uav1/fcu,-14.529422672245667,14.531994077829628,0.07168164403792768,0.017076529723428848,-0.03252835663329305,-0.27846588253540316,-0.959743221081098,0.0023013462072606905,0.0,0.0,0.0,0.0,0.0,0.0,0.0023013462072606905,0.0,0.0,0.0,0.0,0.0,0.0,0.04736408284531645,0.0,0.0,0.0,0.0,0.0,0.0,0.0,0.0,0.0,0.0,0.0,0.0,0.0,0.0,0.0,0.0,0.0,0.0,0.0,0.0,0.0,-0.004298201061284242,0.013432198025701602,0.008544327214180428,-0.0015299272490665317,-0.00022544585226569422,-0.0079672085121274,0.42939353934607544,0.0,0.0,0.0,0.0,0.0,0.0,0.42939353934589186,0.0,0.0,0.0,0.0,0.0,0.0,0.016184054576846053,0.0,0.0,0.0,0.0,0.0,0.0,0.0,0.0,0.0,0.0,0.0,0.0,0.0,0.0,0.0,0.0,0.0,0.0,0.0,0.0,0.0
1713690047843702828,11502,1713690047291326145,uav1/gps_garmin_origin,uav1/fcu,-14.531712165232834,14.532300631526187,0.07164023674853968,0.01695386090728671,-0.03250239994574157,-0.2785439915502707,-0.9597236088423301,0.003467487908590478,0.0,0.0,0.0,0.0,0.0,0.0,0.0034674879085904364,0.0,0.0,0.0,0.0,0.0,0.0,0.03740886380044059,0.0,0.0,0.0,0.0,0.0,0.0,0.0,0.0,0.0,0.0,0.0,0.0,0.0,0.0,0.0,0.0,0.0,0.0,0.0,0.0,0.0,-0.007139931875655809,0.010270291806860787,0.010310642324413456,0.0020503951236605644,-0.013521728105843065,0.012132227420806887,0.40289415213579766,0.0,0.0,0.0,0.0,0.0,0.0,0.4028941521357145,0.0,0.0,0.0,0.0,0.0,0.0,0.016184349739839482,0.0,0.0,0.0,0.0,0.0,0.0,0.0,0.0,0.0,0.0,0.0,0.0,0.0,0.0,0.0,0.0,0.0,0.0,0.0,0.0,0.0
1713690047957164323,11512,1713690047392435535,uav1/gps_garmin_origin,uav1/fcu,-14.531462517773917,14.5320914712573,0.07168181432906215,0.016778076574435977,-0.03236806286379537,-0.27840395198831747,-0.9597718708996394,0.0033190146648028043,0.0,0.0,0.0,0.0,0.0,0.0,0.0033190146647885024,0.0,0.0,0.0,0.0,0.0,0.0,0.03798361800532886,0.0,0.0,0.0,0.0,0.0,0.0,0.0,0.0,0.0,0.0,0.0,0.0,0.0,0.0,0.0,0.0,0.0,0.0,0.0,0.0,0.0,-0.0038202347791454353,0.004119205303902399,0.01154751929448615,0.0074266958981752396,-0.011028771288692951,-0.00043187907431274517,0.37886917235457257,0.0,0.0,0.0,0.0,0.0,0.0,0.3788691723505885,0.0,0.0,0.0,0.0,0.0,0.0,0.004084626361126933,0.0,0.0,0.0,0.0,0.0,0.0,0.0,0.0,0.0,0.0,0.0,0.0,0.0,0.0,0.0,0.0,0.0,0.0,0.0,0.0,0.0
1713690048095964611,11524,1713690047511094777,uav1/gps_garmin_origin,uav1/fcu,-14.531205409912433,14.532085265491117,0.07154664412182944,0.016197586421765255,-0.032087913560128765,-0.2782978521885479,-0.9598220196811013,0.002245208395340336,0.0,0.0,0.0,0.0,0.0,0.0,0.0022452083953403367,0.0,0.0,0.0,0.0,0.0,0.0,0.032035648209287976,0.0,0.0,0.0,0.0,0.0,0.0,0.0,0.0,0.0,0.0,0.0,0.0,0.0,0.0,0.0,0.0,0.0,0.0,0.0,0.0,0.0,-0.0012521226902298,0.0009753705011519027,0.010387780982037808,0.014594588428735733,-0.01605989597737789,-0.004164162091910837,0.35492366456134605,0.0,0.0,0.0,0.0,0.0,0.0,0.3549236645615784,0.0,0.0,0.0,0.0,0.0,0.0,0.006187408273357254,0.0,0.0,0.0,0.0,0.0,0.0,0.0,0.0,0.0,0.0,0.0,0.0,0.0,0.0,0.0,0.0,0.0,0.0,0.0,0.0,0.0
1713690048213625197,11535,1713690047621441173,uav1/gps_garmin_origin,uav1/fcu,-14.53266880701032,14.531753332062243,0.07157111387978865,0.015464038635320596,-0.03136276013358566,-0.2782883098465763,-0.9598608531389454,0.003218275370824248,0.0,0.0,0.0,0.0,0.0,0.0,0.003218275370824305,0.0,0.0,0.0,0.0,0.0,0.0,0.04203064771658191,0.0,0.0,0.0,0.0,0.0,0.0,0.0,0.0,0.0,0.0,0.0,0.0,0.0,0.0,0.0,0.0,0.0,0.0,0.0,0.0,0.0,-0.004202227449161629,0.0012676478292559844,0.012132149165290592,-0.017868302762508392,-0.01132033858448267,-0.0010016425512731062,0.3564680479046914,0.0,0.0,0.0,0.0,0.0,0.0,0.3564680479049297,0.0,0.0,0.0,0.0,0.0,0.0,0.007154891768011069,0.0,0.0,0.0,0.0,0.0,0.0,0.0,0.0,0.0,0.0,0.0,0.0,0.0,0.0,0.0,0.0,0.0,0.0,0.0,0.0,0.0
1713690048331486235,11547,1713690047741146993,uav1/gps_garmin_origin,uav1/fcu,-14.533778653941937,14.53062360338319,0.07126015501886017,0.014577965873157999,-0.03080253873077635,-0.2780821287869437,-0.9599526114179082,0.002226531947804573,0.0,0.0,0.0,0.0,0.0,0.0,0.0022265319478045735,0.0,0.0,0.0,0.0,0.0,0.0,0.03275148693871594,0.0,0.0,0.0,0.0,0.0,0.0,0.0,0.0,0.0,0.0,0.0,0.0,0.0,0.0,0.0,0.0,0.0,0.0,0.0,0.0,0.0,-0.006201844514325322,-0.000744566887367355,0.009456769055103911,0.011016526259481907,-0.017871025949716568,0.008929015137255194,0.344333026663624,0.0,0.0,0.0,0.0,0.0,0.0,0.34433302666374194,0.0,0.0,0.0,0.0,0.0,0.0,0.006125731009314828,0.0,0.0,0.0,0.0,0.0,0.0,0.0,0.0,0.0,0.0,0.0,0.0,0.0,0.0,0.0,0.0,0.0,0.0,0.0,0.0,0.0
1713690048740000442,11557,1713690047841072535,uav1/gps_garmin_origin,uav1/fcu,-14.534808190892738,14.52848819165555,0.07270686594798204,0.01402572976558986,-0.030415195330921945,-0.2778151723470489,-0.9600504803453327,0.002232225198941934,0.0,0.0,0.0,0.0,0.0,0.0,0.002232225198941934,0.0,0.0,0.0,0.0,0.0,0.0,0.029552328456027826,0.0,0.0,0.0,0.0,0.0,0.0,0.0,0.0,0.0,0.0,0.0,0.0,0.0,0.0,0.0,0.0,0.0,0.0,0.0,0.0,0.0,-0.008427599398346166,-0.004018932047590835,0.005786194662067262,-0.010279650799930096,-0.006693892180919648,-0.007122716400772332,0.3429453143056409,0.0,0.0,0.0,0.0,0.0,0.0,0.34294531430570346,0.0,0.0,0.0,0.0,0.0,0.0,0.006178627633634273,0.0,0.0,0.0,0.0,0.0,0.0,0.0,0.0,0.0,0.0,0.0,0.0,0.0,0.0,0.0,0.0,0.0,0.0,0.0,0.0,0.0
1713690048754354116,11569,1713690047961088080,uav1/gps_garmin_origin,uav1/fcu,-14.537574283734003,14.528499630557334,0.07132111282912962,0.012596638198406673,-0.02811239984482553,-0.2779969667317374,-0.9600878627339358,0.0022341175570795594,0.0,0.0,0.0,0.0,0.0,0.0,0.0022341175570795603,0.0,0.0,0.0,0.0,0.0,0.0,0.03212267705649121,0.0,0.0,0.0,0.0,0.0,0.0,0.0,0.0,0.0,0.0,0.0,0.0,0.0,0.0,0.0,0.0,0.0,0.0,0.0,0.0,0.0,-0.010047103137837451,0.002247688403042706,0.012335427263356968,-0.01661568693816662,-0.02531110495328903,0.018404807895421985,0.34203162935528125,0.0,0.0,0.0,0.0,0.0,0.0,0.3420316293553103,0.0,0.0,0.0,0.0,0.0,0.0,0.006171152646824747,0.0,0.0,0.0,0.0,0.0,0.0,0.0,0.0,0.0,0.0,0.0,0.0,0.0,0.0,0.0,0.0,0.0,0.0,0.0,0.0,0.0
1713690048775801475,11581,1713690048081158916,uav1/gps_garmin_origin,uav1/fcu,-14.540692289095897,14.530496001740392,0.07389158210136476,0.011554820983239216,-0.02526228518476218,-0.2786782860951318,-0.9599826643842944,0.002227079751692029,0.0,0.0,0.0,0.0,0.0,0.0,0.00222707975169203,0.0,0.0,0.0,0.0,0.0,0.0,0.03744950033062907,0.0,0.0,0.0,0.0,0.0,0.0,0.0,0.0,0.0,0.0,0.0,0.0,0.0,0.0,0.0,0.0,0.0,0.0,0.0,0.0,0.0,-0.008517770078468616,0.010149766553551102,0.01806687375334354,0.0004714720125775784,-0.07323837280273438,0.02892146073281766,0.34172943945208356,0.0,0.0,0.0,0.0,0.0,0.0,0.34172943945209705,0.0,0.0,0.0,0.0,0.0,0.0,0.006191856471512435,0.0,0.0,0.0,0.0,0.0,0.0,0.0,0.0,0.0,0.0,0.0,0.0,0.0,0.0,0.0,0.0,0.0,0.0,0.0,0.0,0.0
1713690048825676048,11594,1713690048211096145,uav1/gps_garmin_origin,uav1/fcu,-14.542364340507186,14.532054566779413,0.07242955291176624,0.008803464819926542,-0.02041873287125282,-0.27928045619501396,-0.9599520827325714,0.0022358911664708495,0.0,0.0,0.0,0.0,0.0,0.0,0.0022358911664708495,0.0,0.0,0.0,0.0,0.0,0.0,0.037235240406239684,0.0,0.0,0.0,0.0,0.0,0.0,0.0,0.0,0.0,0.0,0.0,0.0,0.0,0.0,0.0,0.0,0.0,0.0,0.0,0.0,0.0,-0.004362171746935816,0.010211777256423244,0.021734300050408786,-0.012717288918793201,-0.09978429228067398,-0.0039589214138686536,0.34149042151680076,0.0,0.0,0.0,0.0,0.0,0.0,0.34149042151680664,0.0,0.0,0.0,0.0,0.0,0.0,0.006186208854842249,0.0,0.0,0.0,0.0,0.0,0.0,0.0,0.0,0.0,0.0,0.0,0.0,0.0,0.0,0.0,0.0,0.0,0.0,0.0,0.0,0.0
1713690049133364376,11607,1713690048341093160,uav1/gps_garmin_origin,uav1/fcu,-14.545967270634257,14.53292390726029,0.07118525263100721,0.006243569503492093,-0.01340482560576702,-0.27993930892832264,-0.9599038034131686,0.0022349878214502333,0.0,0.0,0.0,0.0,0.0,0.0,0.002234987821450234,0.0,0.0,0.0,0.0,0.0,0.0,0.03215082996166545,0.0,0.0,0.0,0.0,0.0,0.0,0.0,0.0,0.0,0.0,0.0,0.0,0.0,0.0,0.0,0.0,0.0,0.0,0.0,0.0,0.0,-0.006940357541869209,0.010683960316555562,0.026829793634148696,0.04705384373664856,-0.13519790768623352,0.014407104812562483,0.34134659192373185,0.0,0.0,0.0,0.0,0.0,0.0,0.34134659192373445,0.0,0.0,0.0,0.0,0.0,0.0,0.006182257859050877,0.0,0.0,0.0,0.0,0.0,0.0,0.0,0.0,0.0,0.0,0.0,0.0,0.0,0.0,0.0,0.0,0.0,0.0,0.0,0.0,0.0
1713690049195224383,11618,1713690048451098475,uav1/gps_garmin_origin,uav1/fcu,-14.551058732278525,14.531579387301699,0.08680098354965136,0.0021467027435978733,-0.006315156271284018,-0.28083487884365876,-0.9597329218555897,0.002233958823491787,0.0,0.0,0.0,0.0,0.0,0.0,0.002233958823491787,0.0,0.0,0.0,0.0,0.0,0.0,0.02741932797831272,0.0,0.0,0.0,0.0,0.0,0.0,0.0,0.0,0.0,0.0,0.0,0.0,0.0,0.0,0.0,0.0,0.0,0.0,0.0,0.0,0.0,-0.014269662360758127,0.008863995162224046,0.027931367555831046,0.04122123494744301,-0.097556933760643,0.026635635644197474,0.3412858626815803,0.0,0.0,0.0,0.0,0.0,0.0,0.3412858626815815,0.0,0.0,0.0,0.0,0.0,0.0,0.006192682254312909,0.0,0.0,0.0,0.0,0.0,0.0,0.0,0.0,0.0,0.0,0.0,0.0,0.0,0.0,0.0,0.0,0.0,0.0,0.0,0.0,0.0
1713690049195235512,11631,1713690048581138747,uav1/gps_garmin_origin,uav1/fcu,-14.555976859243843,14.52860851427887,0.0713290704618409,-0.0013620811018182062,0.0015370976465688213,-0.280624932180879,-0.9598153101010498,0.002236729884515783,0.0,0.0,0.0,0.0,0.0,0.0,0.0022367298845157825,0.0,0.0,0.0,0.0,0.0,0.0,0.027426422962364753,0.0,0.0,0.0,0.0,0.0,0.0,0.0,0.0,0.0,0.0,0.0,0.0,0.0,0.0,0.0,0.0,0.0,0.0,0.0,0.0,0.0,-0.017547470434775583,0.002599780701681471,0.041531904284031196,0.08875101804733276,-0.06595735251903534,0.00016023464559112552,0.3412779922781454,0.0,0.0,0.0,0.0,0.0,0.0,0.34127799227814604,0.0,0.0,0.0,0.0,0.0,0.0,0.006190426431279052,0.0,0.0,0.0,0.0,0.0,0.0,0.0,0.0,0.0,0.0,0.0,0.0,0.0,0.0,0.0,0.0,0.0,0.0,0.0,0.0,0.0
1713690049956966520,11643,1713690048701097116,uav1/gps_garmin_origin,uav1/fcu,-14.559079047741266,14.525589295446975,0.07047688998543165,-0.010750373171425805,0.006635619813948889,-0.2811382019853673,-0.9595841335759958,0.0022341619355667358,0.0,0.0,0.0,0.0,0.0,0.0,0.0022341619355667353,0.0,0.0,0.0,0.0,0.0,0.0,0.028354908756134382,0.0,0.0,0.0,0.0,0.0,0.0,0.0,0.0,0.0,0.0,0.0,0.0,0.0,0.0,0.0,0.0,0.0,0.0,0.0,0.0,0.0,-0.014271813188524121,-0.00184821630666213,0.07230026443993359,0.12591947615146637,-0.09892357140779495,0.017806503921747218,0.3412454018531364,0.0,0.0,0.0,0.0,0.0,0.0,0.34124540185313673,0.0,0.0,0.0,0.0,0.0,0.0,0.006176172517099838,0.0,0.0,0.0,0.0,0.0,0.0,0.0,0.0,0.0,0.0,0.0,0.0,0.0,0.0,0.0,0.0,0.0,0.0,0.0,0.0,0.0
1713690049956986220,11653,1713690048801092246,uav1/gps_garmin_origin,uav1/fcu,-14.560571550366555,14.522884166126053,0.07928431166223042,-0.018241881352674263,0.0036259371395671435,-0.281572722312573,-0.9593596241212476,0.0022330133833399863,0.0,0.0,0.0,0.0,0.0,0.0,0.0022330133833399863,0.0,0.0,0.0,0.0,0.0,0.0,0.032137343490862696,0.0,0.0,0.0,0.0,0.0,0.0,0.0,0.0,0.0,0.0,0.0,0.0,0.0,0.0,0.0,0.0,0.0,0.0,0.0,0.0,0.0,-0.010241283390547468,-0.004745869439077576,0.08736224194274904,0.04719355329871178,0.05443330109119415,-0.0020468623843044108,0.3412311262200466,0.0,0.0,0.0,0.0,0.0,0.0,0.3412311262200467,0.0,0.0,0.0,0.0,0.0,0.0,0.006180514148868659,0.0,0.0,0.0,0.0,0.0,0.0,0.0,0.0,0.0,0.0,0.0,0.0,0.0,0.0,0.0,0.0,0.0,0.0,0.0,0.0,0.0
1713690050059329433,11665,1713690048921641903,uav1/gps_garmin_origin,uav1/fcu,-14.561316220713412,14.516722773033758,0.12456695802477807,-0.01821139263541184,0.0030261030934183933,-0.2803544104116128,-0.9597190174426597,0.003423356037928749,0.0,0.0,0.0,0.0,0.0,0.0,0.0034233560379287485,0.0,0.0,0.0,0.0,0.0,0.0,0.04232708649472485,0.0,0.0,0.0,0.0,0.0,0.0,0.0,0.0,0.0,0.0,0.0,0.0,0.0,0.0,0.0,0.0,0.0,0.0,0.0,0.0,0.0,-0.007153244892344375,-0.01340305052446367,0.12393107906246968,0.020861810073256493,-0.10793829709291458,-0.03215982764959334,0.3515722069833378,0.0,0.0,0.0,0.0,0.0,0.0,0.3515722069833379,0.0,0.0,0.0,0.0,0.0,0.0,0.01639263880861352,0.0,0.0,0.0,0.0,0.0,0.0,0.0,0.0,0.0,0.0,0.0,0.0,0.0,0.0,0.0,0.0,0.0,0.0,0.0,0.0,0.0
1713690050116416114,11679,1713690049061194910,uav1/gps_garmin_origin,uav1/fcu,-14.564107859673905,14.503570313631561,0.15236367722419983,-0.01714998769994725,0.009500825937132518,-0.277221158365612,-0.9606060803382583,0.002232943876330632,0.0,0.0,0.0,0.0,0.0,0.0,0.002232943876330631,0.0,0.0,0.0,0.0,0.0,0.0,0.03710243726166561,0.0,0.0,0.0,0.0,0.0,0.0,0.0,0.0,0.0,0.0,0.0,0.0,0.0,0.0,0.0,0.0,0.0,0.0,0.0,0.0,0.0,-0.015090335700367098,-0.029108329476347748,0.1551323455562068,-0.23281824588775635,-0.08987900614738464,-0.04085077345371245,0.34122724900693824,0.0,0.0,0.0,0.0,0.0,0.0,0.3412272490069384,0.0,0.0,0.0,0.0,0.0,0.0,0.006176588163339669,0.0,0.0,0.0,0.0,0.0,0.0,0.0,0.0,0.0,0.0,0.0,0.0,0.0,0.0,0.0,0.0,0.0,0.0,0.0,0.0,0.0
1713690050116433582,11691,1713690049181106672,uav1/gps_garmin_origin,uav1/fcu,-14.568502815819253,14.495018365646805,0.18770470466998454,-0.003921763328350209,0.014893798059129387,-0.27657438736178946,-0.9608690872367687,0.0022189069025032276,0.0,0.0,0.0,0.0,0.0,0.0,0.002218906902503227,0.0,0.0,0.0,0.0,0.0,0.0,0.02698206267842914,0.0,0.0,0.0,0.0,0.0,0.0,0.0,0.0,0.0,0.0,0.0,0.0,0.0,0.0,0.0,0.0,0.0,0.0,0.0,0.0,0.0,-0.0174666969858991,-0.028842995784945348,0.18271553586220693,-0.29409608244895935,-0.010473457165062424,0.0237563606351614,0.34143552376446157,0.0,0.0,0.0,0.0,0.0,0.0,0.34143552376398445,0.0,0.0,0.0,0.0,0.0,0.0,0.006192641474940076,0.0,0.0,0.0,0.0,0.0,0.0,0.0,0.0,0.0,0.0,0.0,0.0,0.0,0.0,0.0,0.0,0.0,0.0,0.0,0.0,0.0
1713690050135195138,11703,1713690049301108470,uav1/gps_garmin_origin,uav1/fcu,-14.574313008013917,14.487393510041954,0.22325586893569177,0.0008971667207870259,0.011358633116877164,-0.2755621761744693,-0.9612157216814454,0.002236493580465795,0.0,0.0,0.0,0.0,0.0,0.0,0.002236493580465796,0.0,0.0,0.0,0.0,0.0,0.0,0.027412930579926744,0.0,0.0,0.0,0.0,0.0,0.0,0.0,0.0,0.0,0.0,0.0,0.0,0.0,0.0,0.0,0.0,0.0,0.0,0.0,0.0,0.0,-0.021237288430895555,-0.022113772469141504,0.19189358398938078,-0.003513032104820013,0.04336593300104141,-0.020012954249978072,0.3413997606595425,0.0,0.0,0.0,0.0,0.0,0.0,0.3413997606603304,0.0,0.0,0.0,0.0,0.0,0.0,0.006183851148085681,0.0,0.0,0.0,0.0,0.0,0.0,0.0,0.0,0.0,0.0,0.0,0.0,0.0,0.0,0.0,0.0,0.0,0.0,0.0,0.0,0.0
1713690050297254466,11715,1713690049421106411,uav1/gps_garmin_origin,uav1/fcu,-14.584985676556633,14.478186773034006,0.25465250789978244,0.004912836393392154,0.008975508655366513,-0.27567825930418527,-0.9611955064553536,0.0022381129732655593,0.0,0.0,0.0,0.0,0.0,0.0,0.0022381129732655606,0.0,0.0,0.0,0.0,0.0,0.0,0.027767774870465254,0.0,0.0,0.0,0.0,0.0,0.0,0.0,0.0,0.0,0.0,0.0,0.0,0.0,0.0,0.0,0.0,0.0,0.0,0.0,0.0,0.0,-0.033216818085214574,-0.014898162865069073,0.232479969935792,0.05911421775817871,0.012289989739656448,0.005355932284146546,0.34133391359166276,0.0,0.0,0.0,0.0,0.0,0.0,0.34133391359207765,0.0,0.0,0.0,0.0,0.0,0.0,0.006188519192189033,0.0,0.0,0.0,0.0,0.0,0.0,0.0,0.0,0.0,0.0,0.0,0.0,0.0,0.0,0.0,0.0,0.0,0.0,0.0,0.0,0.0
1713690050297294233,11727,1713690049541096208,uav1/gps_garmin_origin,uav1/fcu,-14.602138280480734,14.470642371165809,0.3005646528887475,-0.0008998884155586759,0.009258347688688037,-0.2736182517304838,-0.9617933902449469,0.00338899383897881,0.0,0.0,0.0,0.0,0.0,0.0,0.003388993838978906,0.0,0.0,0.0,0.0,0.0,0.0,0.02841814782158839,0.0,0.0,0.0,0.0,0.0,0.0,0.0,0.0,0.0,0.0,0.0,0.0,0.0,0.0,0.0,0.0,0.0,0.0,0.0,0.0,0.0,-0.04386604500658728,0.005521525991101631,0.2613587719311446,-0.020737841725349426,0.1367550939321518,-0.04716216400265695,0.3513104656480504,0.0,0.0,0.0,0.0,0.0,0.0,0.3513104656482456,0.0,0.0,0.0,0.0,0.0,0.0,0.006192682653752095,0.0,0.0,0.0,0.0,0.0,0.0,0.0,0.0,0.0,0.0,0.0,0.0,0.0,0.0,0.0,0.0,0.0,0.0,0.0,0.0,0.0
1713690050297322829,11738,1713690049651607043,uav1/gps_garmin_origin,uav1/fcu,-14.622102864053332,14.465678644632689,0.3590205857810837,0.0021168280719474773,0.0031513494351304242,-0.27016920733964384,-0.9628053736041984,0.0024291214263796146,0.0,0.0,0.0,0.0,0.0,0.0,0.002429121426379615,0.0,0.0,0.0,0.0,0.0,0.0,0.03783861966596179,0.0,0.0,0.0,0.0,0.0,0.0,0.0,0.0,0.0,0.0,0.0,0.0,0.0,0.0,0.0,0.0,0.0,0.0,0.0,0.0,0.0,-0.060247549852687036,0.022493091283599696,0.27398725148089176,0.06080564484000206,0.06480483710765837,-0.10525145381689073,0.3429033853127358,0.0,0.0,0.0,0.0,0.0,0.0,0.34290338531069214,0.0,0.0,0.0,0.0,0.0,0.0,0.022238882640455537,0.0,0.0,0.0,0.0,0.0,0.0,0.0,0.0,0.0,0.0,0.0,0.0,0.0,0.0,0.0,0.0,0.0,0.0,0.0,0.0,0.0
1713690050646712306,11750,1713690049771177240,uav1/gps_garmin_origin,uav1/fcu,-14.64519372938081,14.462632165692082,0.373893758045074,0.0007620604360911925,-0.0035821723482586773,-0.2606040906900539,-0.9654388096719385,0.0022318604941968232,0.0,0.0,0.0,0.0,0.0,0.0,0.002231860494196822,0.0,0.0,0.0,0.0,0.0,0.0,0.037431294256868614,0.0,0.0,0.0,0.0,0.0,0.0,0.0,0.0,0.0,0.0,0.0,0.0,0.0,0.0,0.0,0.0,0.0,0.0,0.0,0.0,0.0,-0.07044900087043934,0.04019158168365669,0.2866484740425906,-0.014660593122243881,0.13435374200344083,-0.17832753062248233,0.34145101281181006,0.0,0.0,0.0,0.0,0.0,0.0,0.34145101281213225,0.0,0.0,0.0,0.0,0.0,0.0,0.006190221987952642,0.0,0.0,0.0,0.0,0.0,0.0,0.0,0.0,0.0,0.0,0.0,0.0,0.0,0.0,0.0,0.0,0.0,0.0,0.0,0.0,0.0
1713690050659094950,11760,1713690049871106601,uav1/gps_garmin_origin,uav1/fcu,-14.665352414143,14.461217062999767,0.40114136791462734,-0.003173164555590046,-0.007120205272267484,-0.2524029395135893,-0.9675908173543626,0.002233983322994304,0.0,0.0,0.0,0.0,0.0,0.0,0.002233983322994303,0.0,0.0,0.0,0.0,0.0,0.0,0.028001737424104913,0.0,0.0,0.0,0.0,0.0,0.0,0.0,0.0,0.0,0.0,0.0,0.0,0.0,0.0,0.0,0.0,0.0,0.0,0.0,0.0,0.0,-0.07157651602917423,0.051662505264947776,0.35102272005985685,0.148045152425766,-0.02316625043749811,-0.1329202651977539,0.3413378983508202,0.0,0.0,0.0,0.0,0.0,0.0,0.3413378983510786,0.0,0.0,0.0,0.0,0.0,0.0,0.006170222826672111,0.0,0.0,0.0,0.0,0.0,0.0,0.0,0.0,0.0,0.0,0.0,0.0,0.0,0.0,0.0,0.0,0.0,0.0,0.0,0.0,0.0
1713690050659111666,11774,1713690050011056468,uav1/gps_garmin_origin,uav1/fcu,-14.695702755142404,14.458919178677322,0.43986995330843337,-0.005476365621372786,-0.004416911456892214,-0.24519231631319904,-0.9694489302349718,0.0022361816905582844,0.0,0.0,0.0,0.0,0.0,0.0,0.0022361816905582844,0.0,0.0,0.0,0.0,0.0,0.0,0.027405612855385977,0.0,0.0,0.0,0.0,0.0,0.0,0.0,0.0,0.0,0.0,0.0,0.0,0.0,0.0,0.0,0.0,0.0,0.0,0.0,0.0,0.0,-0.06872159466449458,0.05810874805764239,0.39688438446241947,-0.10402345657348633,-0.006575213745236408,-0.08884231001138687,0.3412916684998556,0.0,0.0,0.0,0.0,0.0,0.0,0.34129166849996734,0.0,0.0,0.0,0.0,0.0,0.0,0.006183015448607059,0.0,0.0,0.0,0.0,0.0,0.0,0.0,0.0,0.0,0.0,0.0,0.0,0.0,0.0,0.0,0.0,0.0,0.0,0.0,0.0,0.0
1713690050712230046,11786,1713690050131099684,uav1/gps_garmin_origin,uav1/fcu,-14.724656138140567,14.457033199919529,0.5098392027044624,-0.003316775440139365,-0.006806393698500544,-0.24048728401725333,-0.9706227579402339,0.002233834968583409,0.0,0.0,0.0,0.0,0.0,0.0,0.002233834968583408,0.0,0.0,0.0,0.0,0.0,0.0,0.027713715155073638,0.0,0.0,0.0,0.0,0.0,0.0,0.0,0.0,0.0,0.0,0.0,0.0,0.0,0.0,0.0,0.0,0.0,0.0,0.0,0.0,0.0,-0.0728247200116996,0.060832346568920954,0.4187590843384642,0.057020027190446854,0.05650819092988967,-0.06596186012029648,0.3412514815764821,0.0,0.0,0.0,0.0,0.0,0.0,0.34125148157653407,0.0,0.0,0.0,0.0,0.0,0.0,0.006172449596772769,0.0,0.0,0.0,0.0,0.0,0.0,0.0,0.0,0.0,0.0,0.0,0.0,0.0,0.0,0.0,0.0,0.0,0.0,0.0,0.0,0.0
1713690050809857917,11796,1713690050231106583,uav1/gps_garmin_origin,uav1/fcu,-14.751273816884323,14.457377842427404,0.5550299237493824,-0.0038878446219312054,-0.010863099135558985,-0.23850218112554827,-0.9710734201592189,0.002234227334239343,0.0,0.0,0.0,0.0,0.0,0.0,0.002234227334239342,0.0,0.0,0.0,0.0,0.0,0.0,0.032136902801497,0.0,0.0,0.0,0.0,0.0,0.0,0.0,0.0,0.0,0.0,0.0,0.0,0.0,0.0,0.0,0.0,0.0,0.0,0.0,0.0,0.0,-0.07663033800990193,0.06949370960631879,0.4218445618077121,0.013572623953223228,0.05936634540557861,-0.023378534242510803,0.34124543750541214,0.0,0.0,0.0,0.0,0.0,0.0,0.3412454375054396,0.0,0.0,0.0,0.0,0.0,0.0,0.006180480343615085,0.0,0.0,0.0,0.0,0.0,0.0,0.0,0.0,0.0,0.0,0.0,0.0,0.0,0.0,0.0,0.0,0.0,0.0,0.0,0.0,0.0
1713690050927003882,11810,1713690050371188250,uav1/gps_garmin_origin,uav1/fcu,-14.791976589327708,14.456871796082675,0.6255846190677988,-0.0027032751655413465,-0.01610838400793448,-0.23493491268705025,-0.971873859648854,0.0022342687916869857,0.0,0.0,0.0,0.0,0.0,0.0,0.0022342687916869853,0.0,0.0,0.0,0.0,0.0,0.0,0.0320436638230629,0.0,0.0,0.0,0.0,0.0,0.0,0.0,0.0,0.0,0.0,0.0,0.0,0.0,0.0,0.0,0.0,0.0,0.0,0.0,0.0,0.0,-0.0856654561083665,0.07387765746316997,0.44249883938659357,0.03173661604523659,0.11042750626802444,-0.05464201793074609,0.34124040264353156,0.0,0.0,0.0,0.0,0.0,0.0,0.3412404026435429,0.0,0.0,0.0,0.0,0.0,0.0,0.006192518876027534,0.0,0.0,0.0,0.0,0.0,0.0,0.0,0.0,0.0,0.0,0.0,0.0,0.0,0.0,0.0,0.0,0.0,0.0,0.0,0.0,0.0
1713690051267805410,11822,1713690050491095938,uav1/gps_garmin_origin,uav1/fcu,-14.829498775235749,14.455275782684424,0.6822412381332251,-0.008656199999298834,-0.02048301433167355,-0.23256365043952543,-0.9723269330938553,0.0022330807920384966,0.0,0.0,0.0,0.0,0.0,0.0,0.0022330807920384983,0.0,0.0,0.0,0.0,0.0,0.0,0.03437056327401276,0.0,0.0,0.0,0.0,0.0,0.0,0.0,0.0,0.0,0.0,0.0,0.0,0.0,0.0,0.0,0.0,0.0,0.0,0.0,0.0,0.0,-0.09156394762774037,0.07937152800125766,0.44998631286196883,0.16057652235031128,0.04101292043924332,-0.005673835519701248,0.34122768430814315,0.0,0.0,0.0,0.0,0.0,0.0,0.3412276843081485,0.0,0.0,0.0,0.0,0.0,0.0,0.006173608014272331,0.0,0.0,0.0,0.0,0.0,0.0,0.0,0.0,0.0,0.0,0.0,0.0,0.0,0.0,0.0,0.0,0.0,0.0,0.0,0.0,0.0
1713690051268169513,11832,1713690050591137451,uav1/gps_garmin_origin,uav1/fcu,-14.86285439428714,14.455803578869926,0.7285852614848722,-0.011433262270968709,-0.02511692735393231,-0.2332107632760937,-0.9720345468996061,0.003396594960497056,0.0,0.0,0.0,0.0,0.0,0.0,0.003396594960497057,0.0,0.0,0.0,0.0,0.0,0.0,0.027395960938090554,0.0,0.0,0.0,0.0,0.0,0.0,0.0,0.0,0.0,0.0,0.0,0.0,0.0,0.0,0.0,0.0,0.0,0.0,0.0,0.0,0.0,-0.08609539473023546,0.08308358838680804,0.46124625347123643,0.028934000059962273,0.08541280776262283,0.029285643249750127,0.35134317511766106,0.0,0.0,0.0,0.0,0.0,0.0,0.3513431751176639,0.0,0.0,0.0,0.0,0.0,0.0,0.006178639038025887,0.0,0.0,0.0,0.0,0.0,0.0,0.0,0.0,0.0,0.0,0.0,0.0,0.0,0.0,0.0,0.0,0.0,0.0,0.0,0.0,0.0
1713690051313543476,11846,1713690050731096103,uav1/gps_garmin_origin,uav1/fcu,-14.906577464026313,14.4544160304862,0.791036517718984,-0.011576906911907091,-0.030554211670454745,-0.23695579192619604,-0.9709708378979152,0.00338688831521355,0.0,0.0,0.0,0.0,0.0,0.0,0.003386888315213549,0.0,0.0,0.0,0.0,0.0,0.0,0.027397746980465675,0.0,0.0,0.0,0.0,0.0,0.0,0.0,0.0,0.0,0.0,0.0,0.0,0.0,0.0,0.0,0.0,0.0,0.0,0.0,0.0,0.0,-0.08870423284431117,0.08286209961290376,0.47058772951944033,0.003890066174790263,0.05359365791082383,0.07357673346996307,0.3512605666516522,0.0,0.0,0.0,0.0,0.0,0.0,0.3512605666516534,0.0,0.0,0.0,0.0,0.0,0.0,0.0061836992486898265,0.0,0.0,0.0,0.0,0.0,0.0,0.0,0.0,0.0,0.0,0.0,0.0,0.0,0.0,0.0,0.0,0.0,0.0,0.0,0.0,0.0
1713690051416454542,11858,1713690050851132241,uav1/gps_garmin_origin,uav1/fcu,-14.944042863812767,14.451553600584619,0.8491883907105298,-0.011738294611054561,-0.03228492806943371,-0.24160401404471243,-0.9697666710382749,0.0022342640464418284,0.0,0.0,0.0,0.0,0.0,0.0,0.0022342640464418292,0.0,0.0,0.0,0.0,0.0,0.0,0.03752349608373146,0.0,0.0,0.0,0.0,0.0,0.0,0.0,0.0,0.0,0.0,0.0,0.0,0.0,0.0,0.0,0.0,0.0,0.0,0.0,0.0,0.0,-0.07890693720509642,0.07278714100292095,0.46497792209435607,0.018780536949634552,0.03389522060751916,0.07220794260501862,0.3412599542702766,0.0,0.0,0.0,0.0,0.0,0.0,0.34125995427027705,0.0,0.0,0.0,0.0,0.0,0.0,0.016155315760880008,0.0,0.0,0.0,0.0,0.0,0.0,0.0,0.0,0.0,0.0,0.0,0.0,0.0,0.0,0.0,0.0,0.0,0.0,0.0,0.0,0.0
1713690051520647388,11869,1713690050961108588,uav1/gps_garmin_origin,uav1/fcu,-14.977118690583147,14.450533658413924,0.8868560929863262,-0.011688655378797042,-0.036894659472597645,-0.2463121990975352,-0.9684175029467263,0.0022349629336940787,0.0,0.0,0.0,0.0,0.0,0.0,0.0022349629336940804,0.0,0.0,0.0,0.0,0.0,0.0,0.039562858332431686,0.0,0.0,0.0,0.0,0.0,0.0,0.0,0.0,0.0,0.0,0.0,0.0,0.0,0.0,0.0,0.0,0.0,0.0,0.0,0.0,0.0,-0.06717377777884068,0.0686916791835926,0.4610391633982961,-0.002130519598722458,0.07460421323776247,0.1056397259235382,0.34125158784711623,0.0,0.0,0.0,0.0,0.0,0.0,0.34125158784711646,0.0,0.0,0.0,0.0,0.0,0.0,0.01614092135484803,0.0,0.0,0.0,0.0,0.0,0.0,0.0,0.0,0.0,0.0,0.0,0.0,0.0,0.0,0.0,0.0,0.0,0.0,0.0,0.0,0.0
1713690051705128763,11879,1713690051061112135,uav1/gps_garmin_origin,uav1/fcu,-15.004711896726617,14.449848991952054,0.8890831087859347,-0.010801819159752516,-0.038234686068462545,-0.25194621940144674,-0.9669252980522355,0.0033927728118881397,0.0,0.0,0.0,0.0,0.0,0.0,0.003392772811888137,0.0,0.0,0.0,0.0,0.0,0.0,0.027117686396089892,0.0,0.0,0.0,0.0,0.0,0.0,0.0,0.0,0.0,0.0,0.0,0.0,0.0,0.0,0.0,0.0,0.0,0.0,0.0,0.0,0.0,-0.042135013943498924,0.056709905314641276,0.46814098970565604,-0.02556951902806759,-0.00643722247332333,0.13045752048492432,0.3513160758531105,0.0,0.0,0.0,0.0,0.0,0.0,0.3513160758531105,0.0,0.0,0.0,0.0,0.0,0.0,0.0061819036330127124,0.0,0.0,0.0,0.0,0.0,0.0,0.0,0.0,0.0,0.0,0.0,0.0,0.0,0.0,0.0,0.0,0.0,0.0,0.0,0.0,0.0
1713690051809350886,11893,1713690051201108005,uav1/gps_garmin_origin,uav1/fcu,-15.042332207963412,14.447404771165381,0.9761481532228632,-0.011380990155477371,-0.04190610708506711,-0.26056302086937516,-0.9644797890093298,0.0022329280988246463,0.0,0.0,0.0,0.0,0.0,0.0,0.002232928098824647,0.0,0.0,0.0,0.0,0.0,0.0,0.03708760590381017,0.0,0.0,0.0,0.0,0.0,0.0,0.0,0.0,0.0,0.0,0.0,0.0,0.0,0.0,0.0,0.0,0.0,0.0,0.0,0.0,0.0,-0.03519643174051083,0.051294638401221046,0.4824115505742684,0.04625307396054268,0.08208701014518739,0.12458442896604537,0.3412268951811004,0.0,0.0,0.0,0.0,0.0,0.0,0.3412268951811005,0.0,0.0,0.0,0.0,0.0,0.0,0.006177041860232946,0.0,0.0,0.0,0.0,0.0,0.0,0.0,0.0,0.0,0.0,0.0,0.0,0.0,0.0,0.0,0.0,0.0,0.0,0.0,0.0,0.0
1713690051876727512,11903,1713690051301097485,uav1/gps_garmin_origin,uav1/fcu,-15.066227105976399,14.444727427883128,1.0081564946596397,-0.011723875624986339,-0.04418144386139477,-0.2659328688088874,-0.962907191813275,0.003391919136282826,0.0,0.0,0.0,0.0,0.0,0.0,0.003391919136282827,0.0,0.0,0.0,0.0,0.0,0.0,0.028364188299469604,0.0,0.0,0.0,0.0,0.0,0.0,0.0,0.0,0.0,0.0,0.0,0.0,0.0,0.0,0.0,0.0,0.0,0.0,0.0,0.0,0.0,-0.011099588954579943,0.03414353872656074,0.45923134367899143,0.008888081647455692,0.045702684670686736,0.1153484508395195,0.35130421742260687,0.0,0.0,0.0,0.0,0.0,0.0,0.35130421742260703,0.0,0.0,0.0,0.0,0.0,0.0,0.006179062175728968,0.0,0.0,0.0,0.0,0.0,0.0,0.0,0.0,0.0,0.0,0.0,0.0,0.0,0.0,0.0,0.0,0.0,0.0,0.0,0.0,0.0
1713690052012689886,11915,1713690051421095985,uav1/gps_garmin_origin,uav1/fcu,-15.090996447112042,14.44303581318855,1.0615800450465065,-0.010776746893095133,-0.045297560716998315,-0.2718954983886777,-0.9611996830396192,0.0022347604290728386,0.0,0.0,0.0,0.0,0.0,0.0,0.002234760429072838,0.0,0.0,0.0,0.0,0.0,0.0,0.02839122246748547,0.0,0.0,0.0,0.0,0.0,0.0,0.0,0.0,0.0,0.0,0.0,0.0,0.0,0.0,0.0,0.0,0.0,0.0,0.0,0.0,0.0,0.007256476294595443,0.02366690652714091,0.43242935293863666,-0.013587410561740398,-0.01854403316974639,0.0918097048997879,0.3412396070121017,0.0,0.0,0.0,0.0,0.0,0.0,0.3412396070121018,0.0,0.0,0.0,0.0,0.0,0.0,0.006177368631234683,0.0,0.0,0.0,0.0,0.0,0.0,0.0,0.0,0.0,0.0,0.0,0.0,0.0,0.0,0.0,0.0,0.0,0.0,0.0,0.0,0.0
1713690052110976041,11927,1713690051541099643,uav1/gps_garmin_origin,uav1/fcu,-15.110889886300958,14.439893275937118,1.1265351918478645,-0.011816145759122865,-0.04389227243292236,-0.27636041386571686,-0.9599785251598303,0.0022328892965266744,0.0,0.0,0.0,0.0,0.0,0.0,0.002232889296526674,0.0,0.0,0.0,0.0,0.0,0.0,0.029691422000224527,0.0,0.0,0.0,0.0,0.0,0.0,0.0,0.0,0.0,0.0,0.0,0.0,0.0,0.0,0.0,0.0,0.0,0.0,0.0,0.0,0.0,0.03455623848692134,0.005098050503442884,0.4158217349354916,0.016910631209611893,-0.001253446214832355,0.08577734977006912,0.3412248582869199,0.0,0.0,0.0,0.0,0.0,0.0,0.34122485828691984,0.0,0.0,0.0,0.0,0.0,0.0,0.0061910908329872736,0.0,0.0,0.0,0.0,0.0,0.0,0.0,0.0,0.0,0.0,0.0,0.0,0.0,0.0,0.0,0.0,0.0,0.0,0.0,0.0,0.0
1713690052303051440,11941,1713690051681140774,uav1/gps_garmin_origin,uav1/fcu,-15.128321176105798,14.433352446226642,1.1896934950841624,-0.010729890624121802,-0.04313627762777516,-0.2837684602955406,-0.9578619900283714,0.0033841474962337395,0.0,0.0,0.0,0.0,0.0,0.0,0.0033841474962337395,0.0,0.0,0.0,0.0,0.0,0.0,0.028318511541009377,0.0,0.0,0.0,0.0,0.0,0.0,0.0,0.0,0.0,0.0,0.0,0.0,0.0,0.0,0.0,0.0,0.0,0.0,0.0,0.0,0.0,0.069886848187448,-0.027618242420288444,0.3691306309086516,-0.062287598848342896,-0.005029928404837833,0.11129871755838394,0.3512399338026706,0.0,0.0,0.0,0.0,0.0,0.0,0.3512399338026705,0.0,0.0,0.0,0.0,0.0,0.0,0.006148769464759044,0.0,0.0,0.0,0.0,0.0,0.0,0.0,0.0,0.0,0.0,0.0,0.0,0.0,0.0,0.0,0.0,0.0,0.0,0.0,0.0,0.0
1713690052365718290,11953,1713690051801103851,uav1/gps_garmin_origin,uav1/fcu,-15.1419657298037,14.430351793794658,1.2488568822515682,-0.00751526159798797,-0.04054110074787546,-0.28912231312773756,-0.9564037996813536,0.0033832421156962953,0.0,0.0,0.0,0.0,0.0,0.0,0.003383242115696297,0.0,0.0,0.0,0.0,0.0,0.0,0.029602837419287705,0.0,0.0,0.0,0.0,0.0,0.0,0.0,0.0,0.0,0.0,0.0,0.0,0.0,0.0,0.0,0.0,0.0,0.0,0.0,0.0,0.0,0.09098924156537044,-0.03967645984407697,0.3506648815841682,-0.07113578915596008,-0.0661187320947647,0.07745474576950075,0.3512323169320917,0.0,0.0,0.0,0.0,0.0,0.0,0.35123231693209167,0.0,0.0,0.0,0.0,0.0,0.0,0.00618937608728884,0.0,0.0,0.0,0.0,0.0,0.0,0.0,0.0,0.0,0.0,0.0,0.0,0.0,0.0,0.0,0.0,0.0,0.0,0.0,0.0,0.0
1713690052501699385,11965,1713690051921098274,uav1/gps_garmin_origin,uav1/fcu,-15.1528389735602,14.427734530531971,1.2977819330721254,-0.0054898072766487145,-0.03910215366043606,-0.2903777583360947,-0.9560970876740946,0.0022379003175063633,0.0,0.0,0.0,0.0,0.0,0.0,0.0022379003175063633,0.0,0.0,0.0,0.0,0.0,0.0,0.02974445609397801,0.0,0.0,0.0,0.0,0.0,0.0,0.0,0.0,0.0,0.0,0.0,0.0,0.0,0.0,0.0,0.0,0.0,0.0,0.0,0.0,0.0,0.10600602866507033,-0.04632248538639126,0.3298196978084927,-0.010684278793632984,0.02977897785604,0.005547893233597275,0.3412649460874225,0.0,0.0,0.0,0.0,0.0,0.0,0.3412649460874226,0.0,0.0,0.0,0.0,0.0,0.0,0.006184810056440026,0.0,0.0,0.0,0.0,0.0,0.0,0.0,0.0,0.0,0.0,0.0,0.0,0.0,0.0,0.0,0.0,0.0,0.0,0.0,0.0,0.0
1713690052668967564,11977,1713690052041117443,uav1/gps_garmin_origin,uav1/fcu,-15.161418106459987,14.427173295238081,1.3321480145451756,-0.003685900292439905,-0.04077134781595449,-0.2911523206054479,-0.9558004172118608,0.0022349873981634266,0.0,0.0,0.0,0.0,0.0,0.0,0.002234987398163427,0.0,0.0,0.0,0.0,0.0,0.0,0.037196279823617666,0.0,0.0,0.0,0.0,0.0,0.0,0.0,0.0,0.0,0.0,0.0,0.0,0.0,0.0,0.0,0.0,0.0,0.0,0.0,0.0,0.0,0.12402646722981014,-0.050324398144410476,0.2974197829815535,-0.03636838495731354,0.05843085050582886,0.015380775555968278,0.34124197718110516,0.0,0.0,0.0,0.0,0.0,0.0,0.34124197718110527,0.0,0.0,0.0,0.0,0.0,0.0,0.006175239964645206,0.0,0.0,0.0,0.0,0.0,0.0,0.0,0.0,0.0,0.0,0.0,0.0,0.0,0.0,0.0,0.0,0.0,0.0,0.0,0.0,0.0
1713690052760160018,11987,1713690052141060488,uav1/gps_garmin_origin,uav1/fcu,-15.167612131978467,14.428937741494655,1.3630271498189286,-0.0027227431818197885,-0.04240620894327717,-0.29128219371191455,-0.9556929338124245,0.0022381699893235527,0.0,0.0,0.0,0.0,0.0,0.0,0.0022381699893235514,0.0,0.0,0.0,0.0,0.0,0.0,0.027781691255800586,0.0,0.0,0.0,0.0,0.0,0.0,0.0,0.0,0.0,0.0,0.0,0.0,0.0,0.0,0.0,0.0,0.0,0.0,0.0,0.0,0.0,0.1374922382878051,-0.048238299867174435,0.28050909931673723,0.018767692148685455,0.02640298381447792,0.003153746947646138,0.3412671464014312,0.0,0.0,0.0,0.0,0.0,0.0,0.34126714640143124,0.0,0.0,0.0,0.0,0.0,0.0,0.006193979679734404,0.0,0.0,0.0,0.0,0.0,0.0,0.0,0.0,0.0,0.0,0.0,0.0,0.0,0.0,0.0,0.0,0.0,0.0,0.0,0.0,0.0
1713690052857099892,12001,1713690052281097363,uav1/gps_garmin_origin,uav1/fcu,-15.171593287059085,14.434369784755859,1.3951832145569274,-0.005777891707240066,-0.04020201641458835,-0.29183221080295224,-0.9556068096144362,0.003386187162520957,0.0,0.0,0.0,0.0,0.0,0.0,0.003386187162520957,0.0,0.0,0.0,0.0,0.0,0.0,0.027466264573918906,0.0,0.0,0.0,0.0,0.0,0.0,0.0,0.0,0.0,0.0,0.0,0.0,0.0,0.0,0.0,0.0,0.0,0.0,0.0,0.0,0.0,0.1662360892027573,-0.049390692372132894,0.2582882043723209,0.0347876138985157,-0.07009109109640121,0.02195368334650994,0.35125067813561334,0.0,0.0,0.0,0.0,0.0,0.0,0.35125067813561334,0.0,0.0,0.0,0.0,0.0,0.0,0.00620067254560476,0.0,0.0,0.0,0.0,0.0,0.0,0.0,0.0,0.0,0.0,0.0,0.0,0.0,0.0,0.0,0.0,0.0,0.0,0.0,0.0,0.0
1713690052983178212,12013,1713690052401086154,uav1/gps_garmin_origin,uav1/fcu,-15.174552230235282,14.440352297549975,1.4185425490288184,-0.00846395939263013,-0.0377335199985272,-0.29317419338032025,-0.955276627577436,0.0022333951565037882,0.0,0.0,0.0,0.0,0.0,0.0,0.0022333951565037882,0.0,0.0,0.0,0.0,0.0,0.0,0.027719852852109955,0.0,0.0,0.0,0.0,0.0,0.0,0.0,0.0,0.0,0.0,0.0,0.0,0.0,0.0,0.0,0.0,0.0,0.0,0.0,0.0,0.0,0.18068773298152238,-0.0470367613200508,0.24335890085195985,0.03719966113567352,-0.03959351032972335,0.03146704658865929,0.34122857356246034,0.0,0.0,0.0,0.0,0.0,0.0,0.3412285735624603,0.0,0.0,0.0,0.0,0.0,0.0,0.0061808219513792,0.0,0.0,0.0,0.0,0.0,0.0,0.0,0.0,0.0,0.0,0.0,0.0,0.0,0.0,0.0,0.0,0.0,0.0,0.0,0.0,0.0
1713690053197249840,12024,1713690052511105090,uav1/gps_garmin_origin,uav1/fcu,-15.171822828028542,14.448071262451439,1.4286907019560178,-0.00994409858284479,-0.03517174702532669,-0.28262997937828543,-0.958532397924656,0.0033921537182354314,0.0,0.0,0.0,0.0,0.0,0.0,0.0033921537182354288,0.0,0.0,0.0,0.0,0.0,0.0,0.029618045180564607,0.0,0.0,0.0,0.0,0.0,0.0,0.0,0.0,0.0,0.0,0.0,0.0,0.0,0.0,0.0,0.0,0.0,0.0,0.0,0.0,0.0,0.19486823071157774,-0.04274367455805683,0.205165769472115,-0.08034031093120575,-0.11092209070920943,0.057271271944046034,0.3513076263240584,0.0,0.0,0.0,0.0,0.0,0.0,0.3513076263240583,0.0,0.0,0.0,0.0,0.0,0.0,0.00619279261646425,0.0,0.0,0.0,0.0,0.0,0.0,0.0,0.0,0.0,0.0,0.0,0.0,0.0,0.0,0.0,0.0,0.0,0.0,0.0,0.0,0.0
1713690053217776265,12037,1713690052641014391,uav1/gps_garmin_origin,uav1/fcu,-15.174348215419151,14.457505591300803,1.4466245911716435,-0.009238531598076848,-0.013135616947915391,-0.2884580295060653,-0.9573578590656615,0.003383933079776565,0.0,0.0,0.0,0.0,0.0,0.0,0.003383933079776566,0.0,0.0,0.0,0.0,0.0,0.0,0.02961665051839847,0.0,0.0,0.0,0.0,0.0,0.0,0.0,0.0,0.0,0.0,0.0,0.0,0.0,0.0,0.0,0.0,0.0,0.0,0.0,0.0,0.0,0.16087299337454772,-0.022130016319177166,0.12630772411162317,-0.10010594874620438,-0.4460922181606293,0.12820927798748022,0.35123596055671247,0.0,0.0,0.0,0.0,0.0,0.0,0.3512359605567125,0.0,0.0,0.0,0.0,0.0,0.0,0.006189760636317642,0.0,0.0,0.0,0.0,0.0,0.0,0.0,0.0,0.0,0.0,0.0,0.0,0.0,0.0,0.0,0.0,0.0,0.0,0.0,0.0,0.0
1713690053330291843,12048,1713690052751965541,uav1/gps_garmin_origin,uav1/fcu,-15.182039407726238,14.46420541737391,1.463092500989619,-0.010163738705390023,0.010777879771105612,-0.2938359373548671,-0.9557410620256694,0.0034374702989443725,0.0,0.0,0.0,0.0,0.0,0.0,0.0034374702989443725,0.0,0.0,0.0,0.0,0.0,0.0,0.042377267739502705,0.0,0.0,0.0,0.0,0.0,0.0,0.0,0.0,0.0,0.0,0.0,0.0,0.0,0.0,0.0,0.0,0.0,0.0,0.0,0.0,0.0,0.10313951018277193,-0.0031960702450511964,0.09846285172848918,-0.11934429407119751,-0.22982972860336304,0.08851281553506854,0.3516875083422233,0.0,0.0,0.0,0.0,0.0,0.0,0.3516875083422234,0.0,0.0,0.0,0.0,0.0,0.0,0.016418113109555155,0.0,0.0,0.0,0.0,0.0,0.0,0.0,0.0,0.0,0.0,0.0,0.0,0.0,0.0,0.0,0.0,0.0,0.0,0.0,0.0,0.0
1713690053428156175,12058,1713690052853808448,uav1/gps_garmin_origin,uav1/fcu,-15.196251369791707,14.468079862638707,1.4646165874413772,-0.0067212611449650106,0.015244780747241032,-0.2962990925205837,-0.954949877784205,0.002230537288046234,0.0,0.0,0.0,0.0,0.0,0.0,0.0022305372880462356,0.0,0.0,0.0,0.0,0.0,0.0,0.027649059922377782,0.0,0.0,0.0,0.0,0.0,0.0,0.0,0.0,0.0,0.0,0.0,0.0,0.0,0.0,0.0,0.0,0.0,0.0,0.0,0.0,0.0,0.039892718166644144,0.017435913585732682,0.14516067225759477,-0.08625275641679764,0.05607350170612336,0.07899481058120728,0.34121372202268463,0.0,0.0,0.0,0.0,0.0,0.0,0.3412137220226847,0.0,0.0,0.0,0.0,0.0,0.0,0.0061886423738313125,0.0,0.0,0.0,0.0,0.0,0.0,0.0,0.0,0.0,0.0,0.0,0.0,0.0,0.0,0.0,0.0,0.0,0.0,0.0,0.0,0.0
1713690053611736601,12070,1713690052971117359,uav1/gps_garmin_origin,uav1/fcu,-15.22342109804513,14.470429674653511,1.4822186457586963,-0.003989961315409962,0.0030722647885039105,-0.29657508831944357,-0.9549962609278033,0.0033964096892906597,0.0,0.0,0.0,0.0,0.0,0.0,0.0033964096892906597,0.0,0.0,0.0,0.0,0.0,0.0,0.02837061162811053,0.0,0.0,0.0,0.0,0.0,0.0,0.0,0.0,0.0,0.0,0.0,0.0,0.0,0.0,0.0,0.0,0.0,0.0,0.0,0.0,0.0,-0.041893331896360735,0.03871238664344078,0.10139798087921514,0.10836098343133926,0.3230539560317993,0.07060824334621425,0.3513688596527644,0.0,0.0,0.0,0.0,0.0,0.0,0.3513688596527643,0.0,0.0,0.0,0.0,0.0,0.0,0.006184987704323399,0.0,0.0,0.0,0.0,0.0,0.0,0.0,0.0,0.0,0.0,0.0,0.0,0.0,0.0,0.0,0.0,0.0,0.0,0.0,0.0,0.0
1713690053759262074,12083,1713690053101063973,uav1/gps_garmin_origin,uav1/fcu,-15.260368370180405,14.470919466407295,1.48233951395005,-0.006413311726781967,-0.02461112882969466,-0.29709986826945894,-0.9545076374994039,0.0033861941986933377,0.0,0.0,0.0,0.0,0.0,0.0,0.0033861941986933386,0.0,0.0,0.0,0.0,0.0,0.0,0.03833939559900155,0.0,0.0,0.0,0.0,0.0,0.0,0.0,0.0,0.0,0.0,0.0,0.0,0.0,0.0,0.0,0.0,0.0,0.0,0.0,0.0,0.0,-0.08156505321806926,0.04828677447868612,0.03470812632898751,0.1692129522562027,0.3826402425765991,0.06624414026737209,0.351262750496282,0.0,0.0,0.0,0.0,0.0,0.0,0.351262750496282,0.0,0.0,0.0,0.0,0.0,0.0,0.01615925849495932,0.0,0.0,0.0,0.0,0.0,0.0,0.0,0.0,0.0,0.0,0.0,0.0,0.0,0.0,0.0,0.0,0.0,0.0,0.0,0.0,0.0
