%time,field.header.seq,field.header.stamp,field.header.frame_id,field.child_frame_id,field.pose.pose.position.x,field.pose.pose.position.y,field.pose.pose.position.z,field.pose.pose.orientation.x,field.pose.pose.orientation.y,field.pose.pose.orientation.z,field.pose.pose.orientation.w,field.pose.covariance0,field.pose.covariance1,field.pose.covariance2,field.pose.covariance3,field.pose.covariance4,field.pose.covariance5,field.pose.covariance6,field.pose.covariance7,field.pose.covariance8,field.pose.covariance9,field.pose.covariance10,field.pose.covariance11,field.pose.covariance12,field.pose.covariance13,field.pose.covariance14,field.pose.covariance15,field.pose.covariance16,field.pose.covariance17,field.pose.covariance18,field.pose.covariance19,field.pose.covariance20,field.pose.covariance21,field.pose.covariance22,field.pose.covariance23,field.pose.covariance24,field.pose.covariance25,field.pose.covariance26,field.pose.covariance27,field.pose.covariance28,field.pose.covariance29,field.pose.covariance30,field.pose.covariance31,field.pose.covariance32,field.pose.covariance33,field.pose.covariance34,field.pose.covariance35,field.twist.twist.linear.x,field.twist.twist.linear.y,field.twist.twist.linear.z,field.twist.twist.angular.x,field.twist.twist.angular.y,field.twist.twist.angular.z,field.twist.covariance0,field.twist.covariance1,field.twist.covariance2,field.twist.covariance3,field.twist.covariance4,field.twist.covariance5,field.twist.covariance6,field.twist.covariance7,field.twist.covariance8,field.twist.covariance9,field.twist.covariance10,field.twist.covariance11,field.twist.covariance12,field.twist.covariance13,field.twist.covariance14,field.twist.covariance15,field.twist.covariance16,field.twist.covariance17,field.twist.covariance18,field.twist.covariance19,field.twist.covariance20,field.twist.covariance21,field.twist.covariance22,field.twist.covariance23,field.twist.covariance24,field.twist.covariance25,field.twist.covariance26,field.twist.covariance27,field.twist.covariance28,field.twist.covariance29,field.twist.covariance30,field.twist.covariance31,field.twist.covariance32,field.twist.covariance33,field.twist.covariance34,field.twist.covariance35
1713690045568243151,11335,1713690044954898040,uav37/gps_garmin_origin,uav37/fcu,-36.84102513225687,11.95820072860052,0.06340088546861174,-0.008832167378841358,0.08117192435518443,0.41519625766045365,0.9060602589800077,0.002485472905776184,0.0,0.0,0.0,0.0,0.0,0.0,0.002485472905776184,0.0,0.0,0.0,0.0,0.0,0.0,0.03965611259524575,0.0,0.0,0.0,0.0,0.0,0.0,0.0,0.0,0.0,0.0,0.0,0.0,0.0,0.0,0.0,0.0,0.0,0.0,0.0,0.0,0.0,0.01705911742010443,0.008957510324188175,-0.011385055816079737,-0.00017913916963152587,-0.0004415980365592986,0.000339456630172208,0.44276560648287655,0.0,0.0,0.0,0.0,0.0,0.0,0.4427656064807169,0.0,0.0,0.0,0.0,0.0,0.0,0.01644695860006987,0.0,0.0,0.0,0.0,0.0,0.0,0.0,0.0,0.0,0.0,0.0,0.0,0.0,0.0,0.0,0.0,0.0,0.0,0.0,0.0,0.0
1713690045619370080,11346,1713690045064952445,uav37/gps_garmin_origin,uav37/fcu,-36.83937981720673,11.960155034129171,0.0634327990766319,-0.008833196951419545,0.08118770739024814,0.4151622227052901,0.9060744182873478,0.002305380992941671,0.0,0.0,0.0,0.0,0.0,0.0,0.00230538099294167,0.0,0.0,0.0,0.0,0.0,0.0,0.037391802935151874,0.0,0.0,0.0,0.0,0.0,0.0,0.0,0.0,0.0,0.0,0.0,0.0,0.0,0.0,0.0,0.0,0.0,0.0,0.0,0.0,0.0,0.020950076090211878,0.004930047332131605,-0.01038497185942133,0.00036954012466594577,-0.00019357592100277546,-0.00019880922627635297,0.4404465253919694,0.0,0.0,0.0,0.0,0.0,0.0,0.44044652539153134,0.0,0.0,0.0,0.0,0.0,0.0,0.016438283067005788,0.0,0.0,0.0,0.0,0.0,0.0,0.0,0.0,0.0,0.0,0.0,0.0,0.0,0.0,0.0,0.0,0.0,0.0,0.0,0.0,0.0
1713690045619397884,11357,1713690045174950591,uav37/gps_garmin_origin,uav37/fcu,-36.83783855164618,11.960315379279573,0.06341797848655954,-0.008805959667151864,0.08118855139792427,0.415118561220385,0.9060946157519079,0.0023016171382550287,0.0,0.0,0.0,0.0,0.0,0.0,0.002301617138255028,0.0,0.0,0.0,0.0,0.0,0.0,0.03963274185083461,0.0,0.0,0.0,0.0,0.0,0.0,0.0,0.0,0.0,0.0,0.0,0.0,0.0,0.0,0.0,0.0,0.0,0.0,0.0,0.0,0.0,0.019326425522404878,-0.0011365233309607572,-0.00979319549194385,0.0002897843951359391,9.262327512260535e-05,0.0007149673765525222,0.4404471481860951,0.0,0.0,0.0,0.0,0.0,0.0,0.4404471481855135,0.0,0.0,0.0,0.0,0.0,0.0,0.016440026701412407,0.0,0.0,0.0,0.0,0.0,0.0,0.0,0.0,0.0,0.0,0.0,0.0,0.0,0.0,0.0,0.0,0.0,0.0,0.0,0.0,0.0
1713690045783060093,11367,1713690045274958332,uav37/gps_garmin_origin,uav37/fcu,-36.83686547597543,11.960973742425905,0.06345142316574558,-0.008789772950102056,0.08118913638606154,0.4150797794842248,0.9061124965248234,0.0023006743977779824,0.0,0.0,0.0,0.0,0.0,0.0,0.0023006743977779832,0.0,0.0,0.0,0.0,0.0,0.0,0.03739567973599997,0.0,0.0,0.0,0.0,0.0,0.0,0.0,0.0,0.0,0.0,0.0,0.0,0.0,0.0,0.0,0.0,0.0,0.0,0.0,0.0,0.0,0.018693268816879237,-0.002674245042244291,-0.009666738103930556,0.0007449216791428626,0.0001312191743636504,0.0002619443985167891,0.4404160952851957,0.0,0.0,0.0,0.0,0.0,0.0,0.44041609528487935,0.0,0.0,0.0,0.0,0.0,0.0,0.016440394062746513,0.0,0.0,0.0,0.0,0.0,0.0,0.0,0.0,0.0,0.0,0.0,0.0,0.0,0.0,0.0,0.0,0.0,0.0,0.0,0.0,0.0
1713690045783118713,11378,1713690045384905111,uav37/gps_garmin_origin,uav37/fcu,-36.83569836852126,11.962405971340043,0.06343274682105099,-0.008796598054588147,0.08120088698375891,0.4150680286148522,0.9061167586108558,0.0023007598093410355,0.0,0.0,0.0,0.0,0.0,0.0,0.0023007598093410355,0.0,0.0,0.0,0.0,0.0,0.0,0.03963405620476426,0.0,0.0,0.0,0.0,0.0,0.0,0.0,0.0,0.0,0.0,0.0,0.0,0.0,0.0,0.0,0.0,0.0,0.0,0.0,0.0,0.0,0.019763063325270412,-0.002533662845700602,-0.009187649864800985,-0.0004083028179593384,4.3524476495804306e-05,0.00031950700213201344,0.4404033182999283,0.0,0.0,0.0,0.0,0.0,0.0,0.4404033182997822,0.0,0.0,0.0,0.0,0.0,0.0,0.016442138714638222,0.0,0.0,0.0,0.0,0.0,0.0,0.0,0.0,0.0,0.0,0.0,0.0,0.0,0.0,0.0,0.0,0.0,0.0,0.0,0.0,0.0
1713690045886791367,11388,1713690045484892919,uav37/gps_garmin_origin,uav37/fcu,-36.835440956566245,11.962794990350716,0.06347491314701428,-0.008791268700119917,0.08119759308842396,0.41506838914784333,0.9061169275340071,0.0023010707698730205,0.0,0.0,0.0,0.0,0.0,0.0,0.002301070769873021,0.0,0.0,0.0,0.0,0.0,0.0,0.037725528930059746,0.0,0.0,0.0,0.0,0.0,0.0,0.0,0.0,0.0,0.0,0.0,0.0,0.0,0.0,0.0,0.0,0.0,0.0,0.0,0.0,0.0,0.016437087156031198,-0.0023863978333982902,-0.009163719164857318,-0.0003544050268828869,0.0004864135989919305,9.232315642293537e-05,0.44040153596867415,0.0,0.0,0.0,0.0,0.0,0.0,0.44040153596860454,0.0,0.0,0.0,0.0,0.0,0.0,0.014389759908856437,0.0,0.0,0.0,0.0,0.0,0.0,0.0,0.0,0.0,0.0,0.0,0.0,0.0,0.0,0.0,0.0,0.0,0.0,0.0,0.0,0.0
1713690045974763383,11408,1713690045684892682,uav37/gps_garmin_origin,uav37/fcu,-36.8363220680368,11.962539489231721,0.06350799610111765,-0.008771717940051087,0.08116686377557375,0.41508234348667106,0.9061134813193239,0.002315623996123088,0.0,0.0,0.0,0.0,0.0,0.0,0.0023156239961230874,0.0,0.0,0.0,0.0,0.0,0.0,0.038029713501664814,0.0,0.0,0.0,0.0,0.0,0.0,0.0,0.0,0.0,0.0,0.0,0.0,0.0,0.0,0.0,0.0,0.0,0.0,0.0,0.0,0.0,0.007659991233302386,-0.0008559238828332787,-0.00953823943105788,0.0001694925012998283,-0.0001455089077353477,0.0005088374018669128,0.44042335323709364,0.0,0.0,0.0,0.0,0.0,0.0,0.44042335323707954,0.0,0.0,0.0,0.0,0.0,0.0,0.01644887183890602,0.0,0.0,0.0,0.0,0.0,0.0,0.0,0.0,0.0,0.0,0.0,0.0,0.0,0.0,0.0,0.0,0.0,0.0,0.0,0.0,0.0
1713690046002884323,11419,1713690045794894317,uav37/gps_garmin_origin,uav37/fcu,-36.83664205208234,11.962824134702785,0.06349464141828895,-0.008767571846134694,0.08117068428050858,0.41513231335219686,0.9060902899832838,0.002303613745605694,0.0,0.0,0.0,0.0,0.0,0.0,0.002303613745605694,0.0,0.0,0.0,0.0,0.0,0.0,0.042031708324492635,0.0,0.0,0.0,0.0,0.0,0.0,0.0,0.0,0.0,0.0,0.0,0.0,0.0,0.0,0.0,0.0,0.0,0.0,0.0,0.0,0.0,0.005747298711994755,0.00022766799514385076,-0.009226615381311294,0.000249214208452031,-2.4761977329035262e-05,0.00023099614190869033,0.4404894136031564,0.0,0.0,0.0,0.0,0.0,0.0,0.44048941360315064,0.0,0.0,0.0,0.0,0.0,0.0,0.01644096378369839,0.0,0.0,0.0,0.0,0.0,0.0,0.0,0.0,0.0,0.0,0.0,0.0,0.0,0.0,0.0,0.0,0.0,0.0,0.0,0.0,0.0
1713690046030131147,11429,1713690045894895899,uav37/gps_garmin_origin,uav37/fcu,-36.83580010078623,11.962857370178586,0.0635506352395559,-0.00875923491280934,0.0811864099152916,0.4151663718488211,0.9060733642533124,0.0023009231018333454,0.0,0.0,0.0,0.0,0.0,0.0,0.0023009231018333446,0.0,0.0,0.0,0.0,0.0,0.0,0.03836690817127581,0.0,0.0,0.0,0.0,0.0,0.0,0.0,0.0,0.0,0.0,0.0,0.0,0.0,0.0,0.0,0.0,0.0,0.0,0.0,0.0,0.0,0.006228739027785995,-0.0025664662140512883,-0.008263322284291497,-0.00022826231725048274,0.0003007370687555522,0.0005842887330800295,0.44043767921691584,0.0,0.0,0.0,0.0,0.0,0.0,0.44043767921691324,0.0,0.0,0.0,0.0,0.0,0.0,0.016444635959890982,0.0,0.0,0.0,0.0,0.0,0.0,0.0,0.0,0.0,0.0,0.0,0.0,0.0,0.0,0.0,0.0,0.0,0.0,0.0,0.0,0.0
1713690046167025694,11439,1713690045994953582,uav37/gps_garmin_origin,uav37/fcu,-36.8346765461335,11.963176023708264,0.06358498033979668,-0.008752498948969933,0.08120393166571165,0.4152080931279564,0.9060527295690014,0.0023017219830504753,0.0,0.0,0.0,0.0,0.0,0.0,0.002301721983050473,0.0,0.0,0.0,0.0,0.0,0.0,0.03712627480093368,0.0,0.0,0.0,0.0,0.0,0.0,0.0,0.0,0.0,0.0,0.0,0.0,0.0,0.0,0.0,0.0,0.0,0.0,0.0,0.0,0.0,0.007719941706009839,-0.004493540701249667,-0.007331354967295734,0.00031159273930825293,-0.0005098307738080621,-0.00032640912104398007,0.440427082043208,0.0,0.0,0.0,0.0,0.0,0.0,0.4404270820432065,0.0,0.0,0.0,0.0,0.0,0.0,0.01611759904921276,0.0,0.0,0.0,0.0,0.0,0.0,0.0,0.0,0.0,0.0,0.0,0.0,0.0,0.0,0.0,0.0,0.0,0.0,0.0,0.0,0.0
1713690046183568416,11450,1713690046104965291,uav37/gps_garmin_origin,uav37/fcu,-36.83440747538885,11.96484127365213,0.06361081698320992,-0.008758992671500355,0.08120352249192478,0.4152335585644304,0.9060410480324655,0.0023017198929904184,0.0,0.0,0.0,0.0,0.0,0.0,0.0023017198929904184,0.0,0.0,0.0,0.0,0.0,0.0,0.037743720213909274,0.0,0.0,0.0,0.0,0.0,0.0,0.0,0.0,0.0,0.0,0.0,0.0,0.0,0.0,0.0,0.0,0.0,0.0,0.0,0.0,0.0,0.010109254167023206,-0.00041887834350622604,-0.0062332869520120345,-4.8053952923510224e-05,0.0008167283376678824,8.193915709853163e-05,0.44041464304671,0.0,0.0,0.0,0.0,0.0,0.0,0.4404146430467089,0.0,0.0,0.0,0.0,0.0,0.0,0.014389938007613477,0.0,0.0,0.0,0.0,0.0,0.0,0.0,0.0,0.0,0.0,0.0,0.0,0.0,0.0,0.0,0.0,0.0,0.0,0.0,0.0,0.0
1713690046422894129,11460,1713690046204895767,uav37/gps_garmin_origin,uav37/fcu,-36.83428248265723,11.966490237941375,0.06364053826172918,-0.008777768483807472,0.08120490769940551,0.4152389660592139,0.9060382449589438,0.002300379050092864,0.0,0.0,0.0,0.0,0.0,0.0,0.002300379050092863,0.0,0.0,0.0,0.0,0.0,0.0,0.03712565153682955,0.0,0.0,0.0,0.0,0.0,0.0,0.0,0.0,0.0,0.0,0.0,0.0,0.0,0.0,0.0,0.0,0.0,0.0,0.0,0.0,0.0,0.011687777858189776,0.002715222749356783,-0.005579806568713562,-0.00022497460304293782,-0.00036102891317568725,-0.00032802662462927396,0.4403912749479737,0.0,0.0,0.0,0.0,0.0,0.0,0.4403912749479727,0.0,0.0,0.0,0.0,0.0,0.0,0.016118749628503938,0.0,0.0,0.0,0.0,0.0,0.0,0.0,0.0,0.0,0.0,0.0,0.0,0.0,0.0,0.0,0.0,0.0,0.0,0.0,0.0,0.0
1713690046477522719,11470,1713690046304897382,uav37/gps_garmin_origin,uav37/fcu,-36.8331709770382,11.968013730865087,0.06368288619839074,-0.008784001588288475,0.08122068180109586,0.41524678798542713,0.906033205676426,0.0023015928544364334,0.0,0.0,0.0,0.0,0.0,0.0,0.002301592854436434,0.0,0.0,0.0,0.0,0.0,0.0,0.03776463877888683,0.0,0.0,0.0,0.0,0.0,0.0,0.0,0.0,0.0,0.0,0.0,0.0,0.0,0.0,0.0,0.0,0.0,0.0,0.0,0.0,0.0,0.014446296433811885,0.0021733396070946634,-0.0036093847210858614,-0.00015510275261476636,0.0001099932487704791,-6.442428275477142e-05,0.4404047850913205,0.0,0.0,0.0,0.0,0.0,0.0,0.4404047850913196,0.0,0.0,0.0,0.0,0.0,0.0,0.006341693198077599,0.0,0.0,0.0,0.0,0.0,0.0,0.0,0.0,0.0,0.0,0.0,0.0,0.0,0.0,0.0,0.0,0.0,0.0,0.0,0.0,0.0
1713690046559278252,11481,1713690046414955377,uav37/gps_garmin_origin,uav37/fcu,-36.83191207813918,11.9696617288852,0.06369952602191814,-0.008776072439805205,0.0812318007813305,0.415248011428524,0.9060317164963055,0.0024728394676439376,0.0,0.0,0.0,0.0,0.0,0.0,0.0024728394676439345,0.0,0.0,0.0,0.0,0.0,0.0,0.04721775012012105,0.0,0.0,0.0,0.0,0.0,0.0,0.0,0.0,0.0,0.0,0.0,0.0,0.0,0.0,0.0,0.0,0.0,0.0,0.0,0.0,0.0,0.016466389786234305,0.001676988064247861,-0.001609700240426192,-9.867038170341402e-05,-0.0006735457573086023,-0.00038030880386941124,0.4422483093207663,0.0,0.0,0.0,0.0,0.0,0.0,0.44224830932970177,0.0,0.0,0.0,0.0,0.0,0.0,0.016435807758464278,0.0,0.0,0.0,0.0,0.0,0.0,0.0,0.0,0.0,0.0,0.0,0.0,0.0,0.0,0.0,0.0,0.0,0.0,0.0,0.0,0.0
1713690046580630657,11492,1713690046524951693,uav37/gps_garmin_origin,uav37/fcu,-36.83065565861306,11.972135036839054,0.06380673378823752,-0.00878217867323474,0.08124299796844572,0.41523352187045703,0.9060373004998173,0.002301546194698363,0.0,0.0,0.0,0.0,0.0,0.0,0.002301546194698364,0.0,0.0,0.0,0.0,0.0,0.0,0.038363872771096055,0.0,0.0,0.0,0.0,0.0,0.0,0.0,0.0,0.0,0.0,0.0,0.0,0.0,0.0,0.0,0.0,0.0,0.0,0.0,0.0,0.0,0.01979597589444121,0.0031961219161261633,0.0006165159471219015,-0.00012027297634631395,5.987720578559668e-05,-0.0005224653868936002,0.4404404072229453,0.0,0.0,0.0,0.0,0.0,0.0,0.44044040722108546,0.0,0.0,0.0,0.0,0.0,0.0,0.01644285785172487,0.0,0.0,0.0,0.0,0.0,0.0,0.0,0.0,0.0,0.0,0.0,0.0,0.0,0.0,0.0,0.0,0.0,0.0,0.0,0.0,0.0
1713690046626144371,11503,1713690046634892939,uav37/gps_garmin_origin,uav37/fcu,-36.82924912602746,11.974096607876806,0.06386975316701535,-0.008778807168831212,0.08124918527331632,0.4151766270032032,0.906062858493198,0.0023054518953479057,0.0,0.0,0.0,0.0,0.0,0.0,0.0023054518953479052,0.0,0.0,0.0,0.0,0.0,0.0,0.042114208500856454,0.0,0.0,0.0,0.0,0.0,0.0,0.0,0.0,0.0,0.0,0.0,0.0,0.0,0.0,0.0,0.0,0.0,0.0,0.0,0.0,0.0,0.021039851205575322,0.0025820550633727,0.002747734277923718,0.00019455692381598055,-0.00012444829917512826,0.0006086598732508719,0.4405058945845697,0.0,0.0,0.0,0.0,0.0,0.0,0.4405058945834583,0.0,0.0,0.0,0.0,0.0,0.0,0.016442422033450227,0.0,0.0,0.0,0.0,0.0,0.0,0.0,0.0,0.0,0.0,0.0,0.0,0.0,0.0,0.0,0.0,0.0,0.0,0.0,0.0,0.0
1713690046714925861,11513,1713690046734894856,uav37/gps_garmin_origin,uav37/fcu,-36.827653638633784,11.974301638117161,0.06394489325884248,-0.008750342098619395,0.08123928472702499,0.415121816381045,0.9060891305286568,0.0023016393193304703,0.0,0.0,0.0,0.0,0.0,0.0,0.0023016393193304695,0.0,0.0,0.0,0.0,0.0,0.0,0.03773135413870249,0.0,0.0,0.0,0.0,0.0,0.0,0.0,0.0,0.0,0.0,0.0,0.0,0.0,0.0,0.0,0.0,0.0,0.0,0.0,0.0,0.0,0.018628663040587995,-0.0019669950866780966,0.004563914907200114,0.0003956702130381018,-0.0002483032585587352,0.0004917430924251676,0.44043318550599875,0.0,0.0,0.0,0.0,0.0,0.0,0.44043318550550553,0.0,0.0,0.0,0.0,0.0,0.0,0.016437709177882044,0.0,0.0,0.0,0.0,0.0,0.0,0.0,0.0,0.0,0.0,0.0,0.0,0.0,0.0,0.0,0.0,0.0,0.0,0.0,0.0,0.0
1713690046804215499,11523,1713690046834896441,uav37/gps_garmin_origin,uav37/fcu,-36.826416488582,11.974243698447271,0.06402823794366772,-0.00872702936859687,0.08123243877464016,0.41509629486152744,0.9061016533653625,0.0023014350940429927,0.0,0.0,0.0,0.0,0.0,0.0,0.0023014350940429927,0.0,0.0,0.0,0.0,0.0,0.0,0.047309884687383306,0.0,0.0,0.0,0.0,0.0,0.0,0.0,0.0,0.0,0.0,0.0,0.0,0.0,0.0,0.0,0.0,0.0,0.0,0.0,0.0,0.0,0.015433637737103505,-0.004977241741789528,0.005795204274667582,0.0006219504866749048,-6.608186959056182e-05,0.0001136411592597142,0.4404158918911283,0.0,0.0,0.0,0.0,0.0,0.0,0.4404158918909453,0.0,0.0,0.0,0.0,0.0,0.0,0.016445003282416115,0.0,0.0,0.0,0.0,0.0,0.0,0.0,0.0,0.0,0.0,0.0,0.0,0.0,0.0,0.0,0.0,0.0,0.0,0.0,0.0,0.0
1713690046903184333,11534,1713690046944952782,uav37/gps_garmin_origin,uav37/fcu,-36.824879013866656,11.973675460271984,0.06406409678240112,-0.008695277221746586,0.08122148806484755,0.41512272519572646,0.906090839199553,0.002301189608156864,0.0,0.0,0.0,0.0,0.0,0.0,0.0023011896081568646,0.0,0.0,0.0,0.0,0.0,0.0,0.03773338144140635,0.0,0.0,0.0,0.0,0.0,0.0,0.0,0.0,0.0,0.0,0.0,0.0,0.0,0.0,0.0,0.0,0.0,0.0,0.0,0.0,0.0,0.01190353629035117,-0.008723907474929835,0.007211070664466017,0.00012233955203555524,-0.0005802332889288664,-7.547433779109263e-05,0.4404041699309414,0.0,0.0,0.0,0.0,0.0,0.0,0.4404041699309061,0.0,0.0,0.0,0.0,0.0,0.0,0.014018508958064835,0.0,0.0,0.0,0.0,0.0,0.0,0.0,0.0,0.0,0.0,0.0,0.0,0.0,0.0,0.0,0.0,0.0,0.0,0.0,0.0,0.0
1713690047011441419,11544,1713690047044892662,uav37/gps_garmin_origin,uav37/fcu,-36.82379869083348,11.973653122976751,0.06416505528997532,-0.008688989305366232,0.08122721615793731,0.4151317238780708,0.906086259074575,0.003394490724057734,0.0,0.0,0.0,0.0,0.0,0.0,0.0033944907240781976,0.0,0.0,0.0,0.0,0.0,0.0,0.04725750761079865,0.0,0.0,0.0,0.0,0.0,0.0,0.0,0.0,0.0,0.0,0.0,0.0,0.0,0.0,0.0,0.0,0.0,0.0,0.0,0.0,0.0,0.01012801339883857,-0.009030007716237088,0.008334491308702842,1.9069424524786882e-05,-0.00031900283647701144,-2.7886188036063645e-05,0.45584085302737143,0.0,0.0,0.0,0.0,0.0,0.0,0.4558408530342041,0.0,0.0,0.0,0.0,0.0,0.0,0.016483035636460627,0.0,0.0,0.0,0.0,0.0,0.0,0.0,0.0,0.0,0.0,0.0,0.0,0.0,0.0,0.0,0.0,0.0,0.0,0.0,0.0,0.0
1713690047127824007,11555,1713690047154899080,uav37/gps_garmin_origin,uav37/fcu,-36.82145135680321,11.97658914731511,0.06417989260455832,-0.00870906443858949,0.08125212288846656,0.4151372562783376,0.9060813003920883,0.003167026720737498,0.0,0.0,0.0,0.0,0.0,0.0,0.003167026720800729,0.0,0.0,0.0,0.0,0.0,0.0,0.03740121762872142,0.0,0.0,0.0,0.0,0.0,0.0,0.0,0.0,0.0,0.0,0.0,0.0,0.0,0.0,0.0,0.0,0.0,0.0,0.0,0.0,0.0,0.01763030432649361,-0.0057347396750332645,0.011259493837143851,-0.0003732244949787855,-0.0006583313806913793,7.596373507112811e-06,0.45300494428793586,0.0,0.0,0.0,0.0,0.0,0.0,0.45300494430940297,0.0,0.0,0.0,0.0,0.0,0.0,0.016441780808740574,0.0,0.0,0.0,0.0,0.0,0.0,0.0,0.0,0.0,0.0,0.0,0.0,0.0,0.0,0.0,0.0,0.0,0.0,0.0,0.0,0.0
1713690047254799128,11565,1713690047254896759,uav37/gps_garmin_origin,uav37/fcu,-36.819464167710045,11.979200932649299,0.06418590285785054,-0.008724711242532112,0.08128381532430083,0.4151522316334943,0.9060714392004666,0.002304230137879052,0.0,0.0,0.0,0.0,0.0,0.0,0.002304230137879051,0.0,0.0,0.0,0.0,0.0,0.0,0.03203013513409026,0.0,0.0,0.0,0.0,0.0,0.0,0.0,0.0,0.0,0.0,0.0,0.0,0.0,0.0,0.0,0.0,0.0,0.0,0.0,0.0,0.0,0.02216045342212253,-0.003255571767373663,0.013317934020372572,3.025324986083433e-05,0.0004203673161100597,0.00027169080567546183,0.44044435996877257,0.0,0.0,0.0,0.0,0.0,0.0,0.44044435996806214,0.0,0.0,0.0,0.0,0.0,0.0,0.016441851472635563,0.0,0.0,0.0,0.0,0.0,0.0,0.0,0.0,0.0,0.0,0.0,0.0,0.0,0.0,0.0,0.0,0.0,0.0,0.0,0.0,0.0
1713690047387914556,11576,1713690047364893019,uav37/gps_garmin_origin,uav37/fcu,-36.81761576841427,11.981571945470463,0.0642926204684289,-0.008730498324319984,0.08127984895509048,0.4152043794033767,0.9060478374199605,0.0023004686289089028,0.0,0.0,0.0,0.0,0.0,0.0,0.0023004686289089023,0.0,0.0,0.0,0.0,0.0,0.0,0.03744277180088518,0.0,0.0,0.0,0.0,0.0,0.0,0.0,0.0,0.0,0.0,0.0,0.0,0.0,0.0,0.0,0.0,0.0,0.0,0.0,0.0,0.0,0.023897933445637808,-0.0015192119535628386,0.014920842084697206,9.115545981330797e-05,6.95222624926828e-05,0.00016038618923630565,0.44044371714922315,0.0,0.0,0.0,0.0,0.0,0.0,0.4404437171482543,0.0,0.0,0.0,0.0,0.0,0.0,0.016483105088327305,0.0,0.0,0.0,0.0,0.0,0.0,0.0,0.0,0.0,0.0,0.0,0.0,0.0,0.0,0.0,0.0,0.0,0.0,0.0,0.0,0.0
1713690047435781183,11587,1713690047474950791,uav37/gps_garmin_origin,uav37/fcu,-36.81650456902382,11.984519921594314,0.06436449490148799,-0.008747347093516772,0.08127061352328481,0.41525294745552555,0.9060262627618763,0.002301684866297793,0.0,0.0,0.0,0.0,0.0,0.0,0.0023016848662977926,0.0,0.0,0.0,0.0,0.0,0.0,0.0396544968836284,0.0,0.0,0.0,0.0,0.0,0.0,0.0,0.0,0.0,0.0,0.0,0.0,0.0,0.0,0.0,0.0,0.0,0.0,0.0,0.0,0.0,0.025144476048653486,0.0031366280393836277,0.016040155784752676,-0.0008299061446450651,0.0008448677253909409,1.670090387051449e-05,0.4404347790699033,0.0,0.0,0.0,0.0,0.0,0.0,0.440434779069493,0.0,0.0,0.0,0.0,0.0,0.0,0.016441433254274794,0.0,0.0,0.0,0.0,0.0,0.0,0.0,0.0,0.0,0.0,0.0,0.0,0.0,0.0,0.0,0.0,0.0,0.0,0.0,0.0,0.0
1713690047578977933,11597,1713690047574891593,uav37/gps_garmin_origin,uav37/fcu,-36.81549438524477,11.987849441310864,0.06437540407264668,-0.008772442654121276,0.08127568195448295,0.41529047766902855,0.9060083556066406,0.0023015241524012445,0.0,0.0,0.0,0.0,0.0,0.0,0.0023015241524012454,0.0,0.0,0.0,0.0,0.0,0.0,0.03772956233925091,0.0,0.0,0.0,0.0,0.0,0.0,0.0,0.0,0.0,0.0,0.0,0.0,0.0,0.0,0.0,0.0,0.0,0.0,0.0,0.0,0.0,0.0273104913676493,0.007337987689362101,0.016893648742271377,-0.00010292948718415573,-0.0002449386811349541,-0.00016582959506195036,0.4404175354367237,0.0,0.0,0.0,0.0,0.0,0.0,0.440417535436575,0.0,0.0,0.0,0.0,0.0,0.0,0.01644343342674044,0.0,0.0,0.0,0.0,0.0,0.0,0.0,0.0,0.0,0.0,0.0,0.0,0.0,0.0,0.0,0.0,0.0,0.0,0.0,0.0,0.0
1713690047679514877,11608,1713690047684951684,uav37/gps_garmin_origin,uav37/fcu,-36.814369303717584,11.990910481700352,0.06443289725951054,-0.008789596091094354,0.08127626895115538,0.41533619635097735,0.9059871687701722,0.002167076473283615,0.0,0.0,0.0,0.0,0.0,0.0,0.002167076473283616,0.0,0.0,0.0,0.0,0.0,0.0,0.03961647448563696,0.0,0.0,0.0,0.0,0.0,0.0,0.0,0.0,0.0,0.0,0.0,0.0,0.0,0.0,0.0,0.0,0.0,0.0,0.0,0.0,0.0,0.027604140461180506,0.009223758798869905,0.017568745123922397,-0.0004760823503602296,2.0052177205798216e-05,8.122934559651183e-06,0.43864103536203963,0.0,0.0,0.0,0.0,0.0,0.0,0.43864103536208393,0.0,0.0,0.0,0.0,0.0,0.0,0.014011797727599615,0.0,0.0,0.0,0.0,0.0,0.0,0.0,0.0,0.0,0.0,0.0,0.0,0.0,0.0,0.0,0.0,0.0,0.0,0.0,0.0,0.0
1713690047743759030,11618,1713690047784896034,uav37/gps_garmin_origin,uav37/fcu,-36.81320076002043,11.993463871872155,0.06443398940396369,-0.008794282280519754,0.08127493330050115,0.41536237164674594,0.9059752425763837,0.003472830735458674,0.0,0.0,0.0,0.0,0.0,0.0,0.003472830735458775,0.0,0.0,0.0,0.0,0.0,0.0,0.0377238536666435,0.0,0.0,0.0,0.0,0.0,0.0,0.0,0.0,0.0,0.0,0.0,0.0,0.0,0.0,0.0,0.0,0.0,0.0,0.0,0.0,0.0,0.027439304256580876,0.009534630780810445,0.018216643064744877,-0.0004471058491617441,0.0008337764884345233,9.900769509840746e-05,0.45697580300696117,0.0,0.0,0.0,0.0,0.0,0.0,0.4569758030069497,0.0,0.0,0.0,0.0,0.0,0.0,0.016453950614813553,0.0,0.0,0.0,0.0,0.0,0.0,0.0,0.0,0.0,0.0,0.0,0.0,0.0,0.0,0.0,0.0,0.0,0.0,0.0,0.0,0.0
1713690047879220051,11629,1713690047894952405,uav37/gps_garmin_origin,uav37/fcu,-36.81164975871266,11.997032736666215,0.06447295286062027,-0.008798352377560369,0.0812979771538663,0.4153748218332163,0.9059674364124153,0.002390315883681594,0.0,0.0,0.0,0.0,0.0,0.0,0.002390315883681594,0.0,0.0,0.0,0.0,0.0,0.0,0.03961441784452742,0.0,0.0,0.0,0.0,0.0,0.0,0.0,0.0,0.0,0.0,0.0,0.0,0.0,0.0,0.0,0.0,0.0,0.0,0.0,0.0,0.0,0.029817372641332107,0.01084517293883573,0.018842173104278593,0.000489804137032479,0.0004412115376908332,0.00017946033040061588,0.4413034527143396,0.0,0.0,0.0,0.0,0.0,0.0,0.4413034527172417,0.0,0.0,0.0,0.0,0.0,0.0,0.016439940163937444,0.0,0.0,0.0,0.0,0.0,0.0,0.0,0.0,0.0,0.0,0.0,0.0,0.0,0.0,0.0,0.0,0.0,0.0,0.0,0.0,0.0
1713690047968803234,11640,1713690048004893997,uav37/gps_garmin_origin,uav37/fcu,-36.8094594409811,12.001262010086252,0.06444644208699436,-0.008813588642179024,0.08130706144713849,0.4153740138231987,0.9059668490757142,0.002302018733650959,0.0,0.0,0.0,0.0,0.0,0.0,0.0023020187336509584,0.0,0.0,0.0,0.0,0.0,0.0,0.037125993451897786,0.0,0.0,0.0,0.0,0.0,0.0,0.0,0.0,0.0,0.0,0.0,0.0,0.0,0.0,0.0,0.0,0.0,0.0,0.0,0.0,0.0,0.034008977886842866,0.011415717521523632,0.019563674857060977,0.0005915486835874617,0.0005951292114332319,0.0006005289033055304,0.4404591997877566,0.0,0.0,0.0,0.0,0.0,0.0,0.44045919978717873,0.0,0.0,0.0,0.0,0.0,0.0,0.01644254638119225,0.0,0.0,0.0,0.0,0.0,0.0,0.0,0.0,0.0,0.0,0.0,0.0,0.0,0.0,0.0,0.0,0.0,0.0,0.0,0.0,0.0
1713690048127342993,11650,1713690048104935546,uav37/gps_garmin_origin,uav37/fcu,-36.80795547073859,12.003439274396142,0.06449027426578559,-0.008799972694697799,0.08130435724871411,0.41534990795865195,0.9059782796591,0.0023001617197600365,0.0,0.0,0.0,0.0,0.0,0.0,0.0023001617197600356,0.0,0.0,0.0,0.0,0.0,0.0,0.039655329947723014,0.0,0.0,0.0,0.0,0.0,0.0,0.0,0.0,0.0,0.0,0.0,0.0,0.0,0.0,0.0,0.0,0.0,0.0,0.0,0.0,0.0,0.03162309454360096,0.009183208071407194,0.01961473500342321,0.00012703561515081674,0.0005696986336261034,0.00011154585081385442,0.4404324238639965,0.0,0.0,0.0,0.0,0.0,0.0,0.4404324238635624,0.0,0.0,0.0,0.0,0.0,0.0,0.016442938322825625,0.0,0.0,0.0,0.0,0.0,0.0,0.0,0.0,0.0,0.0,0.0,0.0,0.0,0.0,0.0,0.0,0.0,0.0,0.0,0.0,0.0
1713690048184890840,11660,1713690048204891775,uav37/gps_garmin_origin,uav37/fcu,-36.807196647128706,12.004600548567556,0.06446401764165813,-0.00877929158589411,0.081287030629872,0.4153090956472087,0.9059987390354783,0.002301563985998306,0.0,0.0,0.0,0.0,0.0,0.0,0.0023015639859983064,0.0,0.0,0.0,0.0,0.0,0.0,0.03772768946964569,0.0,0.0,0.0,0.0,0.0,0.0,0.0,0.0,0.0,0.0,0.0,0.0,0.0,0.0,0.0,0.0,0.0,0.0,0.0,0.0,0.0,0.026060753589285862,0.007216930611099801,0.018843963657247848,0.0003481477324385196,5.394815889303567e-05,-0.0004153477493673563,0.44042907623636685,0.0,0.0,0.0,0.0,0.0,0.0,0.44042907623612454,0.0,0.0,0.0,0.0,0.0,0.0,0.0164421411487448,0.0,0.0,0.0,0.0,0.0,0.0,0.0,0.0,0.0,0.0,0.0,0.0,0.0,0.0,0.0,0.0,0.0,0.0,0.0,0.0,0.0
1713690048324922881,11671,1713690048314893278,uav37/gps_garmin_origin,uav37/fcu,-36.80614057809323,12.004928010425294,0.06455422160665188,-0.008750189009424281,0.08126799968736566,0.41525945376559265,0.9060234764420014,0.0023016388608531283,0.0,0.0,0.0,0.0,0.0,0.0,0.00230163886085313,0.0,0.0,0.0,0.0,0.0,0.0,0.04207459206218812,0.0,0.0,0.0,0.0,0.0,0.0,0.0,0.0,0.0,0.0,0.0,0.0,0.0,0.0,0.0,0.0,0.0,0.0,0.0,0.0,0.0,0.019551639812726243,0.0030039783384877045,0.01891300731355134,-0.0003040995798073709,-0.0006139525794424117,0.0003306723956484348,0.44041548819011167,0.0,0.0,0.0,0.0,0.0,0.0,0.44041548818998894,0.0,0.0,0.0,0.0,0.0,0.0,0.016440854640277634,0.0,0.0,0.0,0.0,0.0,0.0,0.0,0.0,0.0,0.0,0.0,0.0,0.0,0.0,0.0,0.0,0.0,0.0,0.0,0.0,0.0
1713690048409136924,11682,1713690048424952866,uav37/gps_garmin_origin,uav37/fcu,-36.80537401490449,12.005353158208763,0.06450263265625603,-0.008733290569116564,0.08125301209937831,0.4152250287827081,0.9060407550783902,0.0023017392720983626,0.0,0.0,0.0,0.0,0.0,0.0,0.0023017392720983626,0.0,0.0,0.0,0.0,0.0,0.0,0.03722322909903736,0.0,0.0,0.0,0.0,0.0,0.0,0.0,0.0,0.0,0.0,0.0,0.0,0.0,0.0,0.0,0.0,0.0,0.0,0.0,0.0,0.0,0.014565889922020347,0.0011885286291728077,0.018786494044264336,0.00012586868251673877,0.00011720356997102494,-0.0004215907829347998,0.4404095791195039,0.0,0.0,0.0,0.0,0.0,0.0,0.44040957911944223,0.0,0.0,0.0,0.0,0.0,0.0,0.014392025710583024,0.0,0.0,0.0,0.0,0.0,0.0,0.0,0.0,0.0,0.0,0.0,0.0,0.0,0.0,0.0,0.0,0.0,0.0,0.0,0.0,0.0
1713690048754244148,11692,1713690048524891707,uav37/gps_garmin_origin,uav37/fcu,-36.804532023816726,12.007001957768201,0.06456271691068122,-0.008736001119813534,0.08125772974031115,0.4152247788564993,0.9060404198202221,0.002386496376862274,0.0,0.0,0.0,0.0,0.0,0.0,0.0023864963768622733,0.0,0.0,0.0,0.0,0.0,0.0,0.03960531644315931,0.0,0.0,0.0,0.0,0.0,0.0,0.0,0.0,0.0,0.0,0.0,0.0,0.0,0.0,0.0,0.0,0.0,0.0,0.0,0.0,0.0,0.014463009180199209,0.002446558672321485,0.01936547388918503,-4.1710594814503565e-05,-0.00013559480430558327,-0.0002978779375553131,0.441198448604621,0.0,0.0,0.0,0.0,0.0,0.0,0.44119844860767576,0.0,0.0,0.0,0.0,0.0,0.0,0.016435702393799087,0.0,0.0,0.0,0.0,0.0,0.0,0.0,0.0,0.0,0.0,0.0,0.0,0.0,0.0,0.0,0.0,0.0,0.0,0.0,0.0,0.0
1713690048775668219,11702,1713690048624891939,uav37/gps_garmin_origin,uav37/fcu,-36.803517873466454,12.008843897425113,0.0645473172752437,-0.008739404809900677,0.0812582385903222,0.41523859208955854,0.9060340212165213,0.0024918870996794846,0.0,0.0,0.0,0.0,0.0,0.0,0.002491887099679485,0.0,0.0,0.0,0.0,0.0,0.0,0.03739942811601559,0.0,0.0,0.0,0.0,0.0,0.0,0.0,0.0,0.0,0.0,0.0,0.0,0.0,0.0,0.0,0.0,0.0,0.0,0.0,0.0,0.0,0.015150809216171755,0.003368993028740832,0.019885913022557267,-0.00035614261287264526,-0.00027645879890769715,0.00044656489626504486,0.4428338555921795,0.0,0.0,0.0,0.0,0.0,0.0,0.4428338555917697,0.0,0.0,0.0,0.0,0.0,0.0,0.01644509057936649,0.0,0.0,0.0,0.0,0.0,0.0,0.0,0.0,0.0,0.0,0.0,0.0,0.0,0.0,0.0,0.0,0.0,0.0,0.0,0.0,0.0
1713690048897083885,11713,1713690048734893733,uav37/gps_garmin_origin,uav37/fcu,-36.803122813734106,12.010677098026605,0.06460625863878851,-0.008751935710306299,0.0812503555641747,0.41526717035180344,0.9060215127566486,0.0023025251920705137,0.0,0.0,0.0,0.0,0.0,0.0,0.002302525192070513,0.0,0.0,0.0,0.0,0.0,0.0,0.03963502822510678,0.0,0.0,0.0,0.0,0.0,0.0,0.0,0.0,0.0,0.0,0.0,0.0,0.0,0.0,0.0,0.0,0.0,0.0,0.0,0.0,0.0,0.013839969795385503,0.005446534485136041,0.020029578763695793,-0.00029897427884861827,0.00034131950815208256,-0.00021209992701187735,0.44044728608074235,0.0,0.0,0.0,0.0,0.0,0.0,0.4404472860802094,0.0,0.0,0.0,0.0,0.0,0.0,0.016442717750599314,0.0,0.0,0.0,0.0,0.0,0.0,0.0,0.0,0.0,0.0,0.0,0.0,0.0,0.0,0.0,0.0,0.0,0.0,0.0,0.0,0.0
1713690048949903557,11735,1713690048954975266,uav37/gps_garmin_origin,uav37/fcu,-36.80187654867111,12.013168861746827,0.06461695157367867,-0.00872752474433866,0.08123845663607011,0.4153299961731594,0.9059940157914879,0.002301373842039085,0.0,0.0,0.0,0.0,0.0,0.0,0.002301373842039086,0.0,0.0,0.0,0.0,0.0,0.0,0.03959164932764732,0.0,0.0,0.0,0.0,0.0,0.0,0.0,0.0,0.0,0.0,0.0,0.0,0.0,0.0,0.0,0.0,0.0,0.0,0.0,0.0,0.0,0.010693211189807681,0.004416337208141569,0.019862067101806304,8.908241579774767e-05,-0.0009697363129816949,0.00031382168526761245,0.44042097059359614,0.0,0.0,0.0,0.0,0.0,0.0,0.44042097059344987,0.0,0.0,0.0,0.0,0.0,0.0,0.007287783296831102,0.0,0.0,0.0,0.0,0.0,0.0,0.0,0.0,0.0,0.0,0.0,0.0,0.0,0.0,0.0,0.0,0.0,0.0,0.0,0.0,0.0
1713690049887812897,11757,1713690049174893965,uav37/gps_garmin_origin,uav37/fcu,-36.79935129451928,12.015945885918187,0.06459223486450365,-0.008734987011911305,0.08124693271558973,0.41541889914296354,0.9059524119485283,0.0023016178702827002,0.0,0.0,0.0,0.0,0.0,0.0,0.002301617870282701,0.0,0.0,0.0,0.0,0.0,0.0,0.03837051162099318,0.0,0.0,0.0,0.0,0.0,0.0,0.0,0.0,0.0,0.0,0.0,0.0,0.0,0.0,0.0,0.0,0.0,0.0,0.0,0.0,0.0,0.01227703617285071,0.0019181685363932623,0.020191083811630536,0.00018168306269217283,7.234472832351462e-06,4.032212382298894e-05,0.44040668766513613,0.0,0.0,0.0,0.0,0.0,0.0,0.4404066876650984,0.0,0.0,0.0,0.0,0.0,0.0,0.014340184227143626,0.0,0.0,0.0,0.0,0.0,0.0,0.0,0.0,0.0,0.0,0.0,0.0,0.0,0.0,0.0,0.0,0.0,0.0,0.0,0.0,0.0
1713690049887828559,11768,1713690049284894096,uav37/gps_garmin_origin,uav37/fcu,-36.79775702140411,12.01705187778336,0.06464786096211596,-0.008726894962987694,0.08124540625125364,0.41543990706317097,0.9059429980483986,0.0024228533667349727,0.0,0.0,0.0,0.0,0.0,0.0,0.0024228533667349735,0.0,0.0,0.0,0.0,0.0,0.0,0.04206675100219733,0.0,0.0,0.0,0.0,0.0,0.0,0.0,0.0,0.0,0.0,0.0,0.0,0.0,0.0,0.0,0.0,0.0,0.0,0.0,0.0,0.0,0.012680664622909774,-0.0003172686983532101,0.020002935230905752,0.00027850063634105027,0.00017525188741274175,-0.00033108179923146963,0.4417550277536162,0.0,0.0,0.0,0.0,0.0,0.0,0.44175502775322645,0.0,0.0,0.0,0.0,0.0,0.0,0.016439747043514738,0.0,0.0,0.0,0.0,0.0,0.0,0.0,0.0,0.0,0.0,0.0,0.0,0.0,0.0,0.0,0.0,0.0,0.0,0.0,0.0,0.0
1713690050058977193,11778,1713690049384899320,uav37/gps_garmin_origin,uav37/fcu,-36.79621629139347,12.017936479864307,0.06455019539451023,-0.008719606203151901,0.08124421306995444,0.4154587238892689,0.9059345464750841,0.002302578624122185,0.0,0.0,0.0,0.0,0.0,0.0,0.0023025786241221867,0.0,0.0,0.0,0.0,0.0,0.0,0.037734457267359786,0.0,0.0,0.0,0.0,0.0,0.0,0.0,0.0,0.0,0.0,0.0,0.0,0.0,0.0,0.0,0.0,0.0,0.0,0.0,0.0,0.0,0.0128864197951016,-0.002184113928087919,0.019693616489860837,-0.00040764667210169137,-0.00014307118544820688,0.0006431221263483167,0.4404551248198937,0.0,0.0,0.0,0.0,0.0,0.0,0.4404551248192406,0.0,0.0,0.0,0.0,0.0,0.0,0.016442374434694783,0.0,0.0,0.0,0.0,0.0,0.0,0.0,0.0,0.0,0.0,0.0,0.0,0.0,0.0,0.0,0.0,0.0,0.0,0.0,0.0,0.0
1713690050116456110,11789,1713690049494895119,uav37/gps_garmin_origin,uav37/fcu,-36.79532618697703,12.020476440848139,0.06439811302344807,-0.008726550076628712,0.08124450977445127,0.4154816861805371,0.9059239278482958,0.0023005387893014354,0.0,0.0,0.0,0.0,0.0,0.0,0.0023005387893014336,0.0,0.0,0.0,0.0,0.0,0.0,0.029653841762401708,0.0,0.0,0.0,0.0,0.0,0.0,0.0,0.0,0.0,0.0,0.0,0.0,0.0,0.0,0.0,0.0,0.0,0.0,0.0,0.0,0.0,0.015325956301640235,0.002165005074640214,0.019405337297344817,-0.00019004860951099545,-2.3372469513560662e-05,-0.00013297043915372342,0.44043770350444555,0.0,0.0,0.0,0.0,0.0,0.0,0.4404377035040916,0.0,0.0,0.0,0.0,0.0,0.0,0.016440041458084777,0.0,0.0,0.0,0.0,0.0,0.0,0.0,0.0,0.0,0.0,0.0,0.0,0.0,0.0,0.0,0.0,0.0,0.0,0.0,0.0,0.0
1713690050135246624,11799,1713690049594893184,uav37/gps_garmin_origin,uav37/fcu,-36.79441193893775,12.02321602152902,0.0645166292662066,-0.008743516671891416,0.08124644453828204,0.41547709442453223,0.9059256920744847,0.0023011699605584766,0.0,0.0,0.0,0.0,0.0,0.0,0.0023011699605584757,0.0,0.0,0.0,0.0,0.0,0.0,0.037734539566489665,0.0,0.0,0.0,0.0,0.0,0.0,0.0,0.0,0.0,0.0,0.0,0.0,0.0,0.0,0.0,0.0,0.0,0.0,0.0,0.0,0.0,0.018088881038034986,0.005419620843530653,0.019040561503745283,0.00013227196177467704,0.0001745853805914521,-0.00029120687395334244,0.4404245254088302,0.0,0.0,0.0,0.0,0.0,0.0,0.4404245254086484,0.0,0.0,0.0,0.0,0.0,0.0,0.016442995638974167,0.0,0.0,0.0,0.0,0.0,0.0,0.0,0.0,0.0,0.0,0.0,0.0,0.0,0.0,0.0,0.0,0.0,0.0,0.0,0.0,0.0
1713690050431565106,11810,1713690049704894942,uav37/gps_garmin_origin,uav37/fcu,-36.79435663914345,12.025504826572336,0.064394456209055,-0.008747070425252483,0.08123777248504631,0.41544818437923947,0.9059397013795104,0.002301646674616897,0.0,0.0,0.0,0.0,0.0,0.0,0.0023016466746168984,0.0,0.0,0.0,0.0,0.0,0.0,0.0320746727588281,0.0,0.0,0.0,0.0,0.0,0.0,0.0,0.0,0.0,0.0,0.0,0.0,0.0,0.0,0.0,0.0,0.0,0.0,0.0,0.0,0.0,0.016713526119888272,0.008763350397371495,0.017521008464300707,2.923062538684462e-06,0.0004370703536551445,-0.0004886652459390461,0.44041650901950896,0.0,0.0,0.0,0.0,0.0,0.0,0.4404165090194252,0.0,0.0,0.0,0.0,0.0,0.0,0.014403301856000097,0.0,0.0,0.0,0.0,0.0,0.0,0.0,0.0,0.0,0.0,0.0,0.0,0.0,0.0,0.0,0.0,0.0,0.0,0.0,0.0,0.0
1713690050431607324,11821,1713690049814960508,uav37/gps_garmin_origin,uav37/fcu,-36.794685783714215,12.027001014643172,0.06444277112661106,-0.008745360460325502,0.08121358980420987,0.41539594134455987,0.9059658299854022,0.0023015704495320363,0.0,0.0,0.0,0.0,0.0,0.0,0.002301570449532036,0.0,0.0,0.0,0.0,0.0,0.0,0.03740246900991134,0.0,0.0,0.0,0.0,0.0,0.0,0.0,0.0,0.0,0.0,0.0,0.0,0.0,0.0,0.0,0.0,0.0,0.0,0.0,0.0,0.0,0.0132328147249768,0.010213201291207423,0.016003792893888587,-9.63704296736978e-05,0.00024167980882339182,0.0003255519259255379,0.44040799610467307,0.0,0.0,0.0,0.0,0.0,0.0,0.44040799610463616,0.0,0.0,0.0,0.0,0.0,0.0,0.014399409080497097,0.0,0.0,0.0,0.0,0.0,0.0,0.0,0.0,0.0,0.0,0.0,0.0,0.0,0.0,0.0,0.0,0.0,0.0,0.0,0.0,0.0
1713690050712459138,11843,1713690050034895191,uav37/gps_garmin_origin,uav37/fcu,-36.795548683155936,12.029163170133096,0.06438195306190071,-0.008718723700246843,0.08118650036672397,0.4153059711629423,0.9060097630587277,0.002515090621633497,0.0,0.0,0.0,0.0,0.0,0.0,0.0025150906216334984,0.0,0.0,0.0,0.0,0.0,0.0,0.03739679579669592,0.0,0.0,0.0,0.0,0.0,0.0,0.0,0.0,0.0,0.0,0.0,0.0,0.0,0.0,0.0,0.0,0.0,0.0,0.0,0.0,0.0,0.006923504768756409,0.01051791829927444,0.013300469280540794,6.795137596782297e-05,0.0005154269165359437,-9.738161315908662e-05,0.4426907374442944,0.0,0.0,0.0,0.0,0.0,0.0,0.4426907374443551,0.0,0.0,0.0,0.0,0.0,0.0,0.016441805881356693,0.0,0.0,0.0,0.0,0.0,0.0,0.0,0.0,0.0,0.0,0.0,0.0,0.0,0.0,0.0,0.0,0.0,0.0,0.0,0.0,0.0
1713690051053840627,11864,1713690050244894762,uav37/gps_garmin_origin,uav37/fcu,-36.79503244524432,12.032412638635535,0.06431949560360624,-0.008713655738838052,0.08118867276655445,0.41525228661713537,0.9060342298760242,0.0023016536620304494,0.0,0.0,0.0,0.0,0.0,0.0,0.0023016536620304485,0.0,0.0,0.0,0.0,0.0,0.0,0.037389649705456655,0.0,0.0,0.0,0.0,0.0,0.0,0.0,0.0,0.0,0.0,0.0,0.0,0.0,0.0,0.0,0.0,0.0,0.0,0.0,0.0,0.0,0.008791777246347148,0.01013048267846293,0.011885187674972356,-0.00020697698346339166,-0.0003789723850786686,-0.0001021208154270425,0.44045971213356516,0.0,0.0,0.0,0.0,0.0,0.0,0.4404597121334989,0.0,0.0,0.0,0.0,0.0,0.0,0.016441058205074705,0.0,0.0,0.0,0.0,0.0,0.0,0.0,0.0,0.0,0.0,0.0,0.0,0.0,0.0,0.0,0.0,0.0,0.0,0.0,0.0,0.0
1713690051267699608,11874,1713690050344950689,uav37/gps_garmin_origin,uav37/fcu,-36.795192556734676,12.033915735152991,0.06431353510052162,-0.008710905874053185,0.08117614663920149,0.4152519146188416,0.9060355559872085,0.0023008779382709,0.0,0.0,0.0,0.0,0.0,0.0,0.0023008779382708996,0.0,0.0,0.0,0.0,0.0,0.0,0.03961637576777044,0.0,0.0,0.0,0.0,0.0,0.0,0.0,0.0,0.0,0.0,0.0,0.0,0.0,0.0,0.0,0.0,0.0,0.0,0.0,0.0,0.0,0.00847292083594988,0.010860419977112548,0.010992158004812064,-0.0005808525602333248,0.00020625368051696566,-0.00015318774967454377,0.44042529344202397,0.0,0.0,0.0,0.0,0.0,0.0,0.4404252934419659,0.0,0.0,0.0,0.0,0.0,0.0,0.016441880841293173,0.0,0.0,0.0,0.0,0.0,0.0,0.0,0.0,0.0,0.0,0.0,0.0,0.0,0.0,0.0,0.0,0.0,0.0,0.0,0.0,0.0
1713690051398975414,11885,1713690050454895877,uav37/gps_garmin_origin,uav37/fcu,-36.7955392932467,12.035466565515819,0.06426068896872804,-0.008718992695102065,0.08116125200937609,0.41526023452480315,0.9060329960410449,0.003509029388327879,0.0,0.0,0.0,0.0,0.0,0.0,0.003509029388327858,0.0,0.0,0.0,0.0,0.0,0.0,0.03739370413509621,0.0,0.0,0.0,0.0,0.0,0.0,0.0,0.0,0.0,0.0,0.0,0.0,0.0,0.0,0.0,0.0,0.0,0.0,0.0,0.0,0.0,0.00771701410719579,0.011723710044144083,0.009934750210239799,-0.0002894727513194084,0.00011940785043407233,0.00013741983275394884,0.45734023762424597,0.0,0.0,0.0,0.0,0.0,0.0,0.4573402376241988,0.0,0.0,0.0,0.0,0.0,0.0,0.026867246006517242,0.0,0.0,0.0,0.0,0.0,0.0,0.0,0.0,0.0,0.0,0.0,0.0,0.0,0.0,0.0,0.0,0.0,0.0,0.0,0.0,0.0
1713690051703904150,11896,1713690050564897044,uav37/gps_garmin_origin,uav37/fcu,-36.79650384333837,12.036983721010229,0.06422677550102615,-0.008717696019773381,0.08115094096365998,0.41528392138330117,0.9060230547249158,0.002301519215656373,0.0,0.0,0.0,0.0,0.0,0.0,0.0023015192156563722,0.0,0.0,0.0,0.0,0.0,0.0,0.03960182140864624,0.0,0.0,0.0,0.0,0.0,0.0,0.0,0.0,0.0,0.0,0.0,0.0,0.0,0.0,0.0,0.0,0.0,0.0,0.0,0.0,0.0,0.006050858267715224,0.013559892992134278,0.007982095853683268,0.0007271987851709127,0.0002993079833686352,-0.000134007481392473,0.44040867736199607,0.0,0.0,0.0,0.0,0.0,0.0,0.4404086773619652,0.0,0.0,0.0,0.0,0.0,0.0,0.007092765467282249,0.0,0.0,0.0,0.0,0.0,0.0,0.0,0.0,0.0,0.0,0.0,0.0,0.0,0.0,0.0,0.0,0.0,0.0,0.0,0.0,0.0
1713690051703915930,11906,1713690050664894947,uav37/gps_garmin_origin,uav37/fcu,-36.797327267239815,12.03852922411074,0.06416325074368637,-0.008727730104516081,0.08114683366935266,0.4153178537237149,0.9060077877112573,0.0027158365555176173,0.0,0.0,0.0,0.0,0.0,0.0,0.0027158365555176173,0.0,0.0,0.0,0.0,0.0,0.0,0.03722178217192246,0.0,0.0,0.0,0.0,0.0,0.0,0.0,0.0,0.0,0.0,0.0,0.0,0.0,0.0,0.0,0.0,0.0,0.0,0.0,0.0,0.0,0.00550611530759243,0.01504072339187167,0.006732292555688911,-0.00021102737809997052,0.00031562923686578875,0.0004214066138956695,0.4452894359182507,0.0,0.0,0.0,0.0,0.0,0.0,0.44528943591822856,0.0,0.0,0.0,0.0,0.0,0.0,0.017361060818136417,0.0,0.0,0.0,0.0,0.0,0.0,0.0,0.0,0.0,0.0,0.0,0.0,0.0,0.0,0.0,0.0,0.0,0.0,0.0,0.0,0.0
1713690051704023917,11927,1713690050874951925,uav37/gps_garmin_origin,uav37/fcu,-36.799145555729936,12.042556959180187,0.06409899935445343,-0.008744099043052504,0.08112352263877778,0.415366192347222,0.9059875621532878,0.002306671707590221,0.0,0.0,0.0,0.0,0.0,0.0,0.0023066717075902196,0.0,0.0,0.0,0.0,0.0,0.0,0.03729978973585812,0.0,0.0,0.0,0.0,0.0,0.0,0.0,0.0,0.0,0.0,0.0,0.0,0.0,0.0,0.0,0.0,0.0,0.0,0.0,0.0,0.0,0.006109780142159002,0.018476329352708674,0.004746446657602694,0.00021304810070432723,-0.0002800830407068134,-0.00022791673836763945,0.44044824703994934,0.0,0.0,0.0,0.0,0.0,0.0,0.4404482470395019,0.0,0.0,0.0,0.0,0.0,0.0,0.01644180444363213,0.0,0.0,0.0,0.0,0.0,0.0,0.0,0.0,0.0,0.0,0.0,0.0,0.0,0.0,0.0,0.0,0.0,0.0,0.0,0.0,0.0
1713690051730842719,11938,1713690050984891808,uav37/gps_garmin_origin,uav37/fcu,-36.80048011758949,12.044146362774741,0.0640611852304059,-0.008748519149598536,0.08110849160676444,0.4153873150054835,0.905979179527282,0.00230434746717912,0.0,0.0,0.0,0.0,0.0,0.0,0.0023043474671791205,0.0,0.0,0.0,0.0,0.0,0.0,0.0383755877004951,0.0,0.0,0.0,0.0,0.0,0.0,0.0,0.0,0.0,0.0,0.0,0.0,0.0,0.0,0.0,0.0,0.0,0.0,0.0,0.0,0.0,0.004573903933024082,0.019178270448220288,0.003271855612323471,9.572185081196949e-05,0.00014428453869186344,0.0003046794736292213,0.4404960644648751,0.0,0.0,0.0,0.0,0.0,0.0,0.44049606446428347,0.0,0.0,0.0,0.0,0.0,0.0,0.016441862323742843,0.0,0.0,0.0,0.0,0.0,0.0,0.0,0.0,0.0,0.0,0.0,0.0,0.0,0.0,0.0,0.0,0.0,0.0,0.0,0.0,0.0
1713690051809393970,11949,1713690051094895937,uav37/gps_garmin_origin,uav37/fcu,-36.80113314046905,12.045745918630532,0.06401089721140794,-0.008757854715048023,0.08110796512437643,0.4154247353277599,0.9059619796681402,0.002301786760022734,0.0,0.0,0.0,0.0,0.0,0.0,0.0023017867600227337,0.0,0.0,0.0,0.0,0.0,0.0,0.03207539179359937,0.0,0.0,0.0,0.0,0.0,0.0,0.0,0.0,0.0,0.0,0.0,0.0,0.0,0.0,0.0,0.0,0.0,0.0,0.0,0.0,0.0,0.004960937920642844,0.017889309638323095,0.0025699640816162824,-0.000562805391382426,0.00026905955746769905,-0.00016576514462940398,0.4404384750743006,0.0,0.0,0.0,0.0,0.0,0.0,0.44043847507396616,0.0,0.0,0.0,0.0,0.0,0.0,0.01644422548197844,0.0,0.0,0.0,0.0,0.0,0.0,0.0,0.0,0.0,0.0,0.0,0.0,0.0,0.0,0.0,0.0,0.0,0.0,0.0,0.0,0.0
1713690052409575623,11959,1713690051194892702,uav37/gps_garmin_origin,uav37/fcu,-36.801250104379704,12.04728834803042,0.06400702644436541,-0.008753634688535739,0.08111444979338656,0.4154439870309971,0.9059526095625698,0.0023009075648468703,0.0,0.0,0.0,0.0,0.0,0.0,0.0023009075648468707,0.0,0.0,0.0,0.0,0.0,0.0,0.03893597921749625,0.0,0.0,0.0,0.0,0.0,0.0,0.0,0.0,0.0,0.0,0.0,0.0,0.0,0.0,0.0,0.0,0.0,0.0,0.0,0.0,0.0,0.006314246180343719,0.016020806265699742,0.002400734524223387,0.00016266082820948213,0.00032308747177012265,-7.456774619640787e-05,0.4404113040098498,0.0,0.0,0.0,0.0,0.0,0.0,0.440411304009661,0.0,0.0,0.0,0.0,0.0,0.0,0.016441804830986617,0.0,0.0,0.0,0.0,0.0,0.0,0.0,0.0,0.0,0.0,0.0,0.0,0.0,0.0,0.0,0.0,0.0,0.0,0.0,0.0,0.0
1713690052501481935,11969,1713690051294894337,uav37/gps_garmin_origin,uav37/fcu,-36.80128760432261,12.048135685567868,0.06399456054833903,-0.008745732290917744,0.08111099501998341,0.4154497393139421,0.90595036161375,0.0035105661102569317,0.0,0.0,0.0,0.0,0.0,0.0,0.0035105661102568762,0.0,0.0,0.0,0.0,0.0,0.0,0.03739464657715774,0.0,0.0,0.0,0.0,0.0,0.0,0.0,0.0,0.0,0.0,0.0,0.0,0.0,0.0,0.0,0.0,0.0,0.0,0.0,0.0,0.0,0.005800962082648466,0.01290375194164646,0.002344606159839689,6.811210187152028e-05,0.0002213364496128634,0.0001436624443158507,0.457350743152283,0.0,0.0,0.0,0.0,0.0,0.0,0.4573507431521681,0.0,0.0,0.0,0.0,0.0,0.0,0.01733606111055685,0.0,0.0,0.0,0.0,0.0,0.0,0.0,0.0,0.0,0.0,0.0,0.0,0.0,0.0,0.0,0.0,0.0,0.0,0.0,0.0,0.0
1713690052760093735,11990,1713690051504953390,uav37/gps_garmin_origin,uav37/fcu,-36.8009755098017,12.049374923809598,0.06397750222101266,-0.00871288100249187,0.08111852192219962,0.4153187983649871,0.9060100253845668,0.0024952259992639023,0.0,0.0,0.0,0.0,0.0,0.0,0.0024952259992639027,0.0,0.0,0.0,0.0,0.0,0.0,0.0322268231781962,0.0,0.0,0.0,0.0,0.0,0.0,0.0,0.0,0.0,0.0,0.0,0.0,0.0,0.0,0.0,0.0,0.0,0.0,0.0,0.0,0.0,0.005127200134341712,0.006912795301654742,0.002482851875983509,0.0006339707761071622,-0.001118829590268433,-5.027572115068187e-06,0.4425816869263537,0.0,0.0,0.0,0.0,0.0,0.0,0.44258168692883926,0.0,0.0,0.0,0.0,0.0,0.0,0.01644039125146364,0.0,0.0,0.0,0.0,0.0,0.0,0.0,0.0,0.0,0.0,0.0,0.0,0.0,0.0,0.0,0.0,0.0,0.0,0.0,0.0,0.0
1713690052857169765,12000,1713690051604893283,uav37/gps_garmin_origin,uav37/fcu,-36.800392216885186,12.050341593801308,0.06398610345346803,-0.008704507232877473,0.08112970137107046,0.4152708531658951,0.9060310904945323,0.0023025932153646024,0.0,0.0,0.0,0.0,0.0,0.0,0.0023025932153646015,0.0,0.0,0.0,0.0,0.0,0.0,0.03959356559994424,0.0,0.0,0.0,0.0,0.0,0.0,0.0,0.0,0.0,0.0,0.0,0.0,0.0,0.0,0.0,0.0,0.0,0.0,0.0,0.0,0.0,0.006564008070926851,0.0050008087287177864,0.002717121213531436,0.00017461771494708955,-0.00040351308416575193,-0.00021587261289823795,0.4404396057416179,0.0,0.0,0.0,0.0,0.0,0.0,0.4404396057394826,0.0,0.0,0.0,0.0,0.0,0.0,0.01644083215937673,0.0,0.0,0.0,0.0,0.0,0.0,0.0,0.0,0.0,0.0,0.0,0.0,0.0,0.0,0.0,0.0,0.0,0.0,0.0,0.0,0.0
1713690052857177987,12010,1713690051704897118,uav37/gps_garmin_origin,uav37/fcu,-36.79974630486334,12.051250719934478,0.06397718406783108,-0.008701201055599244,0.08113132928163323,0.41523713908965454,0.9060464193462056,0.002301753820588666,0.0,0.0,0.0,0.0,0.0,0.0,0.0023017538205886675,0.0,0.0,0.0,0.0,0.0,0.0,0.03739366369699233,0.0,0.0,0.0,0.0,0.0,0.0,0.0,0.0,0.0,0.0,0.0,0.0,0.0,0.0,0.0,0.0,0.0,0.0,0.0,0.0,0.0,0.007680295186173442,0.0033425302920305467,0.002824925504796071,0.00020512440823949873,-0.00011716755398083485,-0.0005702654016204178,0.44046139774891857,0.0,0.0,0.0,0.0,0.0,0.0,0.4404613977476286,0.0,0.0,0.0,0.0,0.0,0.0,0.016435789323382813,0.0,0.0,0.0,0.0,0.0,0.0,0.0,0.0,0.0,0.0,0.0,0.0,0.0,0.0,0.0,0.0,0.0,0.0,0.0,0.0,0.0
1713690052857260937,12031,1713690051914894135,uav37/gps_garmin_origin,uav37/fcu,-36.80073957921926,12.05492663503168,0.06396037212559734,-0.00871712272636159,0.08111696370864278,0.4151998114447981,0.906064680595275,0.0023025126835250994,0.0,0.0,0.0,0.0,0.0,0.0,0.0023025126835251,0.0,0.0,0.0,0.0,0.0,0.0,0.03738970276132278,0.0,0.0,0.0,0.0,0.0,0.0,0.0,0.0,0.0,0.0,0.0,0.0,0.0,0.0,0.0,0.0,0.0,0.0,0.0,0.0,0.0,0.008868078803541199,0.011294692716081078,0.002088308004405672,-0.0003219448553863913,-0.0008040131069719791,-0.0002428309089737012,0.440430211029603,0.0,0.0,0.0,0.0,0.0,0.0,0.4404302110293513,0.0,0.0,0.0,0.0,0.0,0.0,0.016441279599740056,0.0,0.0,0.0,0.0,0.0,0.0,0.0,0.0,0.0,0.0,0.0,0.0,0.0,0.0,0.0,0.0,0.0,0.0,0.0,0.0,0.0
1713690052857271613,12021,1713690051814894172,uav37/gps_garmin_origin,uav37/fcu,-36.799153963845264,12.052153958779705,0.06396962586715975,-0.008696515150983486,0.0811291272555324,0.4152088317451407,0.9060596434725725,0.0023033286556054357,0.0,0.0,0.0,0.0,0.0,0.0,0.0023033286556054353,0.0,0.0,0.0,0.0,0.0,0.0,0.03965559510654626,0.0,0.0,0.0,0.0,0.0,0.0,0.0,0.0,0.0,0.0,0.0,0.0,0.0,0.0,0.0,0.0,0.0,0.0,0.0,0.0,0.0,0.008142760655779074,0.002164759151244961,0.0026885411040569553,0.0009191599674522877,0.00048796058399602765,-0.00047244882443919783,0.44045586010927,0.0,0.0,0.0,0.0,0.0,0.0,0.440455860108694,0.0,0.0,0.0,0.0,0.0,0.0,0.0164417501940942,0.0,0.0,0.0,0.0,0.0,0.0,0.0,0.0,0.0,0.0,0.0,0.0,0.0,0.0,0.0,0.0,0.0,0.0,0.0,0.0,0.0
1713690052982875220,12042,1713690052024893373,uav37/gps_garmin_origin,uav37/fcu,-36.80156959272286,12.056919497504648,0.06396125420965008,-0.008737062758608583,0.08109862862661997,0.41520856299212994,0.9060620976273002,0.002301707273098564,0.0,0.0,0.0,0.0,0.0,0.0,0.002301707273098564,0.0,0.0,0.0,0.0,0.0,0.0,0.03839594777339503,0.0,0.0,0.0,0.0,0.0,0.0,0.0,0.0,0.0,0.0,0.0,0.0,0.0,0.0,0.0,0.0,0.0,0.0,0.0,0.0,0.0,0.008745394989104194,0.013331486743939622,0.0018033558750818017,-0.00012118443555664271,0.00044347858056426054,0.00033006313606165344,0.4404109975800671,0.0,0.0,0.0,0.0,0.0,0.0,0.4404109975799804,0.0,0.0,0.0,0.0,0.0,0.0,0.016433971441093084,0.0,0.0,0.0,0.0,0.0,0.0,0.0,0.0,0.0,0.0,0.0,0.0,0.0,0.0,0.0,0.0,0.0,0.0,0.0,0.0,0.0
1713690052984963188,12052,1713690052124896557,uav37/gps_garmin_origin,uav37/fcu,-36.7999068326016,12.05681986748946,0.06395352373055505,-0.008702004685797137,0.08112412145586222,0.4152316480212922,0.906049579995093,0.0020101289381763195,0.0,0.0,0.0,0.0,0.0,0.0,0.002010128938762087,0.0,0.0,0.0,0.0,0.0,0.0,0.03739599766162002,0.0,0.0,0.0,0.0,0.0,0.0,0.0,0.0,0.0,0.0,0.0,0.0,0.0,0.0,0.0,0.0,0.0,0.0,0.0,0.0,0.0,0.008974130996657653,0.004517248579389912,0.002300362568416291,7.201178232207894e-05,0.0004863809735979885,0.0002092418872052803,0.43639170293360735,0.0,0.0,0.0,0.0,0.0,0.0,0.436391702930342,0.0,0.0,0.0,0.0,0.0,0.0,0.006218508184122506,0.0,0.0,0.0,0.0,0.0,0.0,0.0,0.0,0.0,0.0,0.0,0.0,0.0,0.0,0.0,0.0,0.0,0.0,0.0,0.0,0.0
1713690053087305515,12062,1713690052224956515,uav37/gps_garmin_origin,uav37/fcu,-36.79848235422251,12.05685620303443,0.06395352695381558,-0.008672538916184013,0.08114276753908298,0.4152580926477155,0.9060360776986932,0.0031314221624176514,0.0,0.0,0.0,0.0,0.0,0.0,0.0031314221629903634,0.0,0.0,0.0,0.0,0.0,0.0,0.04430372751061887,0.0,0.0,0.0,0.0,0.0,0.0,0.0,0.0,0.0,0.0,0.0,0.0,0.0,0.0,0.0,0.0,0.0,0.0,0.0,0.0,0.0,0.00900234267404124,-0.0008734681746722245,0.002586327944942993,0.0007255679229274392,0.00037547494866885245,-7.05405836924911e-05,0.452703823034796,0.0,0.0,0.0,0.0,0.0,0.0,0.45270382303224366,0.0,0.0,0.0,0.0,0.0,0.0,0.016413941908709432,0.0,0.0,0.0,0.0,0.0,0.0,0.0,0.0,0.0,0.0,0.0,0.0,0.0,0.0,0.0,0.0,0.0,0.0,0.0,0.0,0.0
1713690053173153327,12072,1713690052324952118,uav37/gps_garmin_origin,uav37/fcu,-36.79794231024126,12.05682172810636,0.0639312399856435,-0.00865615143141208,0.0811371621807687,0.41528690024681963,0.9060235243505387,0.0023128774229995994,0.0,0.0,0.0,0.0,0.0,0.0,0.0023128774229996007,0.0,0.0,0.0,0.0,0.0,0.0,0.03773845046916195,0.0,0.0,0.0,0.0,0.0,0.0,0.0,0.0,0.0,0.0,0.0,0.0,0.0,0.0,0.0,0.0,0.0,0.0,0.0,0.0,0.0,0.0071299531647829924,-0.0026456810122448215,0.0020345114418363194,0.0003123707138001919,0.0001097832137020304,-0.0007109768339432776,0.4405018756327212,0.0,0.0,0.0,0.0,0.0,0.0,0.4405018756338061,0.0,0.0,0.0,0.0,0.0,0.0,0.01644237437412739,0.0,0.0,0.0,0.0,0.0,0.0,0.0,0.0,0.0,0.0,0.0,0.0,0.0,0.0,0.0,0.0,0.0,0.0,0.0,0.0,0.0
1713690053381154899,12083,1713690052434894727,uav37/gps_garmin_origin,uav37/fcu,-36.797608060850514,12.056698213825234,0.06389842078715682,-0.008656472735009977,0.08113047601712987,0.41531571828734765,0.906010908290321,0.002301621931977419,0.0,0.0,0.0,0.0,0.0,0.0,0.0023016219319774178,0.0,0.0,0.0,0.0,0.0,0.0,0.039658363851765396,0.0,0.0,0.0,0.0,0.0,0.0,0.0,0.0,0.0,0.0,0.0,0.0,0.0,0.0,0.0,0.0,0.0,0.0,0.0,0.0,0.0,0.005030730572755116,-0.0035846928507331146,0.0007290752013223272,-0.00017105274309869856,0.00029190632631070906,-0.0003897785500157625,0.4404544614786184,0.0,0.0,0.0,0.0,0.0,0.0,0.4404544614796196,0.0,0.0,0.0,0.0,0.0,0.0,0.016444069802830898,0.0,0.0,0.0,0.0,0.0,0.0,0.0,0.0,0.0,0.0,0.0,0.0,0.0,0.0,0.0,0.0,0.0,0.0,0.0,0.0,0.0
1713690053609334278,12093,1713690052534896158,uav37/gps_garmin_origin,uav37/fcu,-36.797546738601895,12.056235015199832,0.06386571753081546,-0.00864726366341527,0.08112247879158652,0.41534800038080244,0.9059969139845869,0.002301721151085462,0.0,0.0,0.0,0.0,0.0,0.0,0.0023017211510854628,0.0,0.0,0.0,0.0,0.0,0.0,0.03772684623883847,0.0,0.0,0.0,0.0,0.0,0.0,0.0,0.0,0.0,0.0,0.0,0.0,0.0,0.0,0.0,0.0,0.0,0.0,0.0,0.0,0.0,0.002341571066805794,-0.004284748035345602,-0.00044243330680267864,0.00022211983741726726,-0.00026246605557389563,-0.0002933326759375631,0.44043714034148895,0.0,0.0,0.0,0.0,0.0,0.0,0.4404371403419782,0.0,0.0,0.0,0.0,0.0,0.0,0.016438354188035575,0.0,0.0,0.0,0.0,0.0,0.0,0.0,0.0,0.0,0.0,0.0,0.0,0.0,0.0,0.0,0.0,0.0,0.0,0.0,0.0,0.0
1713690053628439205,12103,1713690052634895081,uav37/gps_garmin_origin,uav37/fcu,-36.79758812740447,12.055934226983196,0.06383885276645475,-0.008651086147738558,0.08111732117465602,0.4153577945314061,0.9059928583817626,0.0023016879276746595,0.0,0.0,0.0,0.0,0.0,0.0,0.0023016879276746604,0.0,0.0,0.0,0.0,0.0,0.0,0.04721990628224177,0.0,0.0,0.0,0.0,0.0,0.0,0.0,0.0,0.0,0.0,0.0,0.0,0.0,0.0,0.0,0.0,0.0,0.0,0.0,0.0,0.0,0.0005456630214816468,-0.004062812543579662,-0.0011017480904607752,9.471229714108631e-05,-0.00037029417580924934,-0.0006312739569693804,0.4404208750639141,0.0,0.0,0.0,0.0,0.0,0.0,0.4404208750641237,0.0,0.0,0.0,0.0,0.0,0.0,0.01644214933255169,0.0,0.0,0.0,0.0,0.0,0.0,0.0,0.0,0.0,0.0,0.0,0.0,0.0,0.0,0.0,0.0,0.0,0.0,0.0,0.0,0.0
1713690053628494061,12114,1713690052744891756,uav37/gps_garmin_origin,uav37/fcu,-36.79718908942444,12.056512555734704,0.06383834517889214,-0.00866972324059202,0.08112513415717013,0.41537669401776717,0.90598332473622,0.0023010878454810704,0.0,0.0,0.0,0.0,0.0,0.0,0.0023010878454810704,0.0,0.0,0.0,0.0,0.0,0.0,0.03774115980125292,0.0,0.0,0.0,0.0,0.0,0.0,0.0,0.0,0.0,0.0,0.0,0.0,0.0,0.0,0.0,0.0,0.0,0.0,0.0,0.0,0.0,0.0021285078441751868,-0.0029594865415769533,-0.001200477166359409,-0.0006090207607485354,-0.00019095321476925154,0.0007826749351806939,0.44041316913925904,0.0,0.0,0.0,0.0,0.0,0.0,0.44041316913932665,0.0,0.0,0.0,0.0,0.0,0.0,0.016132688561721748,0.0,0.0,0.0,0.0,0.0,0.0,0.0,0.0,0.0,0.0,0.0,0.0,0.0,0.0,0.0,0.0,0.0,0.0,0.0,0.0,0.0
1713690053759297648,12125,1713690052854958951,uav37/gps_garmin_origin,uav37/fcu,-36.79681935196283,12.057305890349781,0.06383304565588226,-0.008689023290036624,0.08113278108216886,0.41538032666482233,0.905980771515276,0.00350981793142772,0.0,0.0,0.0,0.0,0.0,0.0,0.003509817931427724,0.0,0.0,0.0,0.0,0.0,0.0,0.042033264975391824,0.0,0.0,0.0,0.0,0.0,0.0,0.0,0.0,0.0,0.0,0.0,0.0,0.0,0.0,0.0,0.0,0.0,0.0,0.0,0.0,0.0,0.0036804389479663624,-0.001555133482277601,-0.0009624175867028438,-8.771542525209952e-06,-0.0004171404871158302,0.0001371928228763864,0.4573364928729927,0.0,0.0,0.0,0.0,0.0,0.0,0.4573364928730033,0.0,0.0,0.0,0.0,0.0,0.0,0.016567991001099982,0.0,0.0,0.0,0.0,0.0,0.0,0.0,0.0,0.0,0.0,0.0,0.0,0.0,0.0,0.0,0.0,0.0,0.0,0.0,0.0,0.0
1713690053759322334,12136,1713690052964893819,uav37/gps_garmin_origin,uav37/fcu,-36.79652011526203,12.058396510976225,0.06383918743607776,-0.008698343311780739,0.08113324222588855,0.41537760219825837,0.9059818993235391,0.002304669013058102,0.0,0.0,0.0,0.0,0.0,0.0,0.002304669013058101,0.0,0.0,0.0,0.0,0.0,0.0,0.037395090434600535,0.0,0.0,0.0,0.0,0.0,0.0,0.0,0.0,0.0,0.0,0.0,0.0,0.0,0.0,0.0,0.0,0.0,0.0,0.0,0.0,0.0,0.005421410823159297,0.00025176699265208255,-0.0010205326898246902,-9.928092185873538e-05,-0.0005497087258845567,0.0007349603110924364,0.44041424028531495,0.0,0.0,0.0,0.0,0.0,0.0,0.44041424028530485,0.0,0.0,0.0,0.0,0.0,0.0,0.016439822332984435,0.0,0.0,0.0,0.0,0.0,0.0,0.0,0.0,0.0,0.0,0.0,0.0,0.0,0.0,0.0,0.0,0.0,0.0,0.0,0.0,0.0
1713690053891376356,12146,1713690053064934610,uav37/gps_garmin_origin,uav37/fcu,-36.79544354311927,12.058517501453942,0.06383229165252696,-0.00869038554837121,0.08113913571073482,0.4153433646961081,0.90599714723259,0.0023297580892799354,0.0,0.0,0.0,0.0,0.0,0.0,0.0023297580892799354,0.0,0.0,0.0,0.0,0.0,0.0,0.044423892901156586,0.0,0.0,0.0,0.0,0.0,0.0,0.0,0.0,0.0,0.0,0.0,0.0,0.0,0.0,0.0,0.0,0.0,0.0,0.0,0.0,0.0,0.006053798447037779,-0.0028863794996631894,-0.0004436004129145147,-5.2464827604126185e-05,0.0003143647045362742,0.0009100559982471168,0.44069619741742905,0.0,0.0,0.0,0.0,0.0,0.0,0.4406961974174146,0.0,0.0,0.0,0.0,0.0,0.0,0.016490561420892388,0.0,0.0,0.0,0.0,0.0,0.0,0.0,0.0,0.0,0.0,0.0,0.0,0.0,0.0,0.0,0.0,0.0,0.0,0.0,0.0,0.0
1713690053892779115,12157,1713690053174953745,uav37/gps_garmin_origin,uav37/fcu,-36.79365052243703,12.058012167033644,0.06385059558612977,-0.008652476989306424,0.08114335734922358,0.4153022035582808,0.9060159974702389,0.0023020396575753957,0.0,0.0,0.0,0.0,0.0,0.0,0.0023020396575753957,0.0,0.0,0.0,0.0,0.0,0.0,0.037394710005298454,0.0,0.0,0.0,0.0,0.0,0.0,0.0,0.0,0.0,0.0,0.0,0.0,0.0,0.0,0.0,0.0,0.0,0.0,0.0,0.0,0.0,0.006296697533679478,-0.007910463257902492,0.00021349069715707989,-2.092357590299798e-06,-0.00025409448426216824,0.0011164674069732428,0.44044659313157153,0.0,0.0,0.0,0.0,0.0,0.0,0.44044659313155854,0.0,0.0,0.0,0.0,0.0,0.0,0.01643759746163634,0.0,0.0,0.0,0.0,0.0,0.0,0.0,0.0,0.0,0.0,0.0,0.0,0.0,0.0,0.0,0.0,0.0,0.0,0.0,0.0,0.0
1713690053983793367,12167,1713690053274950878,uav37/gps_garmin_origin,uav37/fcu,-36.79251673706596,12.0579595815551,0.06383752662810692,-0.008639198153780009,0.08114850242895616,0.4152760212434369,0.9060276662310331,0.0023017187533543645,0.0,0.0,0.0,0.0,0.0,0.0,0.0023017187533543653,0.0,0.0,0.0,0.0,0.0,0.0,0.0443338281226186,0.0,0.0,0.0,0.0,0.0,0.0,0.0,0.0,0.0,0.0,0.0,0.0,0.0,0.0,0.0,0.0,0.0,0.0,0.0,0.0,0.0,0.006529191286441803,-0.008859326817814449,0.00016246335433246425,0.0002659256279002875,-0.0008055525831878183,0.0016692428616806865,0.44043204388394963,0.0,0.0,0.0,0.0,0.0,0.0,0.44043204388393986,0.0,0.0,0.0,0.0,0.0,0.0,0.016441551960316613,0.0,0.0,0.0,0.0,0.0,0.0,0.0,0.0,0.0,0.0,0.0,0.0,0.0,0.0,0.0,0.0,0.0,0.0,0.0,0.0,0.0
1713690054216205630,12178,1713690053384908179,uav37/gps_garmin_origin,uav37/fcu,-36.791541466920165,12.058181448990938,0.06384144655809053,-0.008642480528848173,0.08114750848516052,0.41525013358654067,0.9060395950375401,0.00230174455393791,0.0,0.0,0.0,0.0,0.0,0.0,0.0023017445539379095,0.0,0.0,0.0,0.0,0.0,0.0,0.037405273491749255,0.0,0.0,0.0,0.0,0.0,0.0,0.0,0.0,0.0,0.0,0.0,0.0,0.0,0.0,0.0,0.0,0.0,0.0,0.0,0.0,0.0,0.00682700584755681,-0.008303171068520849,1.8423246791193e-05,-5.240314203547314e-05,-2.495364969945501e-05,0.0009591996204108,0.4404181947685497,0.0,0.0,0.0,0.0,0.0,0.0,0.44041819476854316,0.0,0.0,0.0,0.0,0.0,0.0,0.016447841006498046,0.0,0.0,0.0,0.0,0.0,0.0,0.0,0.0,0.0,0.0,0.0,0.0,0.0,0.0,0.0,0.0,0.0,0.0,0.0,0.0,0.0
1713690054216221880,12188,1713690053484895225,uav37/gps_garmin_origin,uav37/fcu,-36.78991041761462,12.057113599981053,0.06383710265568529,-0.008627439179271114,0.08114974573022783,0.4152537682359807,0.906037866111958,0.0023017673823342555,0.0,0.0,0.0,0.0,0.0,0.0,0.0023017673823342555,0.0,0.0,0.0,0.0,0.0,0.0,0.04207610784368412,0.0,0.0,0.0,0.0,0.0,0.0,0.0,0.0,0.0,0.0,0.0,0.0,0.0,0.0,0.0,0.0,0.0,0.0,0.0,0.0,0.0,0.005400018683586396,-0.01283577231316644,0.00023767957199468163,0.00046346758608706295,-8.401880768360562e-05,0.0006901722517795861,0.4404111750047126,0.0,0.0,0.0,0.0,0.0,0.0,0.4404111750047082,0.0,0.0,0.0,0.0,0.0,0.0,0.014399263864949441,0.0,0.0,0.0,0.0,0.0,0.0,0.0,0.0,0.0,0.0,0.0,0.0,0.0,0.0,0.0,0.0,0.0,0.0,0.0,0.0,0.0
1713690054422149178,12198,1713690053584896322,uav37/gps_garmin_origin,uav37/fcu,-36.7884825011436,12.055877496703447,0.06383677232179501,-0.008605053715619586,0.08115956916053538,0.41526585758889856,0.9060316513104765,0.003510586365160539,0.0,0.0,0.0,0.0,0.0,0.0,0.003510586365160537,0.0,0.0,0.0,0.0,0.0,0.0,0.03740663406401481,0.0,0.0,0.0,0.0,0.0,0.0,0.0,0.0,0.0,0.0,0.0,0.0,0.0,0.0,0.0,0.0,0.0,0.0,0.0,0.0,0.0,0.00366665523970915,-0.015739169767557532,-7.626772957030877e-05,0.000303028296912089,0.0009240172221325339,0.0010353144025430081,0.45734497222813786,0.0,0.0,0.0,0.0,0.0,0.0,0.4573449722281349,0.0,0.0,0.0,0.0,0.0,0.0,0.016572525937205956,0.0,0.0,0.0,0.0,0.0,0.0,0.0,0.0,0.0,0.0,0.0,0.0,0.0,0.0,0.0,0.0,0.0,0.0,0.0,0.0,0.0
1713690054422196581,12209,1713690053694898662,uav37/gps_garmin_origin,uav37/fcu,-36.78720966142763,12.054315470059644,0.0638339218234492,-0.00858638785101559,0.08115580154149264,0.41527086480250774,0.9060298683799203,0.002446679691363411,0.0,0.0,0.0,0.0,0.0,0.0,0.002446679691363412,0.0,0.0,0.0,0.0,0.0,0.0,0.039655866810647894,0.0,0.0,0.0,0.0,0.0,0.0,0.0,0.0,0.0,0.0,0.0,0.0,0.0,0.0,0.0,0.0,0.0,0.0,0.0,0.0,0.0,0.0011096602226507255,-0.01763763110078138,-5.264867515477776e-05,-0.0001076511325663887,0.000775346183218062,0.0010384287452325225,0.44185005475890693,0.0,0.0,0.0,0.0,0.0,0.0,0.44185005475890565,0.0,0.0,0.0,0.0,0.0,0.0,0.01644418163090901,0.0,0.0,0.0,0.0,0.0,0.0,0.0,0.0,0.0,0.0,0.0,0.0,0.0,0.0,0.0,0.0,0.0,0.0,0.0,0.0,0.0
1713690054422557907,12219,1713690053794896305,uav37/gps_garmin_origin,uav37/fcu,-36.7861805874398,12.052864990824817,0.0638494722179647,-0.008579043521749484,0.08114940347890312,0.4152964239333252,0.9060187881220131,0.002302346456959678,0.0,0.0,0.0,0.0,0.0,0.0,0.002302346456959676,0.0,0.0,0.0,0.0,0.0,0.0,0.037724499946859044,0.0,0.0,0.0,0.0,0.0,0.0,0.0,0.0,0.0,0.0,0.0,0.0,0.0,0.0,0.0,0.0,0.0,0.0,0.0,0.0,0.0,-0.0009036466477970238,-0.018474380314792094,5.3751973932247886e-05,0.00027559150476008654,-0.0002312686556251719,0.0004746897029690445,0.44043900905042466,0.0,0.0,0.0,0.0,0.0,0.0,0.44043900905042427,0.0,0.0,0.0,0.0,0.0,0.0,0.016443204964496316,0.0,0.0,0.0,0.0,0.0,0.0,0.0,0.0,0.0,0.0,0.0,0.0,0.0,0.0,0.0,0.0,0.0,0.0,0.0,0.0,0.0
