%time,field.header.seq,field.header.stamp,field.header.frame_id,field.child_frame_id,field.pose.pose.position.x,field.pose.pose.position.y,field.pose.pose.position.z,field.pose.pose.orientation.x,field.pose.pose.orientation.y,field.pose.pose.orientation.z,field.pose.pose.orientation.w,field.pose.covariance0,field.pose.covariance1,field.pose.covariance2,field.pose.covariance3,field.pose.covariance4,field.pose.covariance5,field.pose.covariance6,field.pose.covariance7,field.pose.covariance8,field.pose.covariance9,field.pose.covariance10,field.pose.covariance11,field.pose.covariance12,field.pose.covariance13,field.pose.covariance14,field.pose.covariance15,field.pose.covariance16,field.pose.covariance17,field.pose.covariance18,field.pose.covariance19,field.pose.covariance20,field.pose.covariance21,field.pose.covariance22,field.pose.covariance23,field.pose.covariance24,field.pose.covariance25,field.pose.covariance26,field.pose.covariance27,field.pose.covariance28,field.pose.covariance29,field.pose.covariance30,field.pose.covariance31,field.pose.covariance32,field.pose.covariance33,field.pose.covariance34,field.pose.covariance35,field.twist.twist.linear.x,field.twist.twist.linear.y,field.twist.twist.linear.z,field.twist.twist.angular.x,field.twist.twist.angular.y,field.twist.twist.angular.z,field.twist.covariance0,field.twist.covariance1,field.twist.covariance2,field.twist.covariance3,field.twist.covariance4,field.twist.covariance5,field.twist.covariance6,field.twist.covariance7,field.twist.covariance8,field.twist.covariance9,field.twist.covariance10,field.twist.covariance11,field.twist.covariance12,field.twist.covariance13,field.twist.covariance14,field.twist.covariance15,field.twist.covariance16,field.twist.covariance17,field.twist.covariance18,field.twist.covariance19,field.twist.covariance20,field.twist.covariance21,field.twist.covariance22,field.twist.covariance23,field.twist.covariance24,field.twist.covariance25,field.twist.covariance26,field.twist.covariance27,field.twist.covariance28,field.twist.covariance29,field.twist.covariance30,field.twist.covariance31,field.twist.covariance32,field.twist.covariance33,field.twist.covariance34,field.twist.covariance35
1713690045568231513,11297,1713690045101166802,uav3/gps_garmin_origin,uav3/fcu,-22.62970310332708,21.403641026588268,0.13358137694132835,0.02211764260464169,-0.02733578837518556,-0.6028303385325255,-0.7970941898573095,0.0023017656740596656,0.0,0.0,0.0,0.0,0.0,0.0,0.002301765674059665,0.0,0.0,0.0,0.0,0.0,0.0,0.032047494391761834,0.0,0.0,0.0,0.0,0.0,0.0,0.0,0.0,0.0,0.0,0.0,0.0,0.0,0.0,0.0,0.0,0.0,0.0,0.0,0.0,0.0,-0.0028276331206068543,0.0023058304052784146,0.017001319582738376,-0.001022418262436986,0.0011035990901291362,-0.007634805981069803,0.4404687261936101,0.0,0.0,0.0,0.0,0.0,0.0,0.4404687261935931,0.0,0.0,0.0,0.0,0.0,0.0,0.016390173817057777,0.0,0.0,0.0,0.0,0.0,0.0,0.0,0.0,0.0,0.0,0.0,0.0,0.0,0.0,0.0,0.0,0.0,0.0,0.0,0.0,0.0
1713690045619307813,11310,1713690045231245083,uav3/gps_garmin_origin,uav3/fcu,-22.630233293614637,21.404262532148223,0.13332614008083832,0.02212370714227987,-0.027332832877377925,-0.6027655296688859,-0.7971431327385111,0.0023014680287788214,0.0,0.0,0.0,0.0,0.0,0.0,0.0023014680287788214,0.0,0.0,0.0,0.0,0.0,0.0,0.03211739890896179,0.0,0.0,0.0,0.0,0.0,0.0,0.0,0.0,0.0,0.0,0.0,0.0,0.0,0.0,0.0,0.0,0.0,0.0,0.0,0.0,0.0,-0.0010575327413395814,0.003718835061230626,0.017105662278874147,0.002518582856282592,-0.0006272764294408268,-0.0056838542222976685,0.4404274959292457,0.0,0.0,0.0,0.0,0.0,0.0,0.44042749592923336,0.0,0.0,0.0,0.0,0.0,0.0,0.016510682808239235,0.0,0.0,0.0,0.0,0.0,0.0,0.0,0.0,0.0,0.0,0.0,0.0,0.0,0.0,0.0,0.0,0.0,0.0,0.0,0.0,0.0
1713690045681406521,11321,1713690045341166976,uav3/gps_garmin_origin,uav3/fcu,-22.629664657350656,21.404306230305668,0.14908466885313096,0.02208648150856135,-0.02734502502986803,-0.6027478211014152,-0.7971571370176548,0.0023017468853150863,0.0,0.0,0.0,0.0,0.0,0.0,0.0023017468853150863,0.0,0.0,0.0,0.0,0.0,0.0,0.032333871306426336,0.0,0.0,0.0,0.0,0.0,0.0,0.0,0.0,0.0,0.0,0.0,0.0,0.0,0.0,0.0,0.0,0.0,0.0,0.0,0.0,0.0,-0.0007134675831837631,0.0005740266799775149,0.016271799194139076,0.004670291673392057,-0.00020269598462618925,-0.0030596903525292873,0.44041636804941103,0.0,0.0,0.0,0.0,0.0,0.0,0.4404163680494025,0.0,0.0,0.0,0.0,0.0,0.0,0.016450134258114018,0.0,0.0,0.0,0.0,0.0,0.0,0.0,0.0,0.0,0.0,0.0,0.0,0.0,0.0,0.0,0.0,0.0,0.0,0.0,0.0,0.0
1713690045783616217,11333,1713690045461165740,uav3/gps_garmin_origin,uav3/fcu,-22.628319051062494,21.404379247625553,0.13553938564935933,0.02209513714077127,-0.027310714314857813,-0.6027435200807716,-0.7971613254536268,0.0023014764147927273,0.0,0.0,0.0,0.0,0.0,0.0,0.0023014764147927277,0.0,0.0,0.0,0.0,0.0,0.0,0.037727333420154885,0.0,0.0,0.0,0.0,0.0,0.0,0.0,0.0,0.0,0.0,0.0,0.0,0.0,0.0,0.0,0.0,0.0,0.0,0.0,0.0,0.0,0.00029371400764608823,-0.0037783883643491218,0.015234217442286615,0.00045719699119217694,-0.0013775265542790305,-0.008352152071893215,0.4404063185386941,0.0,0.0,0.0,0.0,0.0,0.0,0.4404063185386885,0.0,0.0,0.0,0.0,0.0,0.0,0.016441904118759572,0.0,0.0,0.0,0.0,0.0,0.0,0.0,0.0,0.0,0.0,0.0,0.0,0.0,0.0,0.0,0.0,0.0,0.0,0.0,0.0,0.0
1713690045894495386,11345,1713690045581169872,uav3/gps_garmin_origin,uav3/fcu,-22.628972131463225,21.40508753731149,0.15348269249707241,0.02209769124405328,-0.027329604643841557,-0.6026884706132296,-0.7972022278829757,0.002301606901714012,0.0,0.0,0.0,0.0,0.0,0.0,0.002301606901714012,0.0,0.0,0.0,0.0,0.0,0.0,0.038376586573856224,0.0,0.0,0.0,0.0,0.0,0.0,0.0,0.0,0.0,0.0,0.0,0.0,0.0,0.0,0.0,0.0,0.0,0.0,0.0,0.0,0.0,0.0014683335937059774,0.0003378249999142729,0.014732837347175278,0.0006488710059784353,-0.0009141999180428685,-0.0005941032432019709,0.44040350663151295,0.0,0.0,0.0,0.0,0.0,0.0,0.4404035066315094,0.0,0.0,0.0,0.0,0.0,0.0,0.01643985734966994,0.0,0.0,0.0,0.0,0.0,0.0,0.0,0.0,0.0,0.0,0.0,0.0,0.0,0.0,0.0,0.0,0.0,0.0,0.0,0.0,0.0
1713690045958700140,11355,1713690045681167360,uav3/gps_garmin_origin,uav3/fcu,-22.630055400403425,21.40538660439176,0.14209421448392937,0.022080645926809712,-0.027288655663396538,-0.6027790994434866,-0.7971355791969386,0.0023016665870645705,0.0,0.0,0.0,0.0,0.0,0.0,0.0023016665870645684,0.0,0.0,0.0,0.0,0.0,0.0,0.032057833660174465,0.0,0.0,0.0,0.0,0.0,0.0,0.0,0.0,0.0,0.0,0.0,0.0,0.0,0.0,0.0,0.0,0.0,0.0,0.0,0.0,0.0,0.0008950219027816487,0.003989262365066073,0.013678851243514003,-0.0019099032506346703,0.0023302899207919836,-0.0003140002954751256,0.4404029174531964,0.0,0.0,0.0,0.0,0.0,0.0,0.4404029174531938,0.0,0.0,0.0,0.0,0.0,0.0,0.016442087555954846,0.0,0.0,0.0,0.0,0.0,0.0,0.0,0.0,0.0,0.0,0.0,0.0,0.0,0.0,0.0,0.0,0.0,0.0,0.0,0.0,0.0
1713690046003073263,11369,1713690045821167869,uav3/gps_garmin_origin,uav3/fcu,-22.626723826046668,21.405319238781363,0.1244435328408225,0.022051474841947843,-0.027289713381886994,-0.602580810476026,-0.7972862540185209,0.0023011658904463048,0.0,0.0,0.0,0.0,0.0,0.0,0.0023011658904463026,0.0,0.0,0.0,0.0,0.0,0.0,0.029625036153186835,0.0,0.0,0.0,0.0,0.0,0.0,0.0,0.0,0.0,0.0,0.0,0.0,0.0,0.0,0.0,0.0,0.0,0.0,0.0,0.0,0.0,0.0025028375870431354,-0.0077389921327179,0.01358189821901344,0.0024276841431856155,-0.003380380105227232,-0.0009605573141016062,0.44039650976688444,0.0,0.0,0.0,0.0,0.0,0.0,0.44039650976688316,0.0,0.0,0.0,0.0,0.0,0.0,0.01648440689828918,0.0,0.0,0.0,0.0,0.0,0.0,0.0,0.0,0.0,0.0,0.0,0.0,0.0,0.0,0.0,0.0,0.0,0.0,0.0,0.0,0.0
1713690046070720659,11382,1713690045951169553,uav3/gps_garmin_origin,uav3/fcu,-22.624652147335244,21.405867497278134,0.1292351524767575,0.0220360491524509,-0.027295233345811444,-0.6026741834410135,-0.7972159126535647,0.0023016004801860055,0.0,0.0,0.0,0.0,0.0,0.0,0.0023016004801860064,0.0,0.0,0.0,0.0,0.0,0.0,0.029591731223830527,0.0,0.0,0.0,0.0,0.0,0.0,0.0,0.0,0.0,0.0,0.0,0.0,0.0,0.0,0.0,0.0,0.0,0.0,0.0,0.0,0.0,0.00454300557724502,-0.010614155119617698,0.011519281580883056,0.0011796042090281844,0.0003526903456076987,0.006181851029396057,0.4404010668013124,0.0,0.0,0.0,0.0,0.0,0.0,0.4404010668013119,0.0,0.0,0.0,0.0,0.0,0.0,0.0163782560881454,0.0,0.0,0.0,0.0,0.0,0.0,0.0,0.0,0.0,0.0,0.0,0.0,0.0,0.0,0.0,0.0,0.0,0.0,0.0,0.0,0.0
1713690046166821180,11393,1713690046061165748,uav3/gps_garmin_origin,uav3/fcu,-22.624434330522067,21.405775846775636,0.13792824806518944,0.022051112327976425,-0.027281195593428276,-0.6026588627775776,-0.7972275584346851,0.002300889220239625,0.0,0.0,0.0,0.0,0.0,0.0,0.002300889220239628,0.0,0.0,0.0,0.0,0.0,0.0,0.03719956907687422,0.0,0.0,0.0,0.0,0.0,0.0,0.0,0.0,0.0,0.0,0.0,0.0,0.0,0.0,0.0,0.0,0.0,0.0,0.0,0.0,0.0,0.0029333203677282607,-0.00826700914166947,0.010995536644113,-0.0019032952841371298,-0.0005866324645467096,0.0049477191641926765,0.44039107026797475,0.0,0.0,0.0,0.0,0.0,0.0,0.4403910702679746,0.0,0.0,0.0,0.0,0.0,0.0,0.01639725235218485,0.0,0.0,0.0,0.0,0.0,0.0,0.0,0.0,0.0,0.0,0.0,0.0,0.0,0.0,0.0,0.0,0.0,0.0,0.0,0.0,0.0
1713690046223157491,11406,1713690046191228796,uav3/gps_garmin_origin,uav3/fcu,-22.624375640964406,21.40518925644896,0.14236288358850685,0.022034939435545183,-0.0272970410583353,-0.6026646100539274,-0.7972231185697509,0.0023016392872422186,0.0,0.0,0.0,0.0,0.0,0.0,0.0023016392872422186,0.0,0.0,0.0,0.0,0.0,0.0,0.037227277379148487,0.0,0.0,0.0,0.0,0.0,0.0,0.0,0.0,0.0,0.0,0.0,0.0,0.0,0.0,0.0,0.0,0.0,0.0,0.0,0.0,0.0,1.2061361112677255e-05,-0.006156259837220636,0.009456634525232412,0.0018933714600279927,-0.0004184391291346401,5.385537588153971e-05,0.4404018002598816,0.0,0.0,0.0,0.0,0.0,0.0,0.4404018002598815,0.0,0.0,0.0,0.0,0.0,0.0,0.016447930294108123,0.0,0.0,0.0,0.0,0.0,0.0,0.0,0.0,0.0,0.0,0.0,0.0,0.0,0.0,0.0,0.0,0.0,0.0,0.0,0.0,0.0
1713690046281260768,11417,1713690046301165649,uav3/gps_garmin_origin,uav3/fcu,-22.62468696739818,21.40493091854439,0.14592763908977266,0.02202392885305414,-0.027284329144776964,-0.6026282323499111,-0.7972513565468651,0.002301669343866699,0.0,0.0,0.0,0.0,0.0,0.0,0.0023016693438667,0.0,0.0,0.0,0.0,0.0,0.0,0.03767093624848529,0.0,0.0,0.0,0.0,0.0,0.0,0.0,0.0,0.0,0.0,0.0,0.0,0.0,0.0,0.0,0.0,0.0,0.0,0.0,0.0,0.0,-0.0011687524711608498,-0.0033111113958654423,0.009669064438058034,-0.0013712503714486957,-0.0009370418847538529,0.0015226057730615141,0.4404018841229416,0.0,0.0,0.0,0.0,0.0,0.0,0.44040188412294173,0.0,0.0,0.0,0.0,0.0,0.0,0.01637783419104103,0.0,0.0,0.0,0.0,0.0,0.0,0.0,0.0,0.0,0.0,0.0,0.0,0.0,0.0,0.0,0.0,0.0,0.0,0.0,0.0,0.0
1713690046477398214,11429,1713690046421167217,uav3/gps_garmin_origin,uav3/fcu,-22.625631741449872,21.40643993360765,0.14428868974612466,0.022019483825835417,-0.027307576165262023,-0.6025217055116802,-0.797331194048821,0.0022999249626613804,0.0,0.0,0.0,0.0,0.0,0.0,0.0022999249626613812,0.0,0.0,0.0,0.0,0.0,0.0,0.038385835847667936,0.0,0.0,0.0,0.0,0.0,0.0,0.0,0.0,0.0,0.0,0.0,0.0,0.0,0.0,0.0,0.0,0.0,0.0,0.0,0.0,0.0,0.0027635782124780044,0.002343944020726475,0.009864288319208186,0.0008150587673299015,0.00022924548829905643,-0.003806846449151635,0.44037923458904527,0.0,0.0,0.0,0.0,0.0,0.0,0.4403792345890453,0.0,0.0,0.0,0.0,0.0,0.0,0.006368742211127736,0.0,0.0,0.0,0.0,0.0,0.0,0.0,0.0,0.0,0.0,0.0,0.0,0.0,0.0,0.0,0.0,0.0,0.0,0.0,0.0,0.0
1713690046580791902,11442,1713690046551164295,uav3/gps_garmin_origin,uav3/fcu,-22.625157671506205,21.407272599995448,0.12687635513760448,0.022008593218674204,-0.02730654166823784,-0.6024575654203351,-0.7973799950302607,0.002301602043977096,0.0,0.0,0.0,0.0,0.0,0.0,0.002301602043977097,0.0,0.0,0.0,0.0,0.0,0.0,0.03837998558975004,0.0,0.0,0.0,0.0,0.0,0.0,0.0,0.0,0.0,0.0,0.0,0.0,0.0,0.0,0.0,0.0,0.0,0.0,0.0,0.0,0.0,0.004207119197830994,0.0005776679237356471,0.009768060582507813,-0.0014422687236219645,0.0006669185822829603,-0.0009230937575921417,0.44040105190342405,0.0,0.0,0.0,0.0,0.0,0.0,0.44040105190342405,0.0,0.0,0.0,0.0,0.0,0.0,0.0062166886429039945,0.0,0.0,0.0,0.0,0.0,0.0,0.0,0.0,0.0,0.0,0.0,0.0,0.0,0.0,0.0,0.0,0.0,0.0,0.0,0.0,0.0
1713690046626119147,11453,1713690046661168932,uav3/gps_garmin_origin,uav3/fcu,-22.623701633093297,21.407733360049896,0.14498653581629922,0.02199611551042165,-0.027318245410435635,-0.6024383725681981,-0.797394439175198,0.0023017319177318684,0.0,0.0,0.0,0.0,0.0,0.0,0.002301731917731869,0.0,0.0,0.0,0.0,0.0,0.0,0.042070290930126236,0.0,0.0,0.0,0.0,0.0,0.0,0.0,0.0,0.0,0.0,0.0,0.0,0.0,0.0,0.0,0.0,0.0,0.0,0.0,0.0,0.0,0.005158807983868302,-0.0036762316455712053,0.00991166356731818,-0.0010885915253311396,0.001519825542345643,-0.0004920237697660925,0.44040257830595547,0.0,0.0,0.0,0.0,0.0,0.0,0.44040257830595547,0.0,0.0,0.0,0.0,0.0,0.0,0.014060684890334848,0.0,0.0,0.0,0.0,0.0,0.0,0.0,0.0,0.0,0.0,0.0,0.0,0.0,0.0,0.0,0.0,0.0,0.0,0.0,0.0,0.0
1713690046739063476,11465,1713690046781168837,uav3/gps_garmin_origin,uav3/fcu,-22.62269095385755,21.408081429350837,0.13494095239274187,0.021992813754075954,-0.02732542455752327,-0.6024023609321048,-0.7974214900912541,0.0023015415614562433,0.0,0.0,0.0,0.0,0.0,0.0,0.0023015415614562416,0.0,0.0,0.0,0.0,0.0,0.0,0.02963111976999425,0.0,0.0,0.0,0.0,0.0,0.0,0.0,0.0,0.0,0.0,0.0,0.0,0.0,0.0,0.0,0.0,0.0,0.0,0.0,0.0,0.0,0.0049729941270522104,-0.005196407879640466,0.010515385657151346,0.0003118932945653796,-0.0022738145198673006,0.0022363495081663136,0.4404008007793441,0.0,0.0,0.0,0.0,0.0,0.0,0.4404008007793442,0.0,0.0,0.0,0.0,0.0,0.0,0.013947078365476132,0.0,0.0,0.0,0.0,0.0,0.0,0.0,0.0,0.0,0.0,0.0,0.0,0.0,0.0,0.0,0.0,0.0,0.0,0.0,0.0,0.0
1713690046882032290,11477,1713690046901168331,uav3/gps_garmin_origin,uav3/fcu,-22.622212570263102,21.408278359812655,0.12548633900016065,0.021979485300895375,-0.027344600362936847,-0.602427442523778,-0.7974022520354198,0.0023016524822190455,0.0,0.0,0.0,0.0,0.0,0.0,0.0023016524822190446,0.0,0.0,0.0,0.0,0.0,0.0,0.03215017088586535,0.0,0.0,0.0,0.0,0.0,0.0,0.0,0.0,0.0,0.0,0.0,0.0,0.0,0.0,0.0,0.0,0.0,0.0,0.0,0.0,0.0,0.004066495812979115,-0.004673791918492641,0.010939231208755512,0.00027831527404487133,-0.0007142472313717005,0.0016731234500184655,0.4404016237955463,0.0,0.0,0.0,0.0,0.0,0.0,0.44040162379554637,0.0,0.0,0.0,0.0,0.0,0.0,0.0070917822250559995,0.0,0.0,0.0,0.0,0.0,0.0,0.0,0.0,0.0,0.0,0.0,0.0,0.0,0.0,0.0,0.0,0.0,0.0,0.0,0.0,0.0
1713690046986254831,11488,1713690047011164975,uav3/gps_garmin_origin,uav3/fcu,-22.6236021241135,21.40876022789543,0.12594308087650347,0.021965481543311356,-0.02732695683122468,-0.6024466000187023,-0.7973887691564387,0.0023010535326951874,0.0,0.0,0.0,0.0,0.0,0.0,0.0023010535326951874,0.0,0.0,0.0,0.0,0.0,0.0,0.03770394506537188,0.0,0.0,0.0,0.0,0.0,0.0,0.0,0.0,0.0,0.0,0.0,0.0,0.0,0.0,0.0,0.0,0.0,0.0,0.0,0.0,0.0,0.003003824006892562,0.0016790504585964992,0.010188266397070855,-1.556823008286301e-05,0.0007550569134764383,0.0076962728053331375,0.44039388223576514,0.0,0.0,0.0,0.0,0.0,0.0,0.4403938822357651,0.0,0.0,0.0,0.0,0.0,0.0,0.0072513742232639235,0.0,0.0,0.0,0.0,0.0,0.0,0.0,0.0,0.0,0.0,0.0,0.0,0.0,0.0,0.0,0.0,0.0,0.0,0.0,0.0,0.0
1713690047100143828,11502,1713690047151226624,uav3/gps_garmin_origin,uav3/fcu,-22.62347229385081,21.4080525085909,0.14037879141376433,0.021997395254186057,-0.02733001100784701,-0.6022959490303286,-0.7975015829965466,0.0023015862628079694,0.0,0.0,0.0,0.0,0.0,0.0,0.002301586262807969,0.0,0.0,0.0,0.0,0.0,0.0,0.03216046284620623,0.0,0.0,0.0,0.0,0.0,0.0,0.0,0.0,0.0,0.0,0.0,0.0,0.0,0.0,0.0,0.0,0.0,0.0,0.0,0.0,0.0,-0.0006364994346375075,-0.0006471867966448281,0.009550864689062107,-0.00035868590930476785,0.0003404056478757402,-0.007349572144448757,0.4404010162598436,0.0,0.0,0.0,0.0,0.0,0.0,0.4404010162598436,0.0,0.0,0.0,0.0,0.0,0.0,0.007263057942057211,0.0,0.0,0.0,0.0,0.0,0.0,0.0,0.0,0.0,0.0,0.0,0.0,0.0,0.0,0.0,0.0,0.0,0.0,0.0,0.0,0.0
1713690047231248244,11514,1713690047271169005,uav3/gps_garmin_origin,uav3/fcu,-22.621511231343984,21.407430395200127,0.12204572458562848,0.021962348982530813,-0.02731136818279263,-0.602254821086393,-0.797534246834172,0.0023017919503506875,0.0,0.0,0.0,0.0,0.0,0.0,0.0023017919503506897,0.0,0.0,0.0,0.0,0.0,0.0,0.0373855911755821,0.0,0.0,0.0,0.0,0.0,0.0,0.0,0.0,0.0,0.0,0.0,0.0,0.0,0.0,0.0,0.0,0.0,0.0,0.0,0.0,0.0,-0.0012208847882445857,-0.007048465198561454,0.008573210977865429,-0.002054397249594331,-6.532827683258834e-05,-0.0027106045745313168,0.44040343079544203,0.0,0.0,0.0,0.0,0.0,0.0,0.44040343079544214,0.0,0.0,0.0,0.0,0.0,0.0,0.00636669021892503,0.0,0.0,0.0,0.0,0.0,0.0,0.0,0.0,0.0,0.0,0.0,0.0,0.0,0.0,0.0,0.0,0.0,0.0,0.0,0.0,0.0
1713690047388318456,11525,1713690047381169701,uav3/gps_garmin_origin,uav3/fcu,-22.62191884354192,21.405483507952027,0.1399266613353784,0.021924878199219337,-0.027326485209561473,-0.6022680452015865,-0.7975247736911381,0.0023010192424118853,0.0,0.0,0.0,0.0,0.0,0.0,0.002301019242411886,0.0,0.0,0.0,0.0,0.0,0.0,0.038357301357464714,0.0,0.0,0.0,0.0,0.0,0.0,0.0,0.0,0.0,0.0,0.0,0.0,0.0,0.0,0.0,0.0,0.0,0.0,0.0,0.0,0.0,-0.007746702477925977,-0.005377035598235011,0.009207852156622535,-0.00015974935377016664,-0.0036021769046783443,0.003993348684161902,0.4403937937162882,0.0,0.0,0.0,0.0,0.0,0.0,0.44039379371628823,0.0,0.0,0.0,0.0,0.0,0.0,0.007262166001982521,0.0,0.0,0.0,0.0,0.0,0.0,0.0,0.0,0.0,0.0,0.0,0.0,0.0,0.0,0.0,0.0,0.0,0.0,0.0,0.0,0.0
1713690047499108411,11538,1713690047511163667,uav3/gps_garmin_origin,uav3/fcu,-22.623057196471915,21.402653411290533,0.12162674202601925,0.021957754574172563,-0.02731889854176885,-0.6022616528875947,-0.7975289563756465,0.0023015805148282682,0.0,0.0,0.0,0.0,0.0,0.0,0.0023015805148282682,0.0,0.0,0.0,0.0,0.0,0.0,0.03838426217574671,0.0,0.0,0.0,0.0,0.0,0.0,0.0,0.0,0.0,0.0,0.0,0.0,0.0,0.0,0.0,0.0,0.0,0.0,0.0,0.0,0.0,-0.014589365732473616,-0.002728564340422133,0.008206719210408605,0.0008082350250333548,-0.0025818098802119493,-0.0003594653971958902,0.4404008153367039,0.0,0.0,0.0,0.0,0.0,0.0,0.44040081533670394,0.0,0.0,0.0,0.0,0.0,0.0,0.016072700521345875,0.0,0.0,0.0,0.0,0.0,0.0,0.0,0.0,0.0,0.0,0.0,0.0,0.0,0.0,0.0,0.0,0.0,0.0,0.0,0.0,0.0
1713690047579055480,11549,1713690047621170580,uav3/gps_garmin_origin,uav3/fcu,-22.621384584997745,21.40293704082634,0.12579106696309855,0.02190801514679693,-0.027329901372292763,-0.6022424776854837,-0.7975444272481365,0.002300706697751863,0.0,0.0,0.0,0.0,0.0,0.0,0.002300706697751865,0.0,0.0,0.0,0.0,0.0,0.0,0.028440546853840645,0.0,0.0,0.0,0.0,0.0,0.0,0.0,0.0,0.0,0.0,0.0,0.0,0.0,0.0,0.0,0.0,0.0,0.0,0.0,0.0,0.0,-0.008604870779369384,-0.006617583687609637,0.01018635479018712,-0.00014686433132737875,-0.0003337418893352157,-0.004879732616245747,0.44038876796646803,0.0,0.0,0.0,0.0,0.0,0.0,0.44038876796646803,0.0,0.0,0.0,0.0,0.0,0.0,0.016132641042986992,0.0,0.0,0.0,0.0,0.0,0.0,0.0,0.0,0.0,0.0,0.0,0.0,0.0,0.0,0.0,0.0,0.0,0.0,0.0,0.0,0.0
1713690047699512020,11561,1713690047741167763,uav3/gps_garmin_origin,uav3/fcu,-22.6196117577674,21.403606258256346,0.1335334322243837,0.021971227834136582,-0.027341079673742018,-0.6022403807870111,-0.7975438886100567,0.0022894716266634823,0.0,0.0,0.0,0.0,0.0,0.0,0.0022894716266634836,0.0,0.0,0.0,0.0,0.0,0.0,0.02973629729728113,0.0,0.0,0.0,0.0,0.0,0.0,0.0,0.0,0.0,0.0,0.0,0.0,0.0,0.0,0.0,0.0,0.0,0.0,0.0,0.0,0.0,-0.002264669649071356,-0.00791853241168666,0.0114804449979641,-0.003282902529463172,0.0028690474573522806,-0.0011981711722910409,0.4103936168607551,0.0,0.0,0.0,0.0,0.0,0.0,0.41039361686075515,0.0,0.0,0.0,0.0,0.0,0.0,0.014227140952685272,0.0,0.0,0.0,0.0,0.0,0.0,0.0,0.0,0.0,0.0,0.0,0.0,0.0,0.0,0.0,0.0,0.0,0.0,0.0,0.0,0.0
1713690047832204588,11573,1713690047861169804,uav3/gps_garmin_origin,uav3/fcu,-22.618519380143507,21.40389993364025,0.13340648017528206,0.02192363110128948,-0.027359214477741887,-0.6021889306050728,-0.7975834248774321,0.0022662619255027524,0.0,0.0,0.0,0.0,0.0,0.0,0.002266261925502752,0.0,0.0,0.0,0.0,0.0,0.0,0.03725447053839037,0.0,0.0,0.0,0.0,0.0,0.0,0.0,0.0,0.0,0.0,0.0,0.0,0.0,0.0,0.0,0.0,0.0,0.0,0.0,0.0,0.0,5.540936003261166e-05,-0.006271877540837645,0.011867200470595805,0.002945107175037265,0.0017174751264974473,-0.0021420943085104227,0.3774965768674984,0.0,0.0,0.0,0.0,0.0,0.0,0.3774965768674984,0.0,0.0,0.0,0.0,0.0,0.0,0.014214857439959311,0.0,0.0,0.0,0.0,0.0,0.0,0.0,0.0,0.0,0.0,0.0,0.0,0.0,0.0,0.0,0.0,0.0,0.0,0.0,0.0,0.0
1713690047935241017,11586,1713690047991169242,uav3/gps_garmin_origin,uav3/fcu,-22.617018396646927,21.402934938872022,0.1468399549395445,0.021914274303842154,-0.02737790466934152,-0.6021938674657024,-0.7975793132374688,0.002250213005013101,0.0,0.0,0.0,0.0,0.0,0.0,0.0022502130050131,0.0,0.0,0.0,0.0,0.0,0.0,0.037265852436936475,0.0,0.0,0.0,0.0,0.0,0.0,0.0,0.0,0.0,0.0,0.0,0.0,0.0,0.0,0.0,0.0,0.0,0.0,0.0,0.0,0.0,-0.002022777015290601,-0.006889606070790456,0.012707470746500039,-0.0026510991156101227,0.0008265025098808112,0.0015536057762801647,0.35770773242751674,0.0,0.0,0.0,0.0,0.0,0.0,0.3577077324275167,0.0,0.0,0.0,0.0,0.0,0.0,0.013946852779644997,0.0,0.0,0.0,0.0,0.0,0.0,0.0,0.0,0.0,0.0,0.0,0.0,0.0,0.0,0.0,0.0,0.0,0.0,0.0,0.0,0.0
1713690048127125119,11598,1713690048111169121,uav3/gps_garmin_origin,uav3/fcu,-22.61614712297622,21.40217325389214,0.1416604544479492,0.02199728912520979,-0.027333856538004735,-0.60210149581161,-0.7976482735512711,0.0022415980253029906,0.0,0.0,0.0,0.0,0.0,0.0,0.0022415980253029924,0.0,0.0,0.0,0.0,0.0,0.0,0.03722600593747962,0.0,0.0,0.0,0.0,0.0,0.0,0.0,0.0,0.0,0.0,0.0,0.0,0.0,0.0,0.0,0.0,0.0,0.0,0.0,0.0,0.0,-0.0026541000820899307,-0.005631460504901165,0.011824908421562667,-0.003842828795313835,-0.00229258113540709,-0.0013642349513247607,0.34897778757714243,0.0,0.0,0.0,0.0,0.0,0.0,0.34897778757714243,0.0,0.0,0.0,0.0,0.0,0.0,0.01616532846111249,0.0,0.0,0.0,0.0,0.0,0.0,0.0,0.0,0.0,0.0,0.0,0.0,0.0,0.0,0.0,0.0,0.0,0.0,0.0,0.0,0.0
1713690048184857870,11609,1713690048221171953,uav3/gps_garmin_origin,uav3/fcu,-22.61630795892233,21.403277615938354,0.15149824193478117,0.02163450047606725,-0.02706781146341048,-0.6022156073737357,-0.7975811207690505,0.002238814595015957,0.0,0.0,0.0,0.0,0.0,0.0,0.0022388145950159566,0.0,0.0,0.0,0.0,0.0,0.0,0.03839247405114631,0.0,0.0,0.0,0.0,0.0,0.0,0.0,0.0,0.0,0.0,0.0,0.0,0.0,0.0,0.0,0.0,0.0,0.0,0.0,0.0,0.0,0.0005153693242045229,-0.0011228126895586367,0.01830411924733338,-0.010971592739224434,-0.015910640358924866,-0.010004508309066294,0.3450899850362546,0.0,0.0,0.0,0.0,0.0,0.0,0.3450899850362546,0.0,0.0,0.0,0.0,0.0,0.0,0.0072177493529816655,0.0,0.0,0.0,0.0,0.0,0.0,0.0,0.0,0.0,0.0,0.0,0.0,0.0,0.0,0.0,0.0,0.0,0.0,0.0,0.0,0.0
1713690048331299584,11621,1713690048341168912,uav3/gps_garmin_origin,uav3/fcu,-22.616108838412977,21.403816602132217,0.1405051711731479,0.020901026230625227,-0.026404947317939832,-0.6025084802736346,-0.7974016911557178,0.002236305223062555,0.0,0.0,0.0,0.0,0.0,0.0,0.0022363052230625546,0.0,0.0,0.0,0.0,0.0,0.0,0.027728824311130582,0.0,0.0,0.0,0.0,0.0,0.0,0.0,0.0,0.0,0.0,0.0,0.0,0.0,0.0,0.0,0.0,0.0,0.0,0.0,0.0,0.0,9.96273522272861e-05,-6.055870874548855e-05,0.03504375857479613,0.014888396486639977,-0.07211340963840485,0.010515079833567151,0.3430268306871615,0.0,0.0,0.0,0.0,0.0,0.0,0.34302683068716155,0.0,0.0,0.0,0.0,0.0,0.0,0.007214546551327938,0.0,0.0,0.0,0.0,0.0,0.0,0.0,0.0,0.0,0.0,0.0,0.0,0.0,0.0,0.0,0.0,0.0,0.0,0.0,0.0,0.0
1713690048740342452,11633,1713690048461175052,uav3/gps_garmin_origin,uav3/fcu,-22.6171076581187,21.40236355032982,0.1344324300188475,0.017558318444558255,-0.020586694159540012,-0.6032482012895617,-0.7970944116714717,0.0022356501078977815,0.0,0.0,0.0,0.0,0.0,0.0,0.002235650107897781,0.0,0.0,0.0,0.0,0.0,0.0,0.02842276402091577,0.0,0.0,0.0,0.0,0.0,0.0,0.0,0.0,0.0,0.0,0.0,0.0,0.0,0.0,0.0,0.0,0.0,0.0,0.0,0.0,0.0,-0.005419082872457803,0.0017120766256596362,0.04512025998417466,0.017136581242084503,-0.14958375692367554,0.05048995465040209,0.3420709122698869,0.0,0.0,0.0,0.0,0.0,0.0,0.34207091226988695,0.0,0.0,0.0,0.0,0.0,0.0,0.01586860611151596,0.0,0.0,0.0,0.0,0.0,0.0,0.0,0.0,0.0,0.0,0.0,0.0,0.0,0.0,0.0,0.0,0.0,0.0,0.0,0.0,0.0
1713690048754254022,11645,1713690048581172749,uav3/gps_garmin_origin,uav3/fcu,-22.61798995760228,21.39683356376872,0.12915189919483738,0.012835752272587021,-0.013572131512548038,-0.6050811623710655,-0.7959446134332986,0.0022335942702195717,0.0,0.0,0.0,0.0,0.0,0.0,0.002233594270219572,0.0,0.0,0.0,0.0,0.0,0.0,0.032068193726853274,0.0,0.0,0.0,0.0,0.0,0.0,0.0,0.0,0.0,0.0,0.0,0.0,0.0,0.0,0.0,0.0,0.0,0.0,0.0,0.0,0.0,-0.016948377387724534,-0.0009533668216319595,0.037860619352903496,-0.016410809010267258,-0.12890851497650146,0.0013903313083574334,0.3416124830139882,0.0,0.0,0.0,0.0,0.0,0.0,0.34161248301398817,0.0,0.0,0.0,0.0,0.0,0.0,0.015766233573414307,0.0,0.0,0.0,0.0,0.0,0.0,0.0,0.0,0.0,0.0,0.0,0.0,0.0,0.0,0.0,0.0,0.0,0.0,0.0,0.0,0.0
1713690048775850125,11657,1713690048701168163,uav3/gps_garmin_origin,uav3/fcu,-22.619442089158078,21.391025852598283,0.13978012260216824,0.007676221487597979,-0.0051048390367397735,-0.6067809907978448,-0.7948156046835443,0.0022349029878074383,0.0,0.0,0.0,0.0,0.0,0.0,0.002234902987807437,0.0,0.0,0.0,0.0,0.0,0.0,0.03230120704868422,0.0,0.0,0.0,0.0,0.0,0.0,0.0,0.0,0.0,0.0,0.0,0.0,0.0,0.0,0.0,0.0,0.0,0.0,0.0,0.0,0.0,-0.02312640892846462,-0.0010499648401288998,0.04811005322515858,-0.0136798694729805,-0.15230792760849,0.06231171637773516,0.34141835478672067,0.0,0.0,0.0,0.0,0.0,0.0,0.34141835478672067,0.0,0.0,0.0,0.0,0.0,0.0,0.006324418100843841,0.0,0.0,0.0,0.0,0.0,0.0,0.0,0.0,0.0,0.0,0.0,0.0,0.0,0.0,0.0,0.0,0.0,0.0,0.0,0.0,0.0
1713690048941211222,11669,1713690048821170245,uav3/gps_garmin_origin,uav3/fcu,-22.621234077038316,21.387122951322162,0.14437502487663062,0.0026039022332764164,0.004734383080440414,-0.6096818721778017,-0.792627794142861,0.0022340461608276008,0.0,0.0,0.0,0.0,0.0,0.0,0.002234046160827601,0.0,0.0,0.0,0.0,0.0,0.0,0.03755002726118309,0.0,0.0,0.0,0.0,0.0,0.0,0.0,0.0,0.0,0.0,0.0,0.0,0.0,0.0,0.0,0.0,0.0,0.0,0.0,0.0,0.0,-0.019796162040769373,0.001155188852798471,0.056411654218622403,-0.04169575497508049,-0.1582571119070053,0.059655971825122854,0.3413158437283676,0.0,0.0,0.0,0.0,0.0,0.0,0.3413158437283676,0.0,0.0,0.0,0.0,0.0,0.0,0.007217544937690789,0.0,0.0,0.0,0.0,0.0,0.0,0.0,0.0,0.0,0.0,0.0,0.0,0.0,0.0,0.0,0.0,0.0,0.0,0.0,0.0,0.0
1713690048949939799,11681,1713690048941168331,uav3/gps_garmin_origin,uav3/fcu,-22.622848175302277,21.383397418121678,0.14856001622430157,-0.0018994684229139208,0.012693019770333288,-0.6127601273547155,-0.7901647332000163,0.0022344222921862177,0.0,0.0,0.0,0.0,0.0,0.0,0.002234422292186218,0.0,0.0,0.0,0.0,0.0,0.0,0.03740323882236527,0.0,0.0,0.0,0.0,0.0,0.0,0.0,0.0,0.0,0.0,0.0,0.0,0.0,0.0,0.0,0.0,0.0,0.0,0.0,0.0,0.0,-0.016376210578936515,0.0023445433187111266,0.02573534563392891,-0.027162862941622734,-0.1272178292274475,0.04591620340943338,0.341275632787524,0.0,0.0,0.0,0.0,0.0,0.0,0.34127563278752404,0.0,0.0,0.0,0.0,0.0,0.0,0.015844124208862664,0.0,0.0,0.0,0.0,0.0,0.0,0.0,0.0,0.0,0.0,0.0,0.0,0.0,0.0,0.0,0.0,0.0,0.0,0.0,0.0,0.0
1713690049090986448,11693,1713690049061169173,uav3/gps_garmin_origin,uav3/fcu,-22.623124026780104,21.380145760049956,0.1524773938332459,-0.004073609387813532,0.01975853927014058,-0.6127264828928961,-0.7900375073337769,0.00223468032959251,0.0,0.0,0.0,0.0,0.0,0.0,0.0022346803295925106,0.0,0.0,0.0,0.0,0.0,0.0,0.03844374846467654,0.0,0.0,0.0,0.0,0.0,0.0,0.0,0.0,0.0,0.0,0.0,0.0,0.0,0.0,0.0,0.0,0.0,0.0,0.0,0.0,0.0,-0.010391514075389411,-0.0013256850371434162,0.06247162053232433,-0.06726620346307755,-0.11793551594018936,-0.00530388997867702,0.341256599506926,0.0,0.0,0.0,0.0,0.0,0.0,0.34125659950692594,0.0,0.0,0.0,0.0,0.0,0.0,0.01394853460913878,0.0,0.0,0.0,0.0,0.0,0.0,0.0,0.0,0.0,0.0,0.0,0.0,0.0,0.0,0.0,0.0,0.0,0.0,0.0,0.0,0.0
1713690049195068370,11705,1713690049181169441,uav3/gps_garmin_origin,uav3/fcu,-22.625108341886357,21.376429646890916,0.1658205156159408,-0.003200744490119194,0.02615319970236421,-0.6139923008872724,-0.7888721188070917,0.0022336271299289796,0.0,0.0,0.0,0.0,0.0,0.0,0.0022336271299289783,0.0,0.0,0.0,0.0,0.0,0.0,0.027743163461296003,0.0,0.0,0.0,0.0,0.0,0.0,0.0,0.0,0.0,0.0,0.0,0.0,0.0,0.0,0.0,0.0,0.0,0.0,0.0,0.0,0.0,-0.008828524762781094,0.0006121193371576756,0.06869291974478993,-0.04128698632121086,-0.0057668606750667,0.0798109769821167,0.3412381513501474,0.0,0.0,0.0,0.0,0.0,0.0,0.3412381513501474,0.0,0.0,0.0,0.0,0.0,0.0,0.0072141537615082445,0.0,0.0,0.0,0.0,0.0,0.0,0.0,0.0,0.0,0.0,0.0,0.0,0.0,0.0,0.0,0.0,0.0,0.0,0.0,0.0,0.0
1713690049887737043,11718,1713690049311233834,uav3/gps_garmin_origin,uav3/fcu,-22.631652248062448,21.37178739710406,0.1124499798442143,-0.005886051400145499,0.02354329899811854,-0.6181031272105209,-0.7857223374728343,0.0022347376555883008,0.0,0.0,0.0,0.0,0.0,0.0,0.0022347376555883,0.0,0.0,0.0,0.0,0.0,0.0,0.028377807906548324,0.0,0.0,0.0,0.0,0.0,0.0,0.0,0.0,0.0,0.0,0.0,0.0,0.0,0.0,0.0,0.0,0.0,0.0,0.0,0.0,0.0,-0.010928508306711639,0.013018772897865767,0.07335735873249072,0.01132707204669714,0.051731321960687644,0.06993138790130615,0.34124299042254014,0.0,0.0,0.0,0.0,0.0,0.0,0.34124299042254014,0.0,0.0,0.0,0.0,0.0,0.0,0.015917267541539066,0.0,0.0,0.0,0.0,0.0,0.0,0.0,0.0,0.0,0.0,0.0,0.0,0.0,0.0,0.0,0.0,0.0,0.0,0.0,0.0,0.0
1713690049958715802,11730,1713690049431169931,uav3/gps_garmin_origin,uav3/fcu,-22.64069095264471,21.368217970022904,0.14100690477935426,-0.0030211540028192273,0.017077486895789723,-0.623064347129646,-0.781978293436412,0.0022345507072921273,0.0,0.0,0.0,0.0,0.0,0.0,0.0022345507072921273,0.0,0.0,0.0,0.0,0.0,0.0,0.0296005013118099,0.0,0.0,0.0,0.0,0.0,0.0,0.0,0.0,0.0,0.0,0.0,0.0,0.0,0.0,0.0,0.0,0.0,0.0,0.0,0.0,0.0,-0.009723274120567976,0.024428249123227913,0.15033327389263862,0.16675367951393127,0.1263404339551926,0.14223682880401609,0.34123948187197034,0.0,0.0,0.0,0.0,0.0,0.0,0.34123948187197023,0.0,0.0,0.0,0.0,0.0,0.0,0.007214601220006898,0.0,0.0,0.0,0.0,0.0,0.0,0.0,0.0,0.0,0.0,0.0,0.0,0.0,0.0,0.0,0.0,0.0,0.0,0.0,0.0,0.0
1713690050049730077,11741,1713690049541169677,uav3/gps_garmin_origin,uav3/fcu,-22.64790302208352,21.363937972269888,0.1838021728794447,-0.0030390485893599896,0.004388388766682651,-0.6309812233940919,-0.7757797380389612,0.0022343957161644816,0.0,0.0,0.0,0.0,0.0,0.0,0.0022343957161644807,0.0,0.0,0.0,0.0,0.0,0.0,0.03713540344519697,0.0,0.0,0.0,0.0,0.0,0.0,0.0,0.0,0.0,0.0,0.0,0.0,0.0,0.0,0.0,0.0,0.0,0.0,0.0,0.0,0.0,-0.012950873811634369,0.0284780758192954,0.18187830918881756,-0.013126731850206852,0.2079371511936188,0.22397410869598386,0.3412378770993102,0.0,0.0,0.0,0.0,0.0,0.0,0.3412378770993102,0.0,0.0,0.0,0.0,0.0,0.0,0.015879289863501993,0.0,0.0,0.0,0.0,0.0,0.0,0.0,0.0,0.0,0.0,0.0,0.0,0.0,0.0,0.0,0.0,0.0,0.0,0.0,0.0,0.0
1713690050059074152,11753,1713690049661171432,uav3/gps_garmin_origin,uav3/fcu,-22.655289722273228,21.360304680869813,0.22576911771237698,-0.0004966233227400856,-0.0038038817405421184,-0.6402616569239769,-0.7681473130343834,0.0022351553731596676,0.0,0.0,0.0,0.0,0.0,0.0,0.002235155373159667,0.0,0.0,0.0,0.0,0.0,0.0,0.03727892006220403,0.0,0.0,0.0,0.0,0.0,0.0,0.0,0.0,0.0,0.0,0.0,0.0,0.0,0.0,0.0,0.0,0.0,0.0,0.0,0.0,0.0,-0.012264745427559568,0.02837465176820303,0.18580507042441943,0.16994374990463257,0.011263525113463423,0.16929711401462555,0.3412430314245441,0.0,0.0,0.0,0.0,0.0,0.0,0.34124303142454415,0.0,0.0,0.0,0.0,0.0,0.0,0.016252045795976867,0.0,0.0,0.0,0.0,0.0,0.0,0.0,0.0,0.0,0.0,0.0,0.0,0.0,0.0,0.0,0.0,0.0,0.0,0.0,0.0,0.0
1713690050116206259,11765,1713690049781170366,uav3/gps_garmin_origin,uav3/fcu,-22.66359568496431,21.359145389593106,0.2610390580045369,-0.002734144877817316,-0.004694403312106656,-0.6464779134487816,-0.762913359728508,0.002234148899782486,0.0,0.0,0.0,0.0,0.0,0.0,0.0022341488997824855,0.0,0.0,0.0,0.0,0.0,0.0,0.03772126360613544,0.0,0.0,0.0,0.0,0.0,0.0,0.0,0.0,0.0,0.0,0.0,0.0,0.0,0.0,0.0,0.0,0.0,0.0,0.0,0.0,0.0,-0.003160130837067662,0.03083278743070144,0.21148540324166054,-0.15099747478961945,-0.0760383978486061,0.09723129123449327,0.3412347946390845,0.0,0.0,0.0,0.0,0.0,0.0,0.3412347946390846,0.0,0.0,0.0,0.0,0.0,0.0,0.016143057323035913,0.0,0.0,0.0,0.0,0.0,0.0,0.0,0.0,0.0,0.0,0.0,0.0,0.0,0.0,0.0,0.0,0.0,0.0,0.0,0.0,0.0
1713690050136742064,11777,1713690049901170985,uav3/gps_garmin_origin,uav3/fcu,-22.6717738708448,21.358286803102647,0.3037654233231075,-0.0029445531002079057,-0.00539619537625609,-0.6505795024657255,-0.759413274610044,0.00223487344934777,0.0,0.0,0.0,0.0,0.0,0.0,0.002234873449347771,0.0,0.0,0.0,0.0,0.0,0.0,0.038263573672272,0.0,0.0,0.0,0.0,0.0,0.0,0.0,0.0,0.0,0.0,0.0,0.0,0.0,0.0,0.0,0.0,0.0,0.0,0.0,0.0,0.0,0.00300235385961806,0.03002664228330079,0.2006872542787133,0.030071856454014778,0.15981879830360413,0.11159703135490416,0.34124073963381835,0.0,0.0,0.0,0.0,0.0,0.0,0.3412407396338184,0.0,0.0,0.0,0.0,0.0,0.0,0.01574964858946675,0.0,0.0,0.0,0.0,0.0,0.0,0.0,0.0,0.0,0.0,0.0,0.0,0.0,0.0,0.0,0.0,0.0,0.0,0.0,0.0,0.0
1713690050299426343,11789,1713690050021170947,uav3/gps_garmin_origin,uav3/fcu,-22.679593310646222,21.360253201726383,0.30718969259305157,0.0005224369061084389,-0.007361126402997504,-0.6545580934011029,-0.7559756895832503,0.002234829786851837,0.0,0.0,0.0,0.0,0.0,0.0,0.002234829786851838,0.0,0.0,0.0,0.0,0.0,0.0,0.038482707188191925,0.0,0.0,0.0,0.0,0.0,0.0,0.0,0.0,0.0,0.0,0.0,0.0,0.0,0.0,0.0,0.0,0.0,0.0,0.0,0.0,0.0,0.011116870044821852,0.028275062451520592,0.2593339056327859,0.03073294833302498,-0.13934391736984253,0.06371886283159257,0.34124018974720305,0.0,0.0,0.0,0.0,0.0,0.0,0.341240189747203,0.0,0.0,0.0,0.0,0.0,0.0,0.007223075907391635,0.0,0.0,0.0,0.0,0.0,0.0,0.0,0.0,0.0,0.0,0.0,0.0,0.0,0.0,0.0,0.0,0.0,0.0,0.0,0.0,0.0
1713690050299459852,11802,1713690050151168711,uav3/gps_garmin_origin,uav3/fcu,-22.68904883200006,21.361489047462292,0.37075426391169125,-0.004691765349311217,-0.003283890856108422,-0.6571136819407336,-0.7537697343387066,0.0022370798219847683,0.0,0.0,0.0,0.0,0.0,0.0,0.002237079821984768,0.0,0.0,0.0,0.0,0.0,0.0,0.038467368696256984,0.0,0.0,0.0,0.0,0.0,0.0,0.0,0.0,0.0,0.0,0.0,0.0,0.0,0.0,0.0,0.0,0.0,0.0,0.0,0.0,0.0,0.017828861763811495,0.028494511359889296,0.2718502472262771,-0.06621487438678741,-0.022406633943319314,0.058136194944381714,0.3412586611957177,0.0,0.0,0.0,0.0,0.0,0.0,0.3412586611957176,0.0,0.0,0.0,0.0,0.0,0.0,0.016214473835015307,0.0,0.0,0.0,0.0,0.0,0.0,0.0,0.0,0.0,0.0,0.0,0.0,0.0,0.0,0.0,0.0,0.0,0.0,0.0,0.0,0.0
1713690050299485679,11813,1713690050261169361,uav3/gps_garmin_origin,uav3/fcu,-22.699099859050705,21.36126469546906,0.41264075958097296,-0.0054505616788087475,-0.0002705544485798955,-0.6596174518359043,-0.7515816891138212,0.0022348823391647376,0.0,0.0,0.0,0.0,0.0,0.0,0.002234882339164738,0.0,0.0,0.0,0.0,0.0,0.0,0.03218169088862997,0.0,0.0,0.0,0.0,0.0,0.0,0.0,0.0,0.0,0.0,0.0,0.0,0.0,0.0,0.0,0.0,0.0,0.0,0.0,0.0,0.0,0.016921484569881233,0.030997050173985654,0.31318292875659676,0.09904512017965317,-0.04358761385083198,0.03503405302762986,0.34124051392418725,0.0,0.0,0.0,0.0,0.0,0.0,0.3412405139241872,0.0,0.0,0.0,0.0,0.0,0.0,0.016208683045167992,0.0,0.0,0.0,0.0,0.0,0.0,0.0,0.0,0.0,0.0,0.0,0.0,0.0,0.0,0.0,0.0,0.0,0.0,0.0,0.0,0.0
1713690050432083460,11825,1713690050381169433,uav3/gps_garmin_origin,uav3/fcu,-22.713139450180027,21.358325530656,0.43510823032726476,-0.005135231679347026,-0.005281157004587303,-0.6602288785647448,-0.7510283394689125,0.002233771507494422,0.0,0.0,0.0,0.0,0.0,0.0,0.002233771507494422,0.0,0.0,0.0,0.0,0.0,0.0,0.032144586473557446,0.0,0.0,0.0,0.0,0.0,0.0,0.0,0.0,0.0,0.0,0.0,0.0,0.0,0.0,0.0,0.0,0.0,0.0,0.0,0.0,0.0,0.005077587187908958,0.04097822609269268,0.3921341933836222,0.0268443301320076,0.03132445737719536,-0.004132844507694248,0.34123107561376737,0.0,0.0,0.0,0.0,0.0,0.0,0.34123107561376737,0.0,0.0,0.0,0.0,0.0,0.0,0.007209864752494538,0.0,0.0,0.0,0.0,0.0,0.0,0.0,0.0,0.0,0.0,0.0,0.0,0.0,0.0,0.0,0.0,0.0,0.0,0.0,0.0,0.0
1713690050646012086,11837,1713690050501174015,uav3/gps_garmin_origin,uav3/fcu,-22.72966881670177,21.352888066986313,0.49114637817638185,-0.006100819554298595,-0.0028494610480316426,-0.6586716965747963,-0.7524003300795268,0.0022344264100005937,0.0,0.0,0.0,0.0,0.0,0.0,0.0022344264100005945,0.0,0.0,0.0,0.0,0.0,0.0,0.037685297377616125,0.0,0.0,0.0,0.0,0.0,0.0,0.0,0.0,0.0,0.0,0.0,0.0,0.0,0.0,0.0,0.0,0.0,0.0,0.0,0.0,0.0,-0.003918911892920376,0.04740034476281308,0.40953435803099913,-0.02440638840198517,0.002786250086501235,-0.04628417640924454,0.3412375200164914,0.0,0.0,0.0,0.0,0.0,0.0,0.34123752001649144,0.0,0.0,0.0,0.0,0.0,0.0,0.015816257022097907,0.0,0.0,0.0,0.0,0.0,0.0,0.0,0.0,0.0,0.0,0.0,0.0,0.0,0.0,0.0,0.0,0.0,0.0,0.0,0.0,0.0
1713690050659103244,11849,1713690050621170299,uav3/gps_garmin_origin,uav3/fcu,-22.749270679375694,21.348274574552125,0.5344863150321566,-0.005735708850059448,-0.004051513898851826,-0.6556522107676385,-0.7550303738225523,0.0022347597157200477,0.0,0.0,0.0,0.0,0.0,0.0,0.0022347597157200477,0.0,0.0,0.0,0.0,0.0,0.0,0.037807171681148395,0.0,0.0,0.0,0.0,0.0,0.0,0.0,0.0,0.0,0.0,0.0,0.0,0.0,0.0,0.0,0.0,0.0,0.0,0.0,0.0,0.0,-0.008981895583998818,0.05638269982711436,0.40966215881599105,0.04512671381235123,0.0006232203450053823,-0.08790156245231628,0.34123944740166967,0.0,0.0,0.0,0.0,0.0,0.0,0.3412394474016698,0.0,0.0,0.0,0.0,0.0,0.0,0.014276102028969062,0.0,0.0,0.0,0.0,0.0,0.0,0.0,0.0,0.0,0.0,0.0,0.0,0.0,0.0,0.0,0.0,0.0,0.0,0.0,0.0,0.0
1713690050712504031,11862,1713690050751171359,uav3/gps_garmin_origin,uav3/fcu,-22.773423637105868,21.339151803445287,0.6018118517675148,-0.008810138313290888,-0.005983478868540887,-0.6516465928654924,-0.7584479530266562,0.00223702665630496,0.0,0.0,0.0,0.0,0.0,0.0,0.0022370266563049596,0.0,0.0,0.0,0.0,0.0,0.0,0.03746705466175013,0.0,0.0,0.0,0.0,0.0,0.0,0.0,0.0,0.0,0.0,0.0,0.0,0.0,0.0,0.0,0.0,0.0,0.0,0.0,0.0,0.0,-0.01952804923721588,0.06628350328499019,0.4411643287988411,0.10965681076049805,0.008141109719872468,-0.0600794218480587,0.34125832648155124,0.0,0.0,0.0,0.0,0.0,0.0,0.3412583264815513,0.0,0.0,0.0,0.0,0.0,0.0,0.015942741206241243,0.0,0.0,0.0,0.0,0.0,0.0,0.0,0.0,0.0,0.0,0.0,0.0,0.0,0.0,0.0,0.0,0.0,0.0,0.0,0.0,0.0
1713690050875497418,11873,1713690050861171829,uav3/gps_garmin_origin,uav3/fcu,-22.79550295909336,21.329056542558316,0.6670528489411048,-0.011144632033442852,-0.0094487345512188,-0.6511895733248801,-0.7587744448682889,0.002234886754744967,0.0,0.0,0.0,0.0,0.0,0.0,0.002234886754744967,0.0,0.0,0.0,0.0,0.0,0.0,0.03960222537014283,0.0,0.0,0.0,0.0,0.0,0.0,0.0,0.0,0.0,0.0,0.0,0.0,0.0,0.0,0.0,0.0,0.0,0.0,0.0,0.0,0.0,-0.02999486508091805,0.07303670778143036,0.47041006381656697,0.015512132085859776,0.0562589354813099,0.03789084404706954,0.3412406644664087,0.0,0.0,0.0,0.0,0.0,0.0,0.34124066446640877,0.0,0.0,0.0,0.0,0.0,0.0,0.0072141230796991165,0.0,0.0,0.0,0.0,0.0,0.0,0.0,0.0,0.0,0.0,0.0,0.0,0.0,0.0,0.0,0.0,0.0,0.0,0.0,0.0,0.0
1713690050982252223,11886,1713690050991169393,uav3/gps_garmin_origin,uav3/fcu,-22.827162607488333,21.316900260714704,0.7172541176899901,-0.011631647139785525,-0.014685904489717232,-0.6547054195889709,-0.7556519321453257,0.0022371695168552637,0.0,0.0,0.0,0.0,0.0,0.0,0.002237169516855265,0.0,0.0,0.0,0.0,0.0,0.0,0.03959703887183942,0.0,0.0,0.0,0.0,0.0,0.0,0.0,0.0,0.0,0.0,0.0,0.0,0.0,0.0,0.0,0.0,0.0,0.0,0.0,0.0,0.0,-0.037488335828633916,0.08640888232958015,0.439876746968882,0.11539836972951889,0.05232088640332223,0.08225835859775543,0.34125885553968954,0.0,0.0,0.0,0.0,0.0,0.0,0.3412588555396895,0.0,0.0,0.0,0.0,0.0,0.0,0.007213985294599825,0.0,0.0,0.0,0.0,0.0,0.0,0.0,0.0,0.0,0.0,0.0,0.0,0.0,0.0,0.0,0.0,0.0,0.0,0.0,0.0,0.0
1713690051213939529,11897,1713690051101170210,uav3/gps_garmin_origin,uav3/fcu,-22.854177249211652,21.302981634891758,0.7289887312567891,-0.015152759688983487,-0.020414879897589257,-0.6583831032572973,-0.7522534917817701,0.002234613580333294,0.0,0.0,0.0,0.0,0.0,0.0,0.002234613580333293,0.0,0.0,0.0,0.0,0.0,0.0,0.02967732693290282,0.0,0.0,0.0,0.0,0.0,0.0,0.0,0.0,0.0,0.0,0.0,0.0,0.0,0.0,0.0,0.0,0.0,0.0,0.0,0.0,0.0,-0.04695035955051374,0.09193202405228273,0.4385271387373051,0.09977222234010696,0.08147943764925004,0.09920806437730788,0.3412386356581365,0.0,0.0,0.0,0.0,0.0,0.0,0.3412386356581365,0.0,0.0,0.0,0.0,0.0,0.0,0.006325687875541107,0.0,0.0,0.0,0.0,0.0,0.0,0.0,0.0,0.0,0.0,0.0,0.0,0.0,0.0,0.0,0.0,0.0,0.0,0.0,0.0,0.0
1713690051267781103,11909,1713690051221171243,uav3/gps_garmin_origin,uav3/fcu,-22.88361926230683,21.285911370482417,0.7956202481767676,-0.014368207031130727,-0.024567902817385086,-0.662618770647044,-0.7484158854300638,0.0022347361505704855,0.0,0.0,0.0,0.0,0.0,0.0,0.002234736150570487,0.0,0.0,0.0,0.0,0.0,0.0,0.03215750720647455,0.0,0.0,0.0,0.0,0.0,0.0,0.0,0.0,0.0,0.0,0.0,0.0,0.0,0.0,0.0,0.0,0.0,0.0,0.0,0.0,0.0,-0.05672824799894895,0.0902294134613255,0.4814746927646253,0.030888989567756653,0.028626721352338805,0.10006082057952881,0.3412393771555319,0.0,0.0,0.0,0.0,0.0,0.0,0.3412393771555319,0.0,0.0,0.0,0.0,0.0,0.0,0.00721512909225265,0.0,0.0,0.0,0.0,0.0,0.0,0.0,0.0,0.0,0.0,0.0,0.0,0.0,0.0,0.0,0.0,0.0,0.0,0.0,0.0,0.0
1713690051313493439,11922,1713690051351169589,uav3/gps_garmin_origin,uav3/fcu,-22.913184243252353,21.264258645360506,0.8586265015590001,-0.014963244901333746,-0.028705189636224916,-0.6660607968698983,-0.7451946915155845,0.002234569340984956,0.0,0.0,0.0,0.0,0.0,0.0,0.0022345693409849547,0.0,0.0,0.0,0.0,0.0,0.0,0.03215809808063021,0.0,0.0,0.0,0.0,0.0,0.0,0.0,0.0,0.0,0.0,0.0,0.0,0.0,0.0,0.0,0.0,0.0,0.0,0.0,0.0,0.0,-0.06573779950322436,0.07921545839978901,0.498041251059415,0.04008514806628227,0.051701944321393974,0.05951359122991561,0.3412382406797664,0.0,0.0,0.0,0.0,0.0,0.0,0.3412382406797664,0.0,0.0,0.0,0.0,0.0,0.0,0.007050113839434036,0.0,0.0,0.0,0.0,0.0,0.0,0.0,0.0,0.0,0.0,0.0,0.0,0.0,0.0,0.0,0.0,0.0,0.0,0.0,0.0,0.0
1713690051439943965,11933,1713690051461174744,uav3/gps_garmin_origin,uav3/fcu,-22.936445786420162,21.243949558667,0.9212533352645939,-0.01297909145737335,-0.03273003449781697,-0.6684138936580596,-0.7429556883095956,0.0022351442419479743,0.0,0.0,0.0,0.0,0.0,0.0,0.0022351442419479748,0.0,0.0,0.0,0.0,0.0,0.0,0.037733464080589946,0.0,0.0,0.0,0.0,0.0,0.0,0.0,0.0,0.0,0.0,0.0,0.0,0.0,0.0,0.0,0.0,0.0,0.0,0.0,0.0,0.0,-0.07268519203294403,0.063180128068921,0.4792100143852754,-0.007744631730020046,0.06330837309360504,0.04985986277461051,0.34124294774134006,0.0,0.0,0.0,0.0,0.0,0.0,0.34124294774134006,0.0,0.0,0.0,0.0,0.0,0.0,0.014142094424213717,0.0,0.0,0.0,0.0,0.0,0.0,0.0,0.0,0.0,0.0,0.0,0.0,0.0,0.0,0.0,0.0,0.0,0.0,0.0,0.0,0.0
1713690051554354734,11945,1713690051581170052,uav3/gps_garmin_origin,uav3/fcu,-22.964372262043845,21.223980213713865,0.9445202492030538,-0.01070611123393136,-0.0367865414552462,-0.6697336438917351,-0.7416124161511233,0.0022348788803350688,0.0,0.0,0.0,0.0,0.0,0.0,0.0022348788803350696,0.0,0.0,0.0,0.0,0.0,0.0,0.03840108237237874,0.0,0.0,0.0,0.0,0.0,0.0,0.0,0.0,0.0,0.0,0.0,0.0,0.0,0.0,0.0,0.0,0.0,0.0,0.0,0.0,0.0,-0.06885821820646051,0.05747686120302763,0.4622850750278702,0.018993668258190155,0.09591104835271835,0.023338228464126577,0.34124040127598143,0.0,0.0,0.0,0.0,0.0,0.0,0.34124040127598143,0.0,0.0,0.0,0.0,0.0,0.0,0.016188499771635653,0.0,0.0,0.0,0.0,0.0,0.0,0.0,0.0,0.0,0.0,0.0,0.0,0.0,0.0,0.0,0.0,0.0,0.0,0.0,0.0,0.0
1713690051705059614,11957,1713690051701169632,uav3/gps_garmin_origin,uav3/fcu,-22.988421859942967,21.20487993219715,0.975059616332172,-0.010433454584456457,-0.0392977321280497,-0.6709463449561319,-0.7403903250752494,0.002233915158328106,0.0,0.0,0.0,0.0,0.0,0.0,0.002233915158328105,0.0,0.0,0.0,0.0,0.0,0.0,0.03836892137130002,0.0,0.0,0.0,0.0,0.0,0.0,0.0,0.0,0.0,0.0,0.0,0.0,0.0,0.0,0.0,0.0,0.0,0.0,0.0,0.0,0.0,-0.05994634318948408,0.044012858954519424,0.48107516016325913,0.022592533379793167,-0.014373381622135636,0.02993213571608067,0.3412324710593909,0.0,0.0,0.0,0.0,0.0,0.0,0.3412324710593909,0.0,0.0,0.0,0.0,0.0,0.0,0.015798230799128704,0.0,0.0,0.0,0.0,0.0,0.0,0.0,0.0,0.0,0.0,0.0,0.0,0.0,0.0,0.0,0.0,0.0,0.0,0.0,0.0,0.0
1713690051809381973,11969,1713690051821170792,uav3/gps_garmin_origin,uav3/fcu,-23.006960791252222,21.18979185650065,0.9894291810880119,-0.00837832433129378,-0.039840197152470315,-0.6716508583838539,-0.7397483942561037,0.0022332546029433333,0.0,0.0,0.0,0.0,0.0,0.0,0.0022332546029433333,0.0,0.0,0.0,0.0,0.0,0.0,0.02965982807028005,0.0,0.0,0.0,0.0,0.0,0.0,0.0,0.0,0.0,0.0,0.0,0.0,0.0,0.0,0.0,0.0,0.0,0.0,0.0,0.0,0.0,-0.04145150709688292,0.018671105110641253,0.4928815619009762,-0.054059237241744995,0.04021177440881729,0.007688444573432202,0.3412267741120501,0.0,0.0,0.0,0.0,0.0,0.0,0.34122677411205016,0.0,0.0,0.0,0.0,0.0,0.0,0.0063287157747865625,0.0,0.0,0.0,0.0,0.0,0.0,0.0,0.0,0.0,0.0,0.0,0.0,0.0,0.0,0.0,0.0,0.0,0.0,0.0,0.0,0.0
1713690051934928276,11982,1713690051951168451,uav3/gps_garmin_origin,uav3/fcu,-23.023283105209686,21.17978265790154,1.07073051522295,-0.005066069586200286,-0.03907976059259202,-0.671467107825002,-0.7399858311887471,0.002237215930946216,0.0,0.0,0.0,0.0,0.0,0.0,0.0022372159309462162,0.0,0.0,0.0,0.0,0.0,0.0,0.02965663995691971,0.0,0.0,0.0,0.0,0.0,0.0,0.0,0.0,0.0,0.0,0.0,0.0,0.0,0.0,0.0,0.0,0.0,0.0,0.0,0.0,0.0,-0.011757470603982122,-0.00736314937053827,0.4999170403393146,-0.0005075259832665324,0.0016107542905956485,-0.01849113032221794,0.3412592956369665,0.0,0.0,0.0,0.0,0.0,0.0,0.34125929563696655,0.0,0.0,0.0,0.0,0.0,0.0,0.01586982608986394,0.0,0.0,0.0,0.0,0.0,0.0,0.0,0.0,0.0,0.0,0.0,0.0,0.0,0.0,0.0,0.0,0.0,0.0,0.0,0.0,0.0
1713690052028599676,11993,1713690052061169561,uav3/gps_garmin_origin,uav3/fcu,-23.03476091612703,21.175696433883953,1.0840975106407826,-0.005809058992789641,-0.03782280732060957,-0.6702902595216169,-0.74111177164477,0.002234765524110787,0.0,0.0,0.0,0.0,0.0,0.0,0.002234765524110786,0.0,0.0,0.0,0.0,0.0,0.0,0.03231438108988469,0.0,0.0,0.0,0.0,0.0,0.0,0.0,0.0,0.0,0.0,0.0,0.0,0.0,0.0,0.0,0.0,0.0,0.0,0.0,0.0,0.0,0.017961341443069292,-0.026326456749674574,0.47336563387037783,-0.0015124487690627575,-0.050165187567472465,-0.04498832672834396,0.3412399435512095,0.0,0.0,0.0,0.0,0.0,0.0,0.34123994355120957,0.0,0.0,0.0,0.0,0.0,0.0,0.007210426186209365,0.0,0.0,0.0,0.0,0.0,0.0,0.0,0.0,0.0,0.0,0.0,0.0,0.0,0.0,0.0,0.0,0.0,0.0,0.0,0.0,0.0
1713690052302277445,12005,1713690052181173769,uav3/gps_garmin_origin,uav3/fcu,-23.041119750651365,21.168525232754813,1.1815264721401446,-0.007801576367216549,-0.03497733407572591,-0.667339177551127,-0.7438912175933566,0.002234784162333413,0.0,0.0,0.0,0.0,0.0,0.0,0.002234784162333414,0.0,0.0,0.0,0.0,0.0,0.0,0.03729982858044158,0.0,0.0,0.0,0.0,0.0,0.0,0.0,0.0,0.0,0.0,0.0,0.0,0.0,0.0,0.0,0.0,0.0,0.0,0.0,0.0,0.0,0.03225493331799943,-0.05475629796204562,0.46600804892912184,-0.01653052493929863,-0.06356217712163927,-0.07798586785793303,0.34123962891708487,0.0,0.0,0.0,0.0,0.0,0.0,0.3412396289170849,0.0,0.0,0.0,0.0,0.0,0.0,0.015903596669363754,0.0,0.0,0.0,0.0,0.0,0.0,0.0,0.0,0.0,0.0,0.0,0.0,0.0,0.0,0.0,0.0,0.0,0.0,0.0,0.0,0.0
1713690052302289104,12017,1713690052301169700,uav3/gps_garmin_origin,uav3/fcu,-23.044833142686915,21.163127115434687,1.2198541890563206,-0.00923853451518377,-0.03132751125238912,-0.6635015676708385,-0.7474616419703976,0.0022337749615409536,0.0,0.0,0.0,0.0,0.0,0.0,0.002233774961540954,0.0,0.0,0.0,0.0,0.0,0.0,0.0376758119586649,0.0,0.0,0.0,0.0,0.0,0.0,0.0,0.0,0.0,0.0,0.0,0.0,0.0,0.0,0.0,0.0,0.0,0.0,0.0,0.0,0.0,0.04844659975708096,-0.07885212750058518,0.42816772866125824,-0.01678110659122467,-0.07302044332027437,-0.08041900396347045,0.34123159377335854,0.0,0.0,0.0,0.0,0.0,0.0,0.34123159377335854,0.0,0.0,0.0,0.0,0.0,0.0,0.014140082888811205,0.0,0.0,0.0,0.0,0.0,0.0,0.0,0.0,0.0,0.0,0.0,0.0,0.0,0.0,0.0,0.0,0.0,0.0,0.0,0.0,0.0
1713690052409591700,12029,1713690052421168633,uav3/gps_garmin_origin,uav3/fcu,-23.04761799981856,21.158436712710735,1.3182211277445584,-0.011761801107812943,-0.029731158019502043,-0.6607326993048881,-0.7499400098319837,0.0022348405683470522,0.0,0.0,0.0,0.0,0.0,0.0,0.0022348405683470527,0.0,0.0,0.0,0.0,0.0,0.0,0.038414319485199556,0.0,0.0,0.0,0.0,0.0,0.0,0.0,0.0,0.0,0.0,0.0,0.0,0.0,0.0,0.0,0.0,0.0,0.0,0.0,0.0,0.0,0.060730074006219034,-0.09286504257252556,0.38937350466193965,0.026486435905098915,-0.07317271083593369,-0.04014339298009872,0.34124025765225063,0.0,0.0,0.0,0.0,0.0,0.0,0.34124025765225063,0.0,0.0,0.0,0.0,0.0,0.0,0.0072375835057307695,0.0,0.0,0.0,0.0,0.0,0.0,0.0,0.0,0.0,0.0,0.0,0.0,0.0,0.0,0.0,0.0,0.0,0.0,0.0,0.0,0.0
1713690052537946071,12041,1713690052541170385,uav3/gps_garmin_origin,uav3/fcu,-23.046906144722673,21.152069562565227,1.3769120041243939,-0.01323834972277716,-0.0284601281321942,-0.6610886052707475,-0.7496510009227588,0.0022348172390013743,0.0,0.0,0.0,0.0,0.0,0.0,0.0022348172390013726,0.0,0.0,0.0,0.0,0.0,0.0,0.03839751850498993,0.0,0.0,0.0,0.0,0.0,0.0,0.0,0.0,0.0,0.0,0.0,0.0,0.0,0.0,0.0,0.0,0.0,0.0,0.0,0.0,0.0,0.06478243307611543,-0.11216207821199835,0.3221631526792583,-0.02536674402654171,0.01662560738623143,0.049884334206581116,0.34123994702100074,0.0,0.0,0.0,0.0,0.0,0.0,0.34123994702100074,0.0,0.0,0.0,0.0,0.0,0.0,0.01414164781015744,0.0,0.0,0.0,0.0,0.0,0.0,0.0,0.0,0.0,0.0,0.0,0.0,0.0,0.0,0.0,0.0,0.0,0.0,0.0,0.0,0.0
1713690052645005132,12053,1713690052661171744,uav3/gps_garmin_origin,uav3/fcu,-23.043496287942656,21.143575343603477,1.4360279166252523,-0.010217872339529964,-0.02835831753340284,-0.6645805176290216,-0.7466084224675406,0.002234575203905597,0.0,0.0,0.0,0.0,0.0,0.0,0.0022345752039055968,0.0,0.0,0.0,0.0,0.0,0.0,0.029607620684707358,0.0,0.0,0.0,0.0,0.0,0.0,0.0,0.0,0.0,0.0,0.0,0.0,0.0,0.0,0.0,0.0,0.0,0.0,0.0,0.0,0.0,0.06025592383443248,-0.1316900966214495,0.2757006421080367,-0.02097400650382042,0.04415444657206537,0.10547643154859543,0.3412384672607891,0.0,0.0,0.0,0.0,0.0,0.0,0.34123846726078916,0.0,0.0,0.0,0.0,0.0,0.0,0.015855925610864026,0.0,0.0,0.0,0.0,0.0,0.0,0.0,0.0,0.0,0.0,0.0,0.0,0.0,0.0,0.0,0.0,0.0,0.0,0.0,0.0,0.0
1713690052760139784,12065,1713690052781169088,uav3/gps_garmin_origin,uav3/fcu,-23.036669038980325,21.13071896329144,1.4735294949946112,-0.007265327229019345,-0.027730641293313315,-0.6703075396376064,-0.741529519883528,0.0022344748210076275,0.0,0.0,0.0,0.0,0.0,0.0,0.0022344748210076258,0.0,0.0,0.0,0.0,0.0,0.0,0.032011957345544115,0.0,0.0,0.0,0.0,0.0,0.0,0.0,0.0,0.0,0.0,0.0,0.0,0.0,0.0,0.0,0.0,0.0,0.0,0.0,0.0,0.0,0.04701503344564693,-0.15217491677008574,0.24140264475142195,-0.054717984050512314,0.004263505339622514,0.13738928735256195,0.3412370196767324,0.0,0.0,0.0,0.0,0.0,0.0,0.34123701967673226,0.0,0.0,0.0,0.0,0.0,0.0,0.007210289451054894,0.0,0.0,0.0,0.0,0.0,0.0,0.0,0.0,0.0,0.0,0.0,0.0,0.0,0.0,0.0,0.0,0.0,0.0,0.0,0.0,0.0
1713690052983102174,12077,1713690052901168296,uav3/gps_garmin_origin,uav3/fcu,-23.028460957812857,21.11622925300173,1.4795789590891455,-0.005678003067037338,-0.02162542542827129,-0.6786687116831083,-0.7341041350098821,0.0022342779086735104,0.0,0.0,0.0,0.0,0.0,0.0,0.0022342779086735104,0.0,0.0,0.0,0.0,0.0,0.0,0.03438570566613166,0.0,0.0,0.0,0.0,0.0,0.0,0.0,0.0,0.0,0.0,0.0,0.0,0.0,0.0,0.0,0.0,0.0,0.0,0.0,0.0,0.0,0.026795592615771014,-0.15954455612777435,0.19961120448828792,-0.1639481633901596,-0.16989392042160031,0.29221948981285095,0.3412360256022883,0.0,0.0,0.0,0.0,0.0,0.0,0.34123602560228833,0.0,0.0,0.0,0.0,0.0,0.0,0.006179587524515056,0.0,0.0,0.0,0.0,0.0,0.0,0.0,0.0,0.0,0.0,0.0,0.0,0.0,0.0,0.0,0.0,0.0,0.0,0.0,0.0,0.0
1713690053004892795,12089,1713690053021166034,uav3/gps_garmin_origin,uav3/fcu,-23.022692781999616,21.096935478727424,1.4837226513962047,-0.003273313431476214,0.0008339121239796621,-0.6910720409785016,-0.7227779909402036,0.0022346761170491175,0.0,0.0,0.0,0.0,0.0,0.0,0.0022346761170491175,0.0,0.0,0.0,0.0,0.0,0.0,0.03724196727748298,0.0,0.0,0.0,0.0,0.0,0.0,0.0,0.0,0.0,0.0,0.0,0.0,0.0,0.0,0.0,0.0,0.0,0.0,0.0,0.0,0.0,-0.018099513578446323,-0.13787754931297425,0.17389511116155534,-0.35435590147972107,-0.1386788189411163,0.2339752167463303,0.3412388283746638,0.0,0.0,0.0,0.0,0.0,0.0,0.3412388283746638,0.0,0.0,0.0,0.0,0.0,0.0,0.01620790158805901,0.0,0.0,0.0,0.0,0.0,0.0,0.0,0.0,0.0,0.0,0.0,0.0,0.0,0.0,0.0,0.0,0.0,0.0,0.0,0.0,0.0
1713690053171093099,12101,1713690053141166940,uav3/gps_garmin_origin,uav3/fcu,-23.020272459304987,21.072885006148272,1.5935927433408523,0.008127936810166833,0.010922912840333554,-0.699567245400733,-0.7144370481580045,0.002234911456800812,0.0,0.0,0.0,0.0,0.0,0.0,0.0022349114568008125,0.0,0.0,0.0,0.0,0.0,0.0,0.03740916677281279,0.0,0.0,0.0,0.0,0.0,0.0,0.0,0.0,0.0,0.0,0.0,0.0,0.0,0.0,0.0,0.0,0.0,0.0,0.0,0.0,0.0,-0.06481461048335552,-0.09309060342245354,0.20474716618528271,-0.11015640199184418,0.12657551467418673,0.14387935400009152,0.3412407951721037,0.0,0.0,0.0,0.0,0.0,0.0,0.34124079517210376,0.0,0.0,0.0,0.0,0.0,0.0,0.007072117616131913,0.0,0.0,0.0,0.0,0.0,0.0,0.0,0.0,0.0,0.0,0.0,0.0,0.0,0.0,0.0,0.0,0.0,0.0,0.0,0.0,0.0
1713690053329390051,12113,1713690053261172369,uav3/gps_garmin_origin,uav3/fcu,-23.02467937695149,21.044446926239807,1.5697019004082708,0.013811745715503192,0.0027042953053255697,-0.7031013703592778,-0.7109503396624111,0.002234824168926928,0.0,0.0,0.0,0.0,0.0,0.0,0.002234824168926928,0.0,0.0,0.0,0.0,0.0,0.0,0.03839740648451634,0.0,0.0,0.0,0.0,0.0,0.0,0.0,0.0,0.0,0.0,0.0,0.0,0.0,0.0,0.0,0.0,0.0,0.0,0.0,0.0,0.0,-0.09149126209590594,-0.02604904988174596,0.03545435279550553,0.1335241049528122,0.18485121428966522,0.053145404905080774,0.3412402211086211,0.0,0.0,0.0,0.0,0.0,0.0,0.3412402211086211,0.0,0.0,0.0,0.0,0.0,0.0,0.007044609964901767,0.0,0.0,0.0,0.0,0.0,0.0,0.0,0.0,0.0,0.0,0.0,0.0,0.0,0.0,0.0,0.0,0.0,0.0,0.0,0.0,0.0
1713690053380945571,12125,1713690053381170808,uav3/gps_garmin_origin,uav3/fcu,-23.033735453054035,21.01707294208863,1.5842431930247405,0.011234827106454296,-0.015597115586567132,-0.7025720078292284,-0.7113529942722351,0.0022347187221747064,0.0,0.0,0.0,0.0,0.0,0.0,0.0022347187221747056,0.0,0.0,0.0,0.0,0.0,0.0,0.0396518512009577,0.0,0.0,0.0,0.0,0.0,0.0,0.0,0.0,0.0,0.0,0.0,0.0,0.0,0.0,0.0,0.0,0.0,0.0,0.0,0.0,0.0,-0.08054774115119732,0.019787210857351963,-0.0468558646363747,0.26987960934638977,0.21400833129882812,-0.033988017588853864,0.3412391368379564,0.0,0.0,0.0,0.0,0.0,0.0,0.34123913683795626,0.0,0.0,0.0,0.0,0.0,0.0,0.013872762924863499,0.0,0.0,0.0,0.0,0.0,0.0,0.0,0.0,0.0,0.0,0.0,0.0,0.0,0.0,0.0,0.0,0.0,0.0,0.0,0.0,0.0
1713690053496466116,12137,1713690053501167241,uav3/gps_garmin_origin,uav3/fcu,-23.044090387536347,20.994010282439046,1.6224108802283326,0.011475798150079325,-0.035312246146517935,-0.7002225806370851,-0.7129584061464225,0.0022335441952455147,0.0,0.0,0.0,0.0,0.0,0.0,0.0022335441952455147,0.0,0.0,0.0,0.0,0.0,0.0,0.028369324704354843,0.0,0.0,0.0,0.0,0.0,0.0,0.0,0.0,0.0,0.0,0.0,0.0,0.0,0.0,0.0,0.0,0.0,0.0,0.0,0.0,0.0,-0.043101641476292155,0.030599423109433314,-0.03006250515348341,0.19294869899749756,0.20827293395996094,-0.038001924753189115,0.34122959688623994,0.0,0.0,0.0,0.0,0.0,0.0,0.3412295968862399,0.0,0.0,0.0,0.0,0.0,0.0,0.006320367447745741,0.0,0.0,0.0,0.0,0.0,0.0,0.0,0.0,0.0,0.0,0.0,0.0,0.0,0.0,0.0,0.0,0.0,0.0,0.0,0.0,0.0
1713690053611789090,12149,1713690053621167345,uav3/gps_garmin_origin,uav3/fcu,-23.051470586353656,20.974679307640788,1.6469226460983823,0.01179701156280205,-0.04764410067582431,-0.697011117373123,-0.7153784819571033,0.0022345656833578503,0.0,0.0,0.0,0.0,0.0,0.0,0.0022345656833578508,0.0,0.0,0.0,0.0,0.0,0.0,0.03209736047229045,0.0,0.0,0.0,0.0,0.0,0.0,0.0,0.0,0.0,0.0,0.0,0.0,0.0,0.0,0.0,0.0,0.0,0.0,0.0,0.0,0.0,0.010734389184931387,0.007168777984298623,-0.0746014378422897,0.13838276267051697,0.12692148983478546,-0.07377984374761583,0.34123852547487055,0.0,0.0,0.0,0.0,0.0,0.0,0.34123852547487044,0.0,0.0,0.0,0.0,0.0,0.0,0.0063339053933235395,0.0,0.0,0.0,0.0,0.0,0.0,0.0,0.0,0.0,0.0,0.0,0.0,0.0,0.0,0.0,0.0,0.0,0.0,0.0,0.0,0.0
1713690053768764816,12161,1713690053741166948,uav3/gps_garmin_origin,uav3/fcu,-23.05665466466578,20.963896252120527,1.625218766301144,0.011946068571010928,-0.05332572977812515,-0.693690713254613,-0.7181969453664039,0.002234870448144198,0.0,0.0,0.0,0.0,0.0,0.0,0.0022348704481441974,0.0,0.0,0.0,0.0,0.0,0.0,0.03722225284506409,0.0,0.0,0.0,0.0,0.0,0.0,0.0,0.0,0.0,0.0,0.0,0.0,0.0,0.0,0.0,0.0,0.0,0.0,0.0,0.0,0.0,0.08071131891132041,-0.026760849348708985,-0.1413976958919963,-0.009271708317101002,-0.004453433211892849,-0.05022450536489487,0.3412403596065813,0.0,0.0,0.0,0.0,0.0,0.0,0.3412403596065811,0.0,0.0,0.0,0.0,0.0,0.0,0.006328474252574625,0.0,0.0,0.0,0.0,0.0,0.0,0.0,0.0,0.0,0.0,0.0,0.0,0.0,0.0,0.0,0.0,0.0,0.0,0.0,0.0,0.0
1713690053892787684,12173,1713690053861169817,uav3/gps_garmin_origin,uav3/fcu,-23.05976109513488,20.961623616126026,1.6277584706353445,0.0091984683748672,-0.045490751184048814,-0.692348189442602,-0.7200694163147178,0.002233752236265837,0.0,0.0,0.0,0.0,0.0,0.0,0.0022337522362658384,0.0,0.0,0.0,0.0,0.0,0.0,0.0380201128031224,0.0,0.0,0.0,0.0,0.0,0.0,0.0,0.0,0.0,0.0,0.0,0.0,0.0,0.0,0.0,0.0,0.0,0.0,0.0,0.0,0.0,0.1319454790724884,-0.04714556626822167,-0.07207582037715028,-0.05735433101654053,-0.13382665812969208,-0.02522533014416693,0.341231477234705,0.0,0.0,0.0,0.0,0.0,0.0,0.3412314772347049,0.0,0.0,0.0,0.0,0.0,0.0,0.0063296861509317464,0.0,0.0,0.0,0.0,0.0,0.0,0.0,0.0,0.0,0.0,0.0,0.0,0.0,0.0,0.0,0.0,0.0,0.0,0.0,0.0,0.0
1713690053983832683,12185,1713690053981167206,uav3/gps_garmin_origin,uav3/fcu,-23.061370554960316,20.96529426356034,1.6283701745024985,0.006636329912811733,-0.03659785439481713,-0.6917783644132875,-0.7211513368972292,0.0022347307915947853,0.0,0.0,0.0,0.0,0.0,0.0,0.002234730791594786,0.0,0.0,0.0,0.0,0.0,0.0,0.038376032945582686,0.0,0.0,0.0,0.0,0.0,0.0,0.0,0.0,0.0,0.0,0.0,0.0,0.0,0.0,0.0,0.0,0.0,0.0,0.0,0.0,0.0,0.16978970755919498,-0.061558167044803894,-0.07808245512098141,-0.06674031913280487,-0.07385566830635071,-0.012022255919873706,0.34123937553966177,0.0,0.0,0.0,0.0,0.0,0.0,0.3412393755396618,0.0,0.0,0.0,0.0,0.0,0.0,0.006184800648537023,0.0,0.0,0.0,0.0,0.0,0.0,0.0,0.0,0.0,0.0,0.0,0.0,0.0,0.0,0.0,0.0,0.0,0.0,0.0,0.0,0.0
1713690054113571917,12198,1713690054111170197,uav3/gps_garmin_origin,uav3/fcu,-23.062699621009944,20.973052074618334,1.5669951543548664,0.005176741700257738,-0.028238978437088273,-0.6918411625946699,-0.7214787364724299,0.0022341704902765027,0.0,0.0,0.0,0.0,0.0,0.0,0.0022341704902765027,0.0,0.0,0.0,0.0,0.0,0.0,0.03836548384650627,0.0,0.0,0.0,0.0,0.0,0.0,0.0,0.0,0.0,0.0,0.0,0.0,0.0,0.0,0.0,0.0,0.0,0.0,0.0,0.0,0.0,0.18663712321982442,-0.06694872210008074,-0.07383283437086616,-0.0666821077466011,-0.10291561484336853,0.006230256985872997,0.3412346913574425,0.0,0.0,0.0,0.0,0.0,0.0,0.34123469135744244,0.0,0.0,0.0,0.0,0.0,0.0,0.0070468537288581965,0.0,0.0,0.0,0.0,0.0,0.0,0.0,0.0,0.0,0.0,0.0,0.0,0.0,0.0,0.0,0.0,0.0,0.0,0.0,0.0,0.0
1713690054216190673,12209,1713690054221166687,uav3/gps_garmin_origin,uav3/fcu,-23.065401739745216,20.9780351105595,1.5671080176944676,0.0019414760252010463,-0.024078424067350376,-0.6923092052245234,-0.721196522819311,0.0022344600779995957,0.0,0.0,0.0,0.0,0.0,0.0,0.0022344600779995974,0.0,0.0,0.0,0.0,0.0,0.0,0.02966572534167251,0.0,0.0,0.0,0.0,0.0,0.0,0.0,0.0,0.0,0.0,0.0,0.0,0.0,0.0,0.0,0.0,0.0,0.0,0.0,0.0,0.0,0.17557838716299218,-0.060465400924125896,0.0628414010649085,0.030047917738556862,-0.06574741005897522,0.017708674073219306,0.34123731184389866,0.0,0.0,0.0,0.0,0.0,0.0,0.34123731184389866,0.0,0.0,0.0,0.0,0.0,0.0,0.01384479494733347,0.0,0.0,0.0,0.0,0.0,0.0,0.0,0.0,0.0,0.0,0.0,0.0,0.0,0.0,0.0,0.0,0.0,0.0,0.0,0.0,0.0
1713690054422532416,12221,1713690054341166984,uav3/gps_garmin_origin,uav3/fcu,-23.065636800427864,20.984486349916143,1.5611601230211714,-0.001182487128498138,-0.0245435175886028,-0.6934996668881768,-0.7200377972680024,0.0022348157453809235,0.0,0.0,0.0,0.0,0.0,0.0,0.0022348157453809248,0.0,0.0,0.0,0.0,0.0,0.0,0.03208139115547105,0.0,0.0,0.0,0.0,0.0,0.0,0.0,0.0,0.0,0.0,0.0,0.0,0.0,0.0,0.0,0.0,0.0,0.0,0.0,0.0,0.0,0.16953135054353052,-0.06742608012479959,0.035369008774239756,0.052906930446624756,-0.017849927768111225,0.02475841157138348,0.34124003765359145,0.0,0.0,0.0,0.0,0.0,0.0,0.3412400376535914,0.0,0.0,0.0,0.0,0.0,0.0,0.00724787497186581,0.0,0.0,0.0,0.0,0.0,0.0,0.0,0.0,0.0,0.0,0.0,0.0,0.0,0.0,0.0,0.0,0.0,0.0,0.0,0.0,0.0
