%time,field.header.seq,field.header.stamp,field.header.frame_id,field.child_frame_id,field.pose.pose.position.x,field.pose.pose.position.y,field.pose.pose.position.z,field.pose.pose.orientation.x,field.pose.pose.orientation.y,field.pose.pose.orientation.z,field.pose.pose.orientation.w,field.pose.covariance0,field.pose.covariance1,field.pose.covariance2,field.pose.covariance3,field.pose.covariance4,field.pose.covariance5,field.pose.covariance6,field.pose.covariance7,field.pose.covariance8,field.pose.covariance9,field.pose.covariance10,field.pose.covariance11,field.pose.covariance12,field.pose.covariance13,field.pose.covariance14,field.pose.covariance15,field.pose.covariance16,field.pose.covariance17,field.pose.covariance18,field.pose.covariance19,field.pose.covariance20,field.pose.covariance21,field.pose.covariance22,field.pose.covariance23,field.pose.covariance24,field.pose.covariance25,field.pose.covariance26,field.pose.covariance27,field.pose.covariance28,field.pose.covariance29,field.pose.covariance30,field.pose.covariance31,field.pose.covariance32,field.pose.covariance33,field.pose.covariance34,field.pose.covariance35,field.twist.twist.linear.x,field.twist.twist.linear.y,field.twist.twist.linear.z,field.twist.twist.angular.x,field.twist.twist.angular.y,field.twist.twist.angular.z,field.twist.covariance0,field.twist.covariance1,field.twist.covariance2,field.twist.covariance3,field.twist.covariance4,field.twist.covariance5,field.twist.covariance6,field.twist.covariance7,field.twist.covariance8,field.twist.covariance9,field.twist.covariance10,field.twist.covariance11,field.twist.covariance12,field.twist.covariance13,field.twist.covariance14,field.twist.covariance15,field.twist.covariance16,field.twist.covariance17,field.twist.covariance18,field.twist.covariance19,field.twist.covariance20,field.twist.covariance21,field.twist.covariance22,field.twist.covariance23,field.twist.covariance24,field.twist.covariance25,field.twist.covariance26,field.twist.covariance27,field.twist.covariance28,field.twist.covariance29,field.twist.covariance30,field.twist.covariance31,field.twist.covariance32,field.twist.covariance33,field.twist.covariance34,field.twist.covariance35
1713690045562924016,11282,1713690045034460007,uav32/gps_garmin_origin,uav32/fcu,-29.085338515113058,8.486152846400941,0.12489497174319686,-0.005150223240197722,0.0056036840624428515,0.3824874193443709,0.9239293508498719,0.0035113374940863246,0.0,0.0,0.0,0.0,0.0,0.0,0.0035113374940863246,0.0,0.0,0.0,0.0,0.0,0.0,0.03714226101219778,0.0,0.0,0.0,0.0,0.0,0.0,0.0,0.0,0.0,0.0,0.0,0.0,0.0,0.0,0.0,0.0,0.0,0.0,0.0,0.0,0.0,-0.04326677752748656,-0.0059117643255884285,0.01529597230860199,-3.004710015375167e-05,-0.0001960182271432131,0.000344747124472633,0.45734964860416566,0.0,0.0,0.0,0.0,0.0,0.0,0.4573496486041668,0.0,0.0,0.0,0.0,0.0,0.0,0.01645096322720272,0.0,0.0,0.0,0.0,0.0,0.0,0.0,0.0,0.0,0.0,0.0,0.0,0.0,0.0,0.0,0.0,0.0,0.0,0.0,0.0,0.0
1713690045619432865,11293,1713690045144413174,uav32/gps_garmin_origin,uav32/fcu,-29.08883311093076,8.481745266064626,0.12614849110627588,-0.005141580436432791,0.005576554720475609,0.3824919512540418,0.9239276867577217,0.0022996670200285717,0.0,0.0,0.0,0.0,0.0,0.0,0.0022996670200285704,0.0,0.0,0.0,0.0,0.0,0.0,0.03838700165961181,0.0,0.0,0.0,0.0,0.0,0.0,0.0,0.0,0.0,0.0,0.0,0.0,0.0,0.0,0.0,0.0,0.0,0.0,0.0,0.0,0.0,-0.046868775267667265,-0.0053526545866261835,0.0156604345780542,0.00026863435050472617,0.00010976025805575768,-0.0004285163595341146,0.440376300945142,0.0,0.0,0.0,0.0,0.0,0.0,0.4403763009451432,0.0,0.0,0.0,0.0,0.0,0.0,0.006218257409910358,0.0,0.0,0.0,0.0,0.0,0.0,0.0,0.0,0.0,0.0,0.0,0.0,0.0,0.0,0.0,0.0,0.0,0.0,0.0,0.0,0.0
1713690045627208212,11304,1713690045254411903,uav32/gps_garmin_origin,uav32/fcu,-29.092585567917023,8.478019511959221,0.1315800154404765,-0.005141581901307011,0.005560461771229295,0.3824937777140777,0.9239270291134698,0.0023025586148842747,0.0,0.0,0.0,0.0,0.0,0.0,0.002302558614884274,0.0,0.0,0.0,0.0,0.0,0.0,0.02959087309773423,0.0,0.0,0.0,0.0,0.0,0.0,0.0,0.0,0.0,0.0,0.0,0.0,0.0,0.0,0.0,0.0,0.0,0.0,0.0,0.0,0.0,-0.0486225105140547,-0.002699374892524744,0.015849022197654158,0.00011536098463693634,-0.000960439327172935,-5.064178549218911e-05,0.4404136253890756,0.0,0.0,0.0,0.0,0.0,0.0,0.4404136253890766,0.0,0.0,0.0,0.0,0.0,0.0,0.006209306397017858,0.0,0.0,0.0,0.0,0.0,0.0,0.0,0.0,0.0,0.0,0.0,0.0,0.0,0.0,0.0,0.0,0.0,0.0,0.0,0.0,0.0
1713690045780666815,11315,1713690045364446128,uav32/gps_garmin_origin,uav32/fcu,-29.095994104067287,8.474624327249387,0.12244878260353802,-0.005150054769158223,0.005557619085451324,0.3825056451861293,0.9239220944074488,0.0023004427554385322,0.0,0.0,0.0,0.0,0.0,0.0,0.002300442755438533,0.0,0.0,0.0,0.0,0.0,0.0,0.037378044452530124,0.0,0.0,0.0,0.0,0.0,0.0,0.0,0.0,0.0,0.0,0.0,0.0,0.0,0.0,0.0,0.0,0.0,0.0,0.0,0.0,0.0,-0.04820951487206537,-0.0010095448616792456,0.016157558668223836,-6.973096606088802e-05,0.00021410289627965537,-0.00027602995396591723,0.4403870439267034,0.0,0.0,0.0,0.0,0.0,0.0,0.4403870439267042,0.0,0.0,0.0,0.0,0.0,0.0,0.006217194524157423,0.0,0.0,0.0,0.0,0.0,0.0,0.0,0.0,0.0,0.0,0.0,0.0,0.0,0.0,0.0,0.0,0.0,0.0,0.0,0.0,0.0
1713690045887563817,11326,1713690045474420224,uav32/gps_garmin_origin,uav32/fcu,-29.10025538042212,8.47116821885013,0.12103774163409989,-0.00516023606115206,0.005558243996297047,0.38250640498053207,0.9239217235978511,0.0035123309941229018,0.0,0.0,0.0,0.0,0.0,0.0,0.0035123309941229026,0.0,0.0,0.0,0.0,0.0,0.0,0.028378102613971893,0.0,0.0,0.0,0.0,0.0,0.0,0.0,0.0,0.0,0.0,0.0,0.0,0.0,0.0,0.0,0.0,0.0,0.0,0.0,0.0,0.0,-0.04998117954244882,0.001982499820210164,0.016196499783903334,0.0007057623588480055,5.594484537141387e-05,-0.0008636477869004011,0.4573671981206952,0.0,0.0,0.0,0.0,0.0,0.0,0.45736719812069576,0.0,0.0,0.0,0.0,0.0,0.0,0.01644035264791969,0.0,0.0,0.0,0.0,0.0,0.0,0.0,0.0,0.0,0.0,0.0,0.0,0.0,0.0,0.0,0.0,0.0,0.0,0.0,0.0,0.0
1713690045919881506,11337,1713690045584418794,uav32/gps_garmin_origin,uav32/fcu,-29.104006887553663,8.468003226105106,0.12377613625889375,-0.005174133718696767,0.005563116519265913,0.38251046732488064,0.923919944885846,0.003516605048011381,0.0,0.0,0.0,0.0,0.0,0.0,0.003516605048011381,0.0,0.0,0.0,0.0,0.0,0.0,0.03217689586466691,0.0,0.0,0.0,0.0,0.0,0.0,0.0,0.0,0.0,0.0,0.0,0.0,0.0,0.0,0.0,0.0,0.0,0.0,0.0,0.0,0.0,-0.049260874296126377,0.003522399085955903,0.015888746437999472,0.0004800704773515463,-0.0006996940355747938,0.00013364807819016286,0.4574250513615534,0.0,0.0,0.0,0.0,0.0,0.0,0.45742505136155404,0.0,0.0,0.0,0.0,0.0,0.0,0.01650603497706328,0.0,0.0,0.0,0.0,0.0,0.0,0.0,0.0,0.0,0.0,0.0,0.0,0.0,0.0,0.0,0.0,0.0,0.0,0.0,0.0,0.0
1713690045974662427,11347,1713690045684420811,uav32/gps_garmin_origin,uav32/fcu,-29.10708542777846,8.465665419309698,0.1235807069617248,-0.005193476500015385,0.005568273484036682,0.3824917502709378,0.9239275321049271,0.0023021621961774666,0.0,0.0,0.0,0.0,0.0,0.0,0.0023021621961774666,0.0,0.0,0.0,0.0,0.0,0.0,0.03962708441586567,0.0,0.0,0.0,0.0,0.0,0.0,0.0,0.0,0.0,0.0,0.0,0.0,0.0,0.0,0.0,0.0,0.0,0.0,0.0,0.0,0.0,-0.04681643690031674,0.004889879123887373,0.01592495846796537,0.0005525522283278406,1.4514278518618049e-05,-0.0002859742089640349,0.4404084095277939,0.0,0.0,0.0,0.0,0.0,0.0,0.4404084095277947,0.0,0.0,0.0,0.0,0.0,0.0,0.006219031392893808,0.0,0.0,0.0,0.0,0.0,0.0,0.0,0.0,0.0,0.0,0.0,0.0,0.0,0.0,0.0,0.0,0.0,0.0,0.0,0.0,0.0
1713690046030145059,11358,1713690045794411501,uav32/gps_garmin_origin,uav32/fcu,-29.11016493873625,8.463497620998393,0.12339743016687298,-0.005198250106004979,0.005573842006452454,0.38246869110075477,0.9239370276650067,0.0022996575599605745,0.0,0.0,0.0,0.0,0.0,0.0,0.002299657559960575,0.0,0.0,0.0,0.0,0.0,0.0,0.032173434385473744,0.0,0.0,0.0,0.0,0.0,0.0,0.0,0.0,0.0,0.0,0.0,0.0,0.0,0.0,0.0,0.0,0.0,0.0,0.0,0.0,0.0,-0.04322446477748246,0.006272487705579813,0.016193173226470473,0.0002824861730914563,-1.2315884305280535e-05,0.0008088475442491472,0.4403758546400487,0.0,0.0,0.0,0.0,0.0,0.0,0.440375854640049,0.0,0.0,0.0,0.0,0.0,0.0,0.006218645043034733,0.0,0.0,0.0,0.0,0.0,0.0,0.0,0.0,0.0,0.0,0.0,0.0,0.0,0.0,0.0,0.0,0.0,0.0,0.0,0.0,0.0
1713690046070907976,11369,1713690045904382779,uav32/gps_garmin_origin,uav32/fcu,-29.11391548808676,8.46132193769773,0.12127598458922328,-0.005205494866088649,0.0055760764398258686,0.38245306162718157,0.9239434461911848,0.0035041793720250436,0.0,0.0,0.0,0.0,0.0,0.0,0.003504179372025044,0.0,0.0,0.0,0.0,0.0,0.0,0.03775551992241928,0.0,0.0,0.0,0.0,0.0,0.0,0.0,0.0,0.0,0.0,0.0,0.0,0.0,0.0,0.0,0.0,0.0,0.0,0.0,0.0,0.0,-0.04204015955328407,0.008584088985072767,0.016591348275607754,-0.00043816628749482334,0.0007261389982886612,8.487016748404121e-05,0.4572517643189413,0.0,0.0,0.0,0.0,0.0,0.0,0.45725176431894177,0.0,0.0,0.0,0.0,0.0,0.0,0.01644355839308806,0.0,0.0,0.0,0.0,0.0,0.0,0.0,0.0,0.0,0.0,0.0,0.0,0.0,0.0,0.0,0.0,0.0,0.0,0.0,0.0,0.0
1713690046167829928,11380,1713690046014412114,uav32/gps_garmin_origin,uav32/fcu,-29.117460877169485,8.459365973946992,0.12121010313458717,-0.005220937025783346,0.005572701026291716,0.38244991090773384,0.9239446905139643,0.0023005027214855252,0.0,0.0,0.0,0.0,0.0,0.0,0.0023005027214855252,0.0,0.0,0.0,0.0,0.0,0.0,0.03960925508769403,0.0,0.0,0.0,0.0,0.0,0.0,0.0,0.0,0.0,0.0,0.0,0.0,0.0,0.0,0.0,0.0,0.0,0.0,0.0,0.0,0.0,-0.04032385597425689,0.010284839264343069,0.016649060871913916,0.0001127190698753111,-0.0006528847152367234,0.00032993452623486524,0.4403872978394881,0.0,0.0,0.0,0.0,0.0,0.0,0.44038729783948843,0.0,0.0,0.0,0.0,0.0,0.0,0.006209692331890936,0.0,0.0,0.0,0.0,0.0,0.0,0.0,0.0,0.0,0.0,0.0,0.0,0.0,0.0,0.0,0.0,0.0,0.0,0.0,0.0,0.0
1713690046223133292,11390,1713690046114410871,uav32/gps_garmin_origin,uav32/fcu,-29.121519179064418,8.457016656427061,0.1211631678657886,-0.005221380044228656,0.0055563402490958775,0.38245826664446514,0.9239413254872029,0.0022992807807495465,0.0,0.0,0.0,0.0,0.0,0.0,0.0022992807807495465,0.0,0.0,0.0,0.0,0.0,0.0,0.0376784238502066,0.0,0.0,0.0,0.0,0.0,0.0,0.0,0.0,0.0,0.0,0.0,0.0,0.0,0.0,0.0,0.0,0.0,0.0,0.0,0.0,0.0,-0.042147506731655626,0.011819716741118768,0.016329583428564522,-0.000407543673645705,-0.0005632767570205033,-0.000327900139382109,0.440371222149093,0.0,0.0,0.0,0.0,0.0,0.0,0.44037122214909324,0.0,0.0,0.0,0.0,0.0,0.0,0.006209437119209605,0.0,0.0,0.0,0.0,0.0,0.0,0.0,0.0,0.0,0.0,0.0,0.0,0.0,0.0,0.0,0.0,0.0,0.0,0.0,0.0,0.0
1713690046261467534,11401,1713690046224412739,uav32/gps_garmin_origin,uav32/fcu,-29.125875903925547,8.45426203930158,0.12118404839273031,-0.005215273176322394,0.005563877625725858,0.38246339340725155,0.9239391774440037,0.0035034075854505466,0.0,0.0,0.0,0.0,0.0,0.0,0.0035034075854505475,0.0,0.0,0.0,0.0,0.0,0.0,0.03961275790685771,0.0,0.0,0.0,0.0,0.0,0.0,0.0,0.0,0.0,0.0,0.0,0.0,0.0,0.0,0.0,0.0,0.0,0.0,0.0,0.0,0.0,-0.04382531485024756,0.012290287985566275,0.015994016892363468,0.0006784585420973599,0.0002915147924795747,-0.00020879207295365634,0.45724204543415264,0.0,0.0,0.0,0.0,0.0,0.0,0.4572420454341528,0.0,0.0,0.0,0.0,0.0,0.0,0.01644025782690821,0.0,0.0,0.0,0.0,0.0,0.0,0.0,0.0,0.0,0.0,0.0,0.0,0.0,0.0,0.0,0.0,0.0,0.0,0.0,0.0,0.0
1713690046422865721,11411,1713690046324412999,uav32/gps_garmin_origin,uav32/fcu,-29.12949865442108,8.451579962158215,0.12113715530325186,-0.005205131565788731,0.0055694159157583896,0.3824702972475978,0.9239363406213748,0.003510715846578664,0.0,0.0,0.0,0.0,0.0,0.0,0.003510715846578666,0.0,0.0,0.0,0.0,0.0,0.0,0.03760035266498217,0.0,0.0,0.0,0.0,0.0,0.0,0.0,0.0,0.0,0.0,0.0,0.0,0.0,0.0,0.0,0.0,0.0,0.0,0.0,0.0,0.0,-0.04443882253562093,0.011294551686293574,0.015695811217368728,0.000995998620055616,-0.0003158211766276509,-0.0004472005530260503,0.45734159195194624,0.0,0.0,0.0,0.0,0.0,0.0,0.45734159195194635,0.0,0.0,0.0,0.0,0.0,0.0,0.016503563527957104,0.0,0.0,0.0,0.0,0.0,0.0,0.0,0.0,0.0,0.0,0.0,0.0,0.0,0.0,0.0,0.0,0.0,0.0,0.0,0.0,0.0
1713690046534987199,11421,1713690046424412263,uav32/gps_garmin_origin,uav32/fcu,-29.133071831047484,8.44994362311957,0.1200413233499938,-0.005216687390341601,0.005573147488869366,0.38249262141726187,0.9239270097686036,0.003491575894345545,0.0,0.0,0.0,0.0,0.0,0.0,0.003491575894359682,0.0,0.0,0.0,0.0,0.0,0.0,0.02842599167685747,0.0,0.0,0.0,0.0,0.0,0.0,0.0,0.0,0.0,0.0,0.0,0.0,0.0,0.0,0.0,0.0,0.0,0.0,0.0,0.0,0.0,-0.04252800065147219,0.013118714347448435,0.015333381691473634,-0.0002458319650031626,-0.0003431239456404001,-0.0002578271669335663,0.4571670503262929,0.0,0.0,0.0,0.0,0.0,0.0,0.4571670503298184,0.0,0.0,0.0,0.0,0.0,0.0,0.016505373970446546,0.0,0.0,0.0,0.0,0.0,0.0,0.0,0.0,0.0,0.0,0.0,0.0,0.0,0.0,0.0,0.0,0.0,0.0,0.0,0.0,0.0
1713690046626421351,11431,1713690046524411756,uav32/gps_garmin_origin,uav32/fcu,-29.136498773636678,8.449117139979803,0.1293672014866422,-0.005235003193342033,0.005580271011805938,0.3825193080166553,0.9239158268851787,0.002302221310565745,0.0,0.0,0.0,0.0,0.0,0.0,0.002302221310565744,0.0,0.0,0.0,0.0,0.0,0.0,0.03775785897039992,0.0,0.0,0.0,0.0,0.0,0.0,0.0,0.0,0.0,0.0,0.0,0.0,0.0,0.0,0.0,0.0,0.0,0.0,0.0,0.0,0.0,-0.03893137109886452,0.01569161704379679,0.015340775297265949,-0.0001441753120161593,0.0007765442715026438,0.00034687723382376124,0.4404171086350589,0.0,0.0,0.0,0.0,0.0,0.0,0.4404171086342271,0.0,0.0,0.0,0.0,0.0,0.0,0.006225496145181697,0.0,0.0,0.0,0.0,0.0,0.0,0.0,0.0,0.0,0.0,0.0,0.0,0.0,0.0,0.0,0.0,0.0,0.0,0.0,0.0,0.0
1713690046714702219,11442,1713690046634410517,uav32/gps_garmin_origin,uav32/fcu,-29.140193131079943,8.448575629826575,0.1302124925885174,-0.005254109903633095,0.005590116590938705,0.3825561182047406,0.9239004190053403,0.002301098508354107,0.0,0.0,0.0,0.0,0.0,0.0,0.0023010985083541076,0.0,0.0,0.0,0.0,0.0,0.0,0.03967280838892554,0.0,0.0,0.0,0.0,0.0,0.0,0.0,0.0,0.0,0.0,0.0,0.0,0.0,0.0,0.0,0.0,0.0,0.0,0.0,0.0,0.0,-0.035013023313361535,0.01850806953050163,0.015145513559451125,0.0002229320671176538,0.0002536195679567754,-0.00013294210657477382,0.4403939809988522,0.0,0.0,0.0,0.0,0.0,0.0,0.44039398099838173,0.0,0.0,0.0,0.0,0.0,0.0,0.006219533308067465,0.0,0.0,0.0,0.0,0.0,0.0,0.0,0.0,0.0,0.0,0.0,0.0,0.0,0.0,0.0,0.0,0.0,0.0,0.0,0.0,0.0
1713690046773546780,11453,1713690046744415451,uav32/gps_garmin_origin,uav32/fcu,-29.143637092158926,8.448067510039168,0.12143135390193015,-0.005263270803285443,0.0055903968824405825,0.38258456942071417,0.9238885926308139,0.0035164448375089793,0.0,0.0,0.0,0.0,0.0,0.0,0.003516444837508883,0.0,0.0,0.0,0.0,0.0,0.0,0.03740603841044673,0.0,0.0,0.0,0.0,0.0,0.0,0.0,0.0,0.0,0.0,0.0,0.0,0.0,0.0,0.0,0.0,0.0,0.0,0.0,0.0,0.0,-0.0315700851618786,0.01971398474258703,0.015000860572257236,0.0001766784262144938,-6.352608033921572e-05,-0.00020612029766198248,0.457422932695055,0.0,0.0,0.0,0.0,0.0,0.0,0.457422932694861,0.0,0.0,0.0,0.0,0.0,0.0,0.016443738136834928,0.0,0.0,0.0,0.0,0.0,0.0,0.0,0.0,0.0,0.0,0.0,0.0,0.0,0.0,0.0,0.0,0.0,0.0,0.0,0.0,0.0
1713690046882509702,11464,1713690046854412710,uav32/gps_garmin_origin,uav32/fcu,-29.147707848934388,8.447633635360802,0.11829523668656684,-0.00527759161686879,0.005600404937587852,0.3826100169355443,0.9238779003317741,0.002299718406483004,0.0,0.0,0.0,0.0,0.0,0.0,0.002299718406483005,0.0,0.0,0.0,0.0,0.0,0.0,0.03831852876213974,0.0,0.0,0.0,0.0,0.0,0.0,0.0,0.0,0.0,0.0,0.0,0.0,0.0,0.0,0.0,0.0,0.0,0.0,0.0,0.0,0.0,-0.030451176000434784,0.02224942585825952,0.014997649708295941,-4.645687295123935e-05,-0.00014417947386391464,-0.00014455152268055824,0.4403764618951,0.0,0.0,0.0,0.0,0.0,0.0,0.4403764618950518,0.0,0.0,0.0,0.0,0.0,0.0,0.006209223425800192,0.0,0.0,0.0,0.0,0.0,0.0,0.0,0.0,0.0,0.0,0.0,0.0,0.0,0.0,0.0,0.0,0.0,0.0,0.0,0.0,0.0
1713690046986339833,11475,1713690046964411358,uav32/gps_garmin_origin,uav32/fcu,-29.151733710806162,8.446726288503676,0.12092316899846758,-0.005288479603099081,0.0056034927570281605,0.3826102253764557,0.9238777380834063,0.002314483157592344,0.0,0.0,0.0,0.0,0.0,0.0,0.002314483157592344,0.0,0.0,0.0,0.0,0.0,0.0,0.032049843247872765,0.0,0.0,0.0,0.0,0.0,0.0,0.0,0.0,0.0,0.0,0.0,0.0,0.0,0.0,0.0,0.0,0.0,0.0,0.0,0.0,0.0,-0.030375881582637466,0.022488652899358426,0.014792672198884305,0.00017759500769898295,-0.0004495490284170956,-0.000490967824589461,0.44040620979352135,0.0,0.0,0.0,0.0,0.0,0.0,0.44040620979352346,0.0,0.0,0.0,0.0,0.0,0.0,0.01643378050989369,0.0,0.0,0.0,0.0,0.0,0.0,0.0,0.0,0.0,0.0,0.0,0.0,0.0,0.0,0.0,0.0,0.0,0.0,0.0,0.0,0.0
1713690047083636625,11485,1713690047064410906,uav32/gps_garmin_origin,uav32/fcu,-29.156942059686468,8.446000208910478,0.11838824371771918,-0.005295751168051695,0.005596587916065891,0.38260737515516935,0.923878896995137,0.00229938336103862,0.0,0.0,0.0,0.0,0.0,0.0,0.002299383361038621,0.0,0.0,0.0,0.0,0.0,0.0,0.03769207234831028,0.0,0.0,0.0,0.0,0.0,0.0,0.0,0.0,0.0,0.0,0.0,0.0,0.0,0.0,0.0,0.0,0.0,0.0,0.0,0.0,0.0,-0.03378593881362004,0.026689248355339538,0.01449979626051803,-0.00027861446142196655,0.0010818904265761375,-0.00048613070975989114,0.44043293541850476,0.0,0.0,0.0,0.0,0.0,0.0,0.4404329354185213,0.0,0.0,0.0,0.0,0.0,0.0,0.016379032236726335,0.0,0.0,0.0,0.0,0.0,0.0,0.0,0.0,0.0,0.0,0.0,0.0,0.0,0.0,0.0,0.0,0.0,0.0,0.0,0.0,0.0
1713690047188211071,11495,1713690047164412144,uav32/gps_garmin_origin,uav32/fcu,-29.16199902757499,8.444754123590316,0.12085487466873161,-0.005309381334943612,0.005591940279514807,0.3826090590371454,0.923878168236425,0.0022994534227467954,0.0,0.0,0.0,0.0,0.0,0.0,0.0022994534227467954,0.0,0.0,0.0,0.0,0.0,0.0,0.02970707324866803,0.0,0.0,0.0,0.0,0.0,0.0,0.0,0.0,0.0,0.0,0.0,0.0,0.0,0.0,0.0,0.0,0.0,0.0,0.0,0.0,0.0,-0.03700622035641376,0.027912625704680342,0.014324325307687685,0.0003134511935058981,0.00022342958254739629,-0.0010782446479424834,0.44042019478581795,0.0,0.0,0.0,0.0,0.0,0.0,0.4404201947858365,0.0,0.0,0.0,0.0,0.0,0.0,0.016371555466571704,0.0,0.0,0.0,0.0,0.0,0.0,0.0,0.0,0.0,0.0,0.0,0.0,0.0,0.0,0.0,0.0,0.0,0.0,0.0,0.0,0.0
1713690047312448916,11506,1713690047274412055,uav32/gps_garmin_origin,uav32/fcu,-29.168626371561825,8.44467089276266,0.12309862687608528,-0.0053380804232191475,0.0056099724179097055,0.3826062479727574,0.9238790458051331,0.002302059462853949,0.0,0.0,0.0,0.0,0.0,0.0,0.0023020594628539474,0.0,0.0,0.0,0.0,0.0,0.0,0.03771749795483273,0.0,0.0,0.0,0.0,0.0,0.0,0.0,0.0,0.0,0.0,0.0,0.0,0.0,0.0,0.0,0.0,0.0,0.0,0.0,0.0,0.0,-0.03923465249120185,0.03461366343765099,0.014128469571541732,-8.307181269628927e-05,0.0007548804860562086,-0.00019358393910806634,0.4404320824326598,0.0,0.0,0.0,0.0,0.0,0.0,0.44043208243267534,0.0,0.0,0.0,0.0,0.0,0.0,0.007287084389842327,0.0,0.0,0.0,0.0,0.0,0.0,0.0,0.0,0.0,0.0,0.0,0.0,0.0,0.0,0.0,0.0,0.0,0.0,0.0,0.0,0.0
1713690047400227152,11517,1713690047384411737,uav32/gps_garmin_origin,uav32/fcu,-29.174184027195075,8.444251634346209,0.12224638157560982,-0.00536083002279365,0.005618457551685592,0.3825934818305837,0.9238841483185803,0.0023004098140133665,0.0,0.0,0.0,0.0,0.0,0.0,0.0023004098140133665,0.0,0.0,0.0,0.0,0.0,0.0,0.04221186451073186,0.0,0.0,0.0,0.0,0.0,0.0,0.0,0.0,0.0,0.0,0.0,0.0,0.0,0.0,0.0,0.0,0.0,0.0,0.0,0.0,0.0,-0.03913298424068701,0.035614062773955756,0.014092061429360113,0.0002549431228544563,-0.0003895411209668964,-0.0001711308723315596,0.440397583894165,0.0,0.0,0.0,0.0,0.0,0.0,0.44039758389417605,0.0,0.0,0.0,0.0,0.0,0.0,0.014454252816834209,0.0,0.0,0.0,0.0,0.0,0.0,0.0,0.0,0.0,0.0,0.0,0.0,0.0,0.0,0.0,0.0,0.0,0.0,0.0,0.0,0.0
1713690047518063595,11527,1713690047484411613,uav32/gps_garmin_origin,uav32/fcu,-29.18045016565496,8.443024710974212,0.12114904784341958,-0.005364285221140741,0.005603121567696055,0.3825863110747057,0.923887210381252,0.0023026234253629616,0.0,0.0,0.0,0.0,0.0,0.0,0.002302623425362961,0.0,0.0,0.0,0.0,0.0,0.0,0.03835959588512922,0.0,0.0,0.0,0.0,0.0,0.0,0.0,0.0,0.0,0.0,0.0,0.0,0.0,0.0,0.0,0.0,0.0,0.0,0.0,0.0,0.0,-0.04374193348644276,0.03695533480196504,0.01382682953506838,-0.0002499992260709405,0.00039548880886286497,-0.0001410768745699898,0.4404208530402756,0.0,0.0,0.0,0.0,0.0,0.0,0.44042085304028333,0.0,0.0,0.0,0.0,0.0,0.0,0.01644320295913827,0.0,0.0,0.0,0.0,0.0,0.0,0.0,0.0,0.0,0.0,0.0,0.0,0.0,0.0,0.0,0.0,0.0,0.0,0.0,0.0,0.0
1713690047615935693,11538,1713690047594412221,uav32/gps_garmin_origin,uav32/fcu,-29.187056677818887,8.44144596980638,0.1209759581062658,-0.005355817808210703,0.005590271686917268,0.38256113879305986,0.9238977358352954,0.0023031032688548853,0.0,0.0,0.0,0.0,0.0,0.0,0.002303103268854886,0.0,0.0,0.0,0.0,0.0,0.0,0.029625930239671368,0.0,0.0,0.0,0.0,0.0,0.0,0.0,0.0,0.0,0.0,0.0,0.0,0.0,0.0,0.0,0.0,0.0,0.0,0.0,0.0,0.0,-0.0473062896189416,0.0368344151482527,0.013992617891830846,-0.0005601567681878805,0.00046003816532902414,-0.0005388559657149018,0.44042294914348834,0.0,0.0,0.0,0.0,0.0,0.0,0.44042294914349295,0.0,0.0,0.0,0.0,0.0,0.0,0.01645062643689633,0.0,0.0,0.0,0.0,0.0,0.0,0.0,0.0,0.0,0.0,0.0,0.0,0.0,0.0,0.0,0.0,0.0,0.0,0.0,0.0,0.0
1713690047718971057,11549,1713690047704412806,uav32/gps_garmin_origin,uav32/fcu,-29.194316317894046,8.439565052875755,0.12540698840008124,-0.0053556046529985085,0.005585369493848444,0.38255552415710764,0.923900098103281,0.002302215761800965,0.0,0.0,0.0,0.0,0.0,0.0,0.0023022157618009646,0.0,0.0,0.0,0.0,0.0,0.0,0.03719390597459448,0.0,0.0,0.0,0.0,0.0,0.0,0.0,0.0,0.0,0.0,0.0,0.0,0.0,0.0,0.0,0.0,0.0,0.0,0.0,0.0,0.0,-0.05187417388546123,0.03726650813582606,0.013886076885626498,-0.0005829177680425346,-0.000240032430156134,0.0005774357705377042,0.44040921832611335,0.0,0.0,0.0,0.0,0.0,0.0,0.4404092183261159,0.0,0.0,0.0,0.0,0.0,0.0,0.016392447016770284,0.0,0.0,0.0,0.0,0.0,0.0,0.0,0.0,0.0,0.0,0.0,0.0,0.0,0.0,0.0,0.0,0.0,0.0,0.0,0.0,0.0
1713690047832034960,11559,1713690047804415494,uav32/gps_garmin_origin,uav32/fcu,-29.200634486119423,8.438047681159166,0.12360845940534271,-0.00535819310234767,0.005590178851364616,0.382557454682343,0.9238992655484596,0.0023020636227673954,0.0,0.0,0.0,0.0,0.0,0.0,0.002302063622767396,0.0,0.0,0.0,0.0,0.0,0.0,0.029626388214261064,0.0,0.0,0.0,0.0,0.0,0.0,0.0,0.0,0.0,0.0,0.0,0.0,0.0,0.0,0.0,0.0,0.0,0.0,0.0,0.0,0.0,-0.05397393213219815,0.03744799373806817,0.013803389619922347,-0.0005097275716252625,0.0007767196511849761,0.00020449308794923116,0.4404071002687877,0.0,0.0,0.0,0.0,0.0,0.0,0.44040710026878904,0.0,0.0,0.0,0.0,0.0,0.0,0.016442340901081445,0.0,0.0,0.0,0.0,0.0,0.0,0.0,0.0,0.0,0.0,0.0,0.0,0.0,0.0,0.0,0.0,0.0,0.0,0.0,0.0,0.0
1713690047935163922,11570,1713690047914411154,uav32/gps_garmin_origin,uav32/fcu,-29.2085059713664,8.435678896717851,0.12365155943344618,-0.0053599599776588324,0.005579437360410994,0.3825727329148577,0.9238929755988929,0.002301711593784417,0.0,0.0,0.0,0.0,0.0,0.0,0.0023017115937844193,0.0,0.0,0.0,0.0,0.0,0.0,0.03717639761405619,0.0,0.0,0.0,0.0,0.0,0.0,0.0,0.0,0.0,0.0,0.0,0.0,0.0,0.0,0.0,0.0,0.0,0.0,0.0,0.0,0.0,-0.059000622016778824,0.037782725960711507,0.01410173522076728,0.00013576398487202823,0.000627180328592658,3.870168802677646e-05,0.44040245809637724,0.0,0.0,0.0,0.0,0.0,0.0,0.44040245809637757,0.0,0.0,0.0,0.0,0.0,0.0,0.01639828957792538,0.0,0.0,0.0,0.0,0.0,0.0,0.0,0.0,0.0,0.0,0.0,0.0,0.0,0.0,0.0,0.0,0.0,0.0,0.0,0.0,0.0
1713690048030006408,11580,1713690048014410746,uav32/gps_garmin_origin,uav32/fcu,-29.215694327096937,8.433934113985364,0.12592613392921023,-0.005361026405976798,0.005563643439819142,0.3825814268963618,0.9238894893733152,0.0023016353854020096,0.0,0.0,0.0,0.0,0.0,0.0,0.0023016353854020104,0.0,0.0,0.0,0.0,0.0,0.0,0.028345753770048596,0.0,0.0,0.0,0.0,0.0,0.0,0.0,0.0,0.0,0.0,0.0,0.0,0.0,0.0,0.0,0.0,0.0,0.0,0.0,0.0,0.0,-0.06159447529850619,0.039238574247359534,0.01394612385873788,0.0001804407947929576,-0.0005508115282282233,0.00012525016791187232,0.4404011221751311,0.0,0.0,0.0,0.0,0.0,0.0,0.44040112217513083,0.0,0.0,0.0,0.0,0.0,0.0,0.0070919112247112065,0.0,0.0,0.0,0.0,0.0,0.0,0.0,0.0,0.0,0.0,0.0,0.0,0.0,0.0,0.0,0.0,0.0,0.0,0.0,0.0,0.0
1713690048127185018,11590,1713690048114411742,uav32/gps_garmin_origin,uav32/fcu,-29.222806336942295,8.432198919935903,0.12250723296904711,-0.00536718253510615,0.005569825241820394,0.38260308102860924,0.9238804329115455,0.002302644167039957,0.0,0.0,0.0,0.0,0.0,0.0,0.002302644167039956,0.0,0.0,0.0,0.0,0.0,0.0,0.03733996717217743,0.0,0.0,0.0,0.0,0.0,0.0,0.0,0.0,0.0,0.0,0.0,0.0,0.0,0.0,0.0,0.0,0.0,0.0,0.0,0.0,0.0,-0.06308723329424781,0.03979577770395878,0.013852801399389344,0.0002621188177727163,-0.00019780492584686718,0.0006352653726935387,0.4404141271672002,0.0,0.0,0.0,0.0,0.0,0.0,0.44041412716719974,0.0,0.0,0.0,0.0,0.0,0.0,0.0072585574413689714,0.0,0.0,0.0,0.0,0.0,0.0,0.0,0.0,0.0,0.0,0.0,0.0,0.0,0.0,0.0,0.0,0.0,0.0,0.0,0.0,0.0
1713690048255325683,11601,1713690048224413293,uav32/gps_garmin_origin,uav32/fcu,-29.230418286873647,8.43078585306119,0.1210024873868575,-0.005376606956930459,0.0055690557294899344,0.38262950674494806,0.923869447928355,0.0023017848717103813,0.0,0.0,0.0,0.0,0.0,0.0,0.002301784871710383,0.0,0.0,0.0,0.0,0.0,0.0,0.02773794347695988,0.0,0.0,0.0,0.0,0.0,0.0,0.0,0.0,0.0,0.0,0.0,0.0,0.0,0.0,0.0,0.0,0.0,0.0,0.0,0.0,0.0,-0.0628435881684924,0.04106646077720285,0.0138299031536445,-0.00023264579067472368,5.9761987358797314e-05,-0.00020157723338343203,0.44040347195934304,0.0,0.0,0.0,0.0,0.0,0.0,0.44040347195934243,0.0,0.0,0.0,0.0,0.0,0.0,0.016464163210542147,0.0,0.0,0.0,0.0,0.0,0.0,0.0,0.0,0.0,0.0,0.0,0.0,0.0,0.0,0.0,0.0,0.0,0.0,0.0,0.0,0.0
1713690048409047345,11612,1713690048334417368,uav32/gps_garmin_origin,uav32/fcu,-29.238065031045696,8.429156793825666,0.12924984532507555,-0.005386505945470508,0.005576021928751517,0.38266484419254954,0.9238547081263391,0.0023018052328848903,0.0,0.0,0.0,0.0,0.0,0.0,0.0023018052328848907,0.0,0.0,0.0,0.0,0.0,0.0,0.03726148512482086,0.0,0.0,0.0,0.0,0.0,0.0,0.0,0.0,0.0,0.0,0.0,0.0,0.0,0.0,0.0,0.0,0.0,0.0,0.0,0.0,0.0,-0.0629100090386138,0.04117315602988964,0.0136130833542345,-0.00017529269098304212,-0.0005491169285960495,1.6416125845353909e-06,0.4404031910974441,0.0,0.0,0.0,0.0,0.0,0.0,0.44040319109744325,0.0,0.0,0.0,0.0,0.0,0.0,0.016501088237957907,0.0,0.0,0.0,0.0,0.0,0.0,0.0,0.0,0.0,0.0,0.0,0.0,0.0,0.0,0.0,0.0,0.0,0.0,0.0,0.0,0.0
1713690048740351441,11623,1713690048444412065,uav32/gps_garmin_origin,uav32/fcu,-29.245103795297297,8.427491030672698,0.12675099536344278,-0.005379927077587229,0.005585086148071368,0.38268775041550057,0.9238452036401125,0.0023020938768621192,0.0,0.0,0.0,0.0,0.0,0.0,0.00230209387686212,0.0,0.0,0.0,0.0,0.0,0.0,0.03743849907781502,0.0,0.0,0.0,0.0,0.0,0.0,0.0,0.0,0.0,0.0,0.0,0.0,0.0,0.0,0.0,0.0,0.0,0.0,0.0,0.0,0.0,-0.06179869582808643,0.03966880368706287,0.0141241441126282,-0.0006172744324430823,-0.0002610025403555482,0.00036185872158966964,0.4404070181742129,0.0,0.0,0.0,0.0,0.0,0.0,0.44040701817421263,0.0,0.0,0.0,0.0,0.0,0.0,0.016453457791944702,0.0,0.0,0.0,0.0,0.0,0.0,0.0,0.0,0.0,0.0,0.0,0.0,0.0,0.0,0.0,0.0,0.0,0.0,0.0,0.0,0.0
1713690048775694232,11634,1713690048554414176,uav32/gps_garmin_origin,uav32/fcu,-29.251694351623517,8.425556312359175,0.12254234598398202,-0.005375256349758357,0.005597477776227895,0.38270389712837943,0.9238384707470593,0.002301049238928229,0.0,0.0,0.0,0.0,0.0,0.0,0.0023010492389282295,0.0,0.0,0.0,0.0,0.0,0.0,0.032026802104236085,0.0,0.0,0.0,0.0,0.0,0.0,0.0,0.0,0.0,0.0,0.0,0.0,0.0,0.0,0.0,0.0,0.0,0.0,0.0,0.0,0.0,-0.06034762918265858,0.03678443141235796,0.01497206976149892,0.0007562434766441584,0.0006732179317623377,3.079203452216453e-05,0.44039446447612457,0.0,0.0,0.0,0.0,0.0,0.0,0.4403944644761243,0.0,0.0,0.0,0.0,0.0,0.0,0.016400898752065043,0.0,0.0,0.0,0.0,0.0,0.0,0.0,0.0,0.0,0.0,0.0,0.0,0.0,0.0,0.0,0.0,0.0,0.0,0.0,0.0,0.0
1713690048775700909,11645,1713690048664412422,uav32/gps_garmin_origin,uav32/fcu,-29.25945602380134,8.423112328169628,0.1212278169347707,-0.005364453154166273,0.005596638992458711,0.38270272657496257,0.9238390168996197,0.002299264306849281,0.0,0.0,0.0,0.0,0.0,0.0,0.0022992643068492817,0.0,0.0,0.0,0.0,0.0,0.0,0.037344861152431894,0.0,0.0,0.0,0.0,0.0,0.0,0.0,0.0,0.0,0.0,0.0,0.0,0.0,0.0,0.0,0.0,0.0,0.0,0.0,0.0,0.0,-0.06326731030638158,0.03639720678404283,0.01577713463727553,-0.00035609598853625357,-0.0004929978749714792,0.00021407695021480327,0.4403708764085629,0.0,0.0,0.0,0.0,0.0,0.0,0.4403708764085625,0.0,0.0,0.0,0.0,0.0,0.0,0.01638033150474838,0.0,0.0,0.0,0.0,0.0,0.0,0.0,0.0,0.0,0.0,0.0,0.0,0.0,0.0,0.0,0.0,0.0,0.0,0.0,0.0,0.0
1713690048825667179,11656,1713690048774415371,uav32/gps_garmin_origin,uav32/fcu,-29.267841725014037,8.41992605932998,0.1210300149113846,-0.005350505496946897,0.005579521584819959,0.38268610180696655,0.9238461012143382,0.0023039915379277267,0.0,0.0,0.0,0.0,0.0,0.0,0.0023039915379277284,0.0,0.0,0.0,0.0,0.0,0.0,0.028391852905030872,0.0,0.0,0.0,0.0,0.0,0.0,0.0,0.0,0.0,0.0,0.0,0.0,0.0,0.0,0.0,0.0,0.0,0.0,0.0,0.0,0.0,-0.06798666720625864,0.03567538742549604,0.016370327394434413,0.00012345293362159282,-0.00047537992941215634,-0.00016037026944104577,0.44043186520847677,0.0,0.0,0.0,0.0,0.0,0.0,0.44043186520847644,0.0,0.0,0.0,0.0,0.0,0.0,0.014117092543509608,0.0,0.0,0.0,0.0,0.0,0.0,0.0,0.0,0.0,0.0,0.0,0.0,0.0,0.0,0.0,0.0,0.0,0.0,0.0,0.0,0.0
1713690048941485127,11667,1713690048884413162,uav32/gps_garmin_origin,uav32/fcu,-29.276382581806264,8.416165018211581,0.12119208691808739,-0.005339078612794952,0.005571843725185497,0.38264994688945664,0.9238611786816959,0.0023016422273658904,0.0,0.0,0.0,0.0,0.0,0.0,0.0023016422273658896,0.0,0.0,0.0,0.0,0.0,0.0,0.0372474810668386,0.0,0.0,0.0,0.0,0.0,0.0,0.0,0.0,0.0,0.0,0.0,0.0,0.0,0.0,0.0,0.0,0.0,0.0,0.0,0.0,0.0,-0.07297955536047311,0.034148449082499324,0.016513809891829385,0.0001652408973313868,-0.00021079801081214103,-0.0003259803634136915,0.44040162571752567,0.0,0.0,0.0,0.0,0.0,0.0,0.4404016257175254,0.0,0.0,0.0,0.0,0.0,0.0,0.01645697400002373,0.0,0.0,0.0,0.0,0.0,0.0,0.0,0.0,0.0,0.0,0.0,0.0,0.0,0.0,0.0,0.0,0.0,0.0,0.0,0.0,0.0
1713690049039643553,11678,1713690048994464094,uav32/gps_garmin_origin,uav32/fcu,-29.283992180852653,8.412925154882966,0.12120100519802683,-0.005329754506328215,0.005570356756783655,0.38262253883806063,0.9238726003178307,0.002301807717398128,0.0,0.0,0.0,0.0,0.0,0.0,0.002301807717398128,0.0,0.0,0.0,0.0,0.0,0.0,0.037755063291576664,0.0,0.0,0.0,0.0,0.0,0.0,0.0,0.0,0.0,0.0,0.0,0.0,0.0,0.0,0.0,0.0,0.0,0.0,0.0,0.0,0.0,-0.0732690148523676,0.03217566144027904,0.01655419219100315,0.00017664044571574777,-5.831394082633779e-05,-5.489006071002222e-05,0.4404034971625317,0.0,0.0,0.0,0.0,0.0,0.0,0.4404034971625315,0.0,0.0,0.0,0.0,0.0,0.0,0.016439094815079804,0.0,0.0,0.0,0.0,0.0,0.0,0.0,0.0,0.0,0.0,0.0,0.0,0.0,0.0,0.0,0.0,0.0,0.0,0.0,0.0,0.0
1713690049133172557,11688,1713690049094460590,uav32/gps_garmin_origin,uav32/fcu,-29.291355616748522,8.409914288567178,0.12201390699421785,-0.005323904334411296,0.005588738753261057,0.3826161698328714,0.9238751526592885,0.002301489315691406,0.0,0.0,0.0,0.0,0.0,0.0,0.0023014893156914056,0.0,0.0,0.0,0.0,0.0,0.0,0.032132018010982345,0.0,0.0,0.0,0.0,0.0,0.0,0.0,0.0,0.0,0.0,0.0,0.0,0.0,0.0,0.0,0.0,0.0,0.0,0.0,0.0,0.0,-0.07452180777648465,0.031735410814963096,0.016034903857286183,-0.0005869082524441183,-0.00016437751764897263,-0.0004610109026543796,0.44039978579960526,0.0,0.0,0.0,0.0,0.0,0.0,0.4403997857996051,0.0,0.0,0.0,0.0,0.0,0.0,0.01646014220708848,0.0,0.0,0.0,0.0,0.0,0.0,0.0,0.0,0.0,0.0,0.0,0.0,0.0,0.0,0.0,0.0,0.0,0.0,0.0,0.0,0.0
1713690049887690622,11699,1713690049204464416,uav32/gps_garmin_origin,uav32/fcu,-29.298781396617557,8.407340803620015,0.12121116460356421,-0.005319634790784192,0.00559794323121634,0.38260983226935263,0.9238777403969856,0.0023016079544545378,0.0,0.0,0.0,0.0,0.0,0.0,0.002301607954454537,0.0,0.0,0.0,0.0,0.0,0.0,0.037679647148326126,0.0,0.0,0.0,0.0,0.0,0.0,0.0,0.0,0.0,0.0,0.0,0.0,0.0,0.0,0.0,0.0,0.0,0.0,0.0,0.0,0.0,-0.0723143449027645,0.03179079403332059,0.015717286684020865,-0.0001288188068429008,0.00018989088130183518,8.524957229383287e-05,0.4404012791508866,0.0,0.0,0.0,0.0,0.0,0.0,0.4404012791508864,0.0,0.0,0.0,0.0,0.0,0.0,0.016383435999525575,0.0,0.0,0.0,0.0,0.0,0.0,0.0,0.0,0.0,0.0,0.0,0.0,0.0,0.0,0.0,0.0,0.0,0.0,0.0,0.0,0.0
1713690049956858581,11710,1713690049314410984,uav32/gps_garmin_origin,uav32/fcu,-29.3073495020996,8.405641060564731,0.12102675947645515,-0.005344024483964538,0.005597362052173845,0.3826183463034984,0.9238740816400174,0.0023907723318661953,0.0,0.0,0.0,0.0,0.0,0.0,0.002390772331866196,0.0,0.0,0.0,0.0,0.0,0.0,0.029567018524892696,0.0,0.0,0.0,0.0,0.0,0.0,0.0,0.0,0.0,0.0,0.0,0.0,0.0,0.0,0.0,0.0,0.0,0.0,0.0,0.0,0.0,-0.0712156395906762,0.03636618542506011,0.015364032740422928,-0.00022482873464468867,0.0009240984800271691,0.000561712891794741,0.44153020228793605,0.0,0.0,0.0,0.0,0.0,0.0,0.4415302022978183,0.0,0.0,0.0,0.0,0.0,0.0,0.0163824614017965,0.0,0.0,0.0,0.0,0.0,0.0,0.0,0.0,0.0,0.0,0.0,0.0,0.0,0.0,0.0,0.0,0.0,0.0,0.0,0.0,0.0
1713690049958685845,11720,1713690049414416171,uav32/gps_garmin_origin,uav32/fcu,-29.31430139599405,8.404081241255243,0.12560175660548312,-0.005356223249304951,0.005607407982436646,0.38261797955992566,0.9238741129265948,0.0023030476370915678,0.0,0.0,0.0,0.0,0.0,0.0,0.002303047637091567,0.0,0.0,0.0,0.0,0.0,0.0,0.03735841796123856,0.0,0.0,0.0,0.0,0.0,0.0,0.0,0.0,0.0,0.0,0.0,0.0,0.0,0.0,0.0,0.0,0.0,0.0,0.0,0.0,0.0,-0.06871327501585918,0.03725606616086309,0.014858361567056767,0.00043275445932522416,0.00043204906978644425,-0.000641266698949039,0.4404035558854521,0.0,0.0,0.0,0.0,0.0,0.0,0.4404035558845532,0.0,0.0,0.0,0.0,0.0,0.0,0.016383370487529716,0.0,0.0,0.0,0.0,0.0,0.0,0.0,0.0,0.0,0.0,0.0,0.0,0.0,0.0,0.0,0.0,0.0,0.0,0.0,0.0,0.0
1713690050058980215,11730,1713690049514477720,uav32/gps_garmin_origin,uav32/fcu,-29.322201602969212,8.401357578469533,0.12407952610110896,-0.005348894733882458,0.0056199756349683645,0.3826240390491532,0.9238715624560333,0.0023017799648358617,0.0,0.0,0.0,0.0,0.0,0.0,0.0023017799648358626,0.0,0.0,0.0,0.0,0.0,0.0,0.029624300258820197,0.0,0.0,0.0,0.0,0.0,0.0,0.0,0.0,0.0,0.0,0.0,0.0,0.0,0.0,0.0,0.0,0.0,0.0,0.0,0.0,0.0,-0.07131320491756916,0.03724019253635322,0.014027641041682378,-0.0005691169644705951,-0.00040204881224781264,0.000878576363902539,0.4404083747153958,0.0,0.0,0.0,0.0,0.0,0.0,0.44040837471453126,0.0,0.0,0.0,0.0,0.0,0.0,0.015998813982932063,0.0,0.0,0.0,0.0,0.0,0.0,0.0,0.0,0.0,0.0,0.0,0.0,0.0,0.0,0.0,0.0,0.0,0.0,0.0,0.0,0.0
1713690050058993362,11740,1713690049614473611,uav32/gps_garmin_origin,uav32/fcu,-29.329819887369172,8.398917407830993,0.12480550212902425,-0.005343395243802433,0.005620736354375736,0.3826383324416718,0.9238656732199615,0.0029655443031487215,0.0,0.0,0.0,0.0,0.0,0.0,0.002965544303148711,0.0,0.0,0.0,0.0,0.0,0.0,0.03768086784915616,0.0,0.0,0.0,0.0,0.0,0.0,0.0,0.0,0.0,0.0,0.0,0.0,0.0,0.0,0.0,0.0,0.0,0.0,0.0,0.0,0.0,-0.07229412145477697,0.03758389328164605,0.013632520193687776,4.165831342106685e-06,0.00028905470389872784,-0.0003611227148212493,0.45093860358244753,0.0,0.0,0.0,0.0,0.0,0.0,0.4509386035820476,0.0,0.0,0.0,0.0,0.0,0.0,0.016376614679756735,0.0,0.0,0.0,0.0,0.0,0.0,0.0,0.0,0.0,0.0,0.0,0.0,0.0,0.0,0.0,0.0,0.0,0.0,0.0,0.0,0.0
1713690050116142131,11751,1713690049724469338,uav32/gps_garmin_origin,uav32/fcu,-29.3382498135487,8.395723491425201,0.12109348108473302,-0.005339175380202345,0.005610844814401441,0.38266140167018436,0.9238561995758497,0.0024309991332064915,0.0,0.0,0.0,0.0,0.0,0.0,0.0024309991332064906,0.0,0.0,0.0,0.0,0.0,0.0,0.02962403623039773,0.0,0.0,0.0,0.0,0.0,0.0,0.0,0.0,0.0,0.0,0.0,0.0,0.0,0.0,0.0,0.0,0.0,0.0,0.0,0.0,0.0,-0.07379757813462802,0.03644529103559612,0.013513110730158186,0.0003230363654438406,4.471104693948285e-05,-0.0004736149567179382,0.4418219271426461,0.0,0.0,0.0,0.0,0.0,0.0,0.44182192713928203,0.0,0.0,0.0,0.0,0.0,0.0,0.016526161863564936,0.0,0.0,0.0,0.0,0.0,0.0,0.0,0.0,0.0,0.0,0.0,0.0,0.0,0.0,0.0,0.0,0.0,0.0,0.0,0.0,0.0
1713690050134777664,11762,1713690049834411559,uav32/gps_garmin_origin,uav32/fcu,-29.34662957375527,8.392991390520391,0.12107484927944018,-0.005339904017657723,0.005614231677317183,0.38270233799826364,0.9238392062291448,0.00245344863750466,0.0,0.0,0.0,0.0,0.0,0.0,0.0024534486375046606,0.0,0.0,0.0,0.0,0.0,0.0,0.03724169515365216,0.0,0.0,0.0,0.0,0.0,0.0,0.0,0.0,0.0,0.0,0.0,0.0,0.0,0.0,0.0,0.0,0.0,0.0,0.0,0.0,0.0,-0.07401611271221264,0.036747004973361024,0.013140947750422332,0.0003420188440941274,0.0007105517433956267,0.0006712367176078259,0.44233875056367006,0.0,0.0,0.0,0.0,0.0,0.0,0.44233875057767563,0.0,0.0,0.0,0.0,0.0,0.0,0.016453052799393925,0.0,0.0,0.0,0.0,0.0,0.0,0.0,0.0,0.0,0.0,0.0,0.0,0.0,0.0,0.0,0.0,0.0,0.0,0.0,0.0,0.0
1713690050298843872,11773,1713690049944470224,uav32/gps_garmin_origin,uav32/fcu,-29.355152929455677,8.389984087066074,0.12106026015347482,-0.005339266784470171,0.00561379552351936,0.3827398816334655,0.9238236793712773,0.0023024462698934037,0.0,0.0,0.0,0.0,0.0,0.0,0.002302446269893403,0.0,0.0,0.0,0.0,0.0,0.0,0.03889543028639962,0.0,0.0,0.0,0.0,0.0,0.0,0.0,0.0,0.0,0.0,0.0,0.0,0.0,0.0,0.0,0.0,0.0,0.0,0.0,0.0,0.0,-0.07478707439849855,0.03645966870336109,0.01228512326019686,-0.0001883116492535919,-0.0010815819259732962,0.00043045167694799613,0.4404019237288254,0.0,0.0,0.0,0.0,0.0,0.0,0.44040192372861253,0.0,0.0,0.0,0.0,0.0,0.0,0.01607110390460737,0.0,0.0,0.0,0.0,0.0,0.0,0.0,0.0,0.0,0.0,0.0,0.0,0.0,0.0,0.0,0.0,0.0,0.0,0.0,0.0,0.0
1713690050298870832,11783,1713690050044472652,uav32/gps_garmin_origin,uav32/fcu,-29.362857613498026,8.387043959908492,0.12286835508110394,-0.005333964479238454,0.005615731068326952,0.38274529291398823,0.9238214481997967,0.002481616642785152,0.0,0.0,0.0,0.0,0.0,0.0,0.002481616642785153,0.0,0.0,0.0,0.0,0.0,0.0,0.03724385170955143,0.0,0.0,0.0,0.0,0.0,0.0,0.0,0.0,0.0,0.0,0.0,0.0,0.0,0.0,0.0,0.0,0.0,0.0,0.0,0.0,0.0,-0.07577969120756868,0.03569612272366982,0.011572945427756125,-6.57710843370296e-05,-6.154247967060657e-05,-0.0001497553166700527,0.44273128715431526,0.0,0.0,0.0,0.0,0.0,0.0,0.442731287150678,0.0,0.0,0.0,0.0,0.0,0.0,0.016450795402581438,0.0,0.0,0.0,0.0,0.0,0.0,0.0,0.0,0.0,0.0,0.0,0.0,0.0,0.0,0.0,0.0,0.0,0.0,0.0,0.0,0.0
1713690050298927195,11794,1713690050154411018,uav32/gps_garmin_origin,uav32/fcu,-29.370831302086042,8.38384055025114,0.12106846215528429,-0.005336026794524194,0.005619598183929382,0.38275662325102333,0.9238167154502626,0.0023203341566044554,0.0,0.0,0.0,0.0,0.0,0.0,0.0023203341566044567,0.0,0.0,0.0,0.0,0.0,0.0,0.037697180804719184,0.0,0.0,0.0,0.0,0.0,0.0,0.0,0.0,0.0,0.0,0.0,0.0,0.0,0.0,0.0,0.0,0.0,0.0,0.0,0.0,0.0,-0.07507215805760471,0.03391291396822634,0.0107274277932295,4.36095979239326e-05,0.00023772960412316035,0.0008329199627041817,0.440516594585266,0.0,0.0,0.0,0.0,0.0,0.0,0.4405165945849947,0.0,0.0,0.0,0.0,0.0,0.0,0.01638777844202665,0.0,0.0,0.0,0.0,0.0,0.0,0.0,0.0,0.0,0.0,0.0,0.0,0.0,0.0,0.0,0.0,0.0,0.0,0.0,0.0,0.0
1713690050298957664,11805,1713690050264485449,uav32/gps_garmin_origin,uav32/fcu,-29.37967207025585,8.381229182716098,0.12090410635113102,-0.005339063344456779,0.005639471998167847,0.38276436837381006,0.9238133562568968,0.0023017051260351955,0.0,0.0,0.0,0.0,0.0,0.0,0.0023017051260351947,0.0,0.0,0.0,0.0,0.0,0.0,0.03205444638095889,0.0,0.0,0.0,0.0,0.0,0.0,0.0,0.0,0.0,0.0,0.0,0.0,0.0,0.0,0.0,0.0,0.0,0.0,0.0,0.0,0.0,-0.07519395772106237,0.03612230327623806,0.010171181507909554,0.00032933487091213465,-6.088214286137369e-05,0.0002516173117328435,0.4404194852632259,0.0,0.0,0.0,0.0,0.0,0.0,0.44041948526324365,0.0,0.0,0.0,0.0,0.0,0.0,0.01610969516807675,0.0,0.0,0.0,0.0,0.0,0.0,0.0,0.0,0.0,0.0,0.0,0.0,0.0,0.0,0.0,0.0,0.0,0.0,0.0,0.0,0.0
1713690050432629545,11815,1713690050364410440,uav32/gps_garmin_origin,uav32/fcu,-29.38677635075599,8.379149499341445,0.12095113909454142,-0.005340124961786864,0.0056516091020974765,0.38277192834841667,0.9238101675443166,0.0031110593804535343,0.0,0.0,0.0,0.0,0.0,0.0,0.003111059381043226,0.0,0.0,0.0,0.0,0.0,0.0,0.0377267667765196,0.0,0.0,0.0,0.0,0.0,0.0,0.0,0.0,0.0,0.0,0.0,0.0,0.0,0.0,0.0,0.0,0.0,0.0,0.0,0.0,0.0,-0.07255497675360992,0.03603259499929518,0.01000264411261661,-0.0006186860264278948,-0.0007108745048753916,0.0008693811832927168,0.45256978594375763,0.0,0.0,0.0,0.0,0.0,0.0,0.45256978594776254,0.0,0.0,0.0,0.0,0.0,0.0,0.016437103283961096,0.0,0.0,0.0,0.0,0.0,0.0,0.0,0.0,0.0,0.0,0.0,0.0,0.0,0.0,0.0,0.0,0.0,0.0,0.0,0.0,0.0
1713690050659193563,11826,1713690050474470131,uav32/gps_garmin_origin,uav32/fcu,-29.395796452100353,8.376773959807142,0.12087570703060611,-0.005337783211821255,0.005656831440729919,0.3827611058288913,0.9238146175750079,0.0024712268338552123,0.0,0.0,0.0,0.0,0.0,0.0,0.0024712268338552114,0.0,0.0,0.0,0.0,0.0,0.0,0.03209050629218221,0.0,0.0,0.0,0.0,0.0,0.0,0.0,0.0,0.0,0.0,0.0,0.0,0.0,0.0,0.0,0.0,0.0,0.0,0.0,0.0,0.0,-0.0734852028896315,0.03870240414178829,0.009518344310885272,-0.00047692644875496626,5.5368927860399654e-05,-0.00042179564479738474,0.44221374913960576,0.0,0.0,0.0,0.0,0.0,0.0,0.44257929608969654,0.0,0.0,0.0,0.0,0.0,0.0,0.016498128301859646,0.0,0.0,0.0,0.0,0.0,0.0,0.0,0.0,0.0,0.0,0.0,0.0,0.0,0.0,0.0,0.0,0.0,0.0,0.0,0.0,0.0
1713690050659202859,11836,1713690050574467989,uav32/gps_garmin_origin,uav32/fcu,-29.403614955516666,8.37442763961837,0.12091511630166016,-0.005325611018314134,0.005642980383404811,0.38273891828047535,0.9238239781985331,0.0024200834700845095,0.0,0.0,0.0,0.0,0.0,0.0,0.0024200834700845095,0.0,0.0,0.0,0.0,0.0,0.0,0.03779225912997909,0.0,0.0,0.0,0.0,0.0,0.0,0.0,0.0,0.0,0.0,0.0,0.0,0.0,0.0,0.0,0.0,0.0,0.0,0.0,0.0,0.0,-0.07328998409412132,0.03890994196013612,0.00902774029953174,-2.0673607650678605e-05,-0.0005757308681495487,0.0005139370914548637,0.44192663627864354,0.0,0.0,0.0,0.0,0.0,0.0,0.4418096075694641,0.0,0.0,0.0,0.0,0.0,0.0,0.016501943617986896,0.0,0.0,0.0,0.0,0.0,0.0,0.0,0.0,0.0,0.0,0.0,0.0,0.0,0.0,0.0,0.0,0.0,0.0,0.0,0.0,0.0
1713690050809908567,11846,1713690050674417044,uav32/gps_garmin_origin,uav32/fcu,-29.412109666395516,8.371674048124284,0.12083447751760161,-0.005325901487274091,0.005650400641501313,0.38271474880336387,0.9238339392426277,0.002469990834123313,0.0,0.0,0.0,0.0,0.0,0.0,0.002469990834123313,0.0,0.0,0.0,0.0,0.0,0.0,0.03206452507628152,0.0,0.0,0.0,0.0,0.0,0.0,0.0,0.0,0.0,0.0,0.0,0.0,0.0,0.0,0.0,0.0,0.0,0.0,0.0,0.0,0.0,-0.07558591050179916,0.03964058123113074,0.008132211079040441,-0.0003607013204600662,0.00031420719460584223,-8.203636389225725e-05,0.4424529003354457,0.0,0.0,0.0,0.0,0.0,0.0,0.4423750045553505,0.0,0.0,0.0,0.0,0.0,0.0,0.016441367574579153,0.0,0.0,0.0,0.0,0.0,0.0,0.0,0.0,0.0,0.0,0.0,0.0,0.0,0.0,0.0,0.0,0.0,0.0,0.0,0.0,0.0
1713690050810164547,11857,1713690050784471035,uav32/gps_garmin_origin,uav32/fcu,-29.420584252695903,8.368896712190107,0.1469651553332024,-0.005315051088664681,0.005660444423231798,0.38269440318511344,0.9238423523920478,0.002494692101586996,0.0,0.0,0.0,0.0,0.0,0.0,0.002494692101586997,0.0,0.0,0.0,0.0,0.0,0.0,0.03808147644481452,0.0,0.0,0.0,0.0,0.0,0.0,0.0,0.0,0.0,0.0,0.0,0.0,0.0,0.0,0.0,0.0,0.0,0.0,0.0,0.0,0.0,-0.07485652614418858,0.03880217679518604,0.00735186285282228,-1.5492729289690033e-05,0.000256385828834027,-0.0004398985183797777,0.4428317518151002,0.0,0.0,0.0,0.0,0.0,0.0,0.4427974555694107,0.0,0.0,0.0,0.0,0.0,0.0,0.016506424070249874,0.0,0.0,0.0,0.0,0.0,0.0,0.0,0.0,0.0,0.0,0.0,0.0,0.0,0.0,0.0,0.0,0.0,0.0,0.0,0.0,0.0
1713690050924722536,11868,1713690050894469045,uav32/gps_garmin_origin,uav32/fcu,-29.429527340443947,8.366226894095384,0.1245523200078718,-0.00530917058020578,0.0056818560570139915,0.38269183063508116,0.9238433207654208,0.0023202197681378494,0.0,0.0,0.0,0.0,0.0,0.0,0.0023202197681378477,0.0,0.0,0.0,0.0,0.0,0.0,0.029627175607826867,0.0,0.0,0.0,0.0,0.0,0.0,0.0,0.0,0.0,0.0,0.0,0.0,0.0,0.0,0.0,0.0,0.0,0.0,0.0,0.0,0.0,-0.07525350709371093,0.039656545921427394,0.0065369120058828036,-4.969569999957457e-05,-0.0001772856921888887,0.0007374300039373338,0.44055681037567596,0.0,0.0,0.0,0.0,0.0,0.0,0.44054395189615164,0.0,0.0,0.0,0.0,0.0,0.0,0.006241086637098802,0.0,0.0,0.0,0.0,0.0,0.0,0.0,0.0,0.0,0.0,0.0,0.0,0.0,0.0,0.0,0.0,0.0,0.0,0.0,0.0,0.0
1713690051213915342,11879,1713690051004416531,uav32/gps_garmin_origin,uav32/fcu,-29.43755781422551,8.363241357447611,0.12527976372747415,-0.005310392270668602,0.005696133569293791,0.3826967352353548,0.9238412044449138,0.002301765013802729,0.0,0.0,0.0,0.0,0.0,0.0,0.0023017650138027275,0.0,0.0,0.0,0.0,0.0,0.0,0.03723535999907948,0.0,0.0,0.0,0.0,0.0,0.0,0.0,0.0,0.0,0.0,0.0,0.0,0.0,0.0,0.0,0.0,0.0,0.0,0.0,0.0,0.0,-0.07423778322613182,0.037167895139411954,0.005312947258138328,-0.0001299971336266026,0.000963950762525201,0.000766565732192248,0.44044638339580555,0.0,0.0,0.0,0.0,0.0,0.0,0.44044264503631436,0.0,0.0,0.0,0.0,0.0,0.0,0.014331854532772616,0.0,0.0,0.0,0.0,0.0,0.0,0.0,0.0,0.0,0.0,0.0,0.0,0.0,0.0,0.0,0.0,0.0,0.0,0.0,0.0,0.0
1713690051268334558,11889,1713690051104426339,uav32/gps_garmin_origin,uav32/fcu,-29.445524858519065,8.35933887309058,0.12090076358342142,-0.005299935428704694,0.005700057969004459,0.38269825554786235,0.9238406007288332,0.0024145333975712033,0.0,0.0,0.0,0.0,0.0,0.0,0.002414533397571205,0.0,0.0,0.0,0.0,0.0,0.0,0.029596935039369002,0.0,0.0,0.0,0.0,0.0,0.0,0.0,0.0,0.0,0.0,0.0,0.0,0.0,0.0,0.0,0.0,0.0,0.0,0.0,0.0,0.0,-0.07748863936339515,0.03431733490152162,0.004425961927444332,0.00021422430290840566,0.0005431575118564069,-0.00010336426930734894,0.44178758882418595,0.0,0.0,0.0,0.0,0.0,0.0,0.4417872056842574,0.0,0.0,0.0,0.0,0.0,0.0,0.01643389372239023,0.0,0.0,0.0,0.0,0.0,0.0,0.0,0.0,0.0,0.0,0.0,0.0,0.0,0.0,0.0,0.0,0.0,0.0,0.0,0.0,0.0
1713690051268346729,11900,1713690051214469306,uav32/gps_garmin_origin,uav32/fcu,-29.453600087873916,8.355892778867563,0.12071125761284822,-0.005287930968856021,0.005696625075702209,0.3827098094626684,0.9238359305672774,0.00249440424633098,0.0,0.0,0.0,0.0,0.0,0.0,0.0024944042463309808,0.0,0.0,0.0,0.0,0.0,0.0,0.03716473175695176,0.0,0.0,0.0,0.0,0.0,0.0,0.0,0.0,0.0,0.0,0.0,0.0,0.0,0.0,0.0,0.0,0.0,0.0,0.0,0.0,0.0,-0.0766923145414898,0.03260370729629949,0.0034956944323179134,-0.00029456583433784544,-0.00026979797985404735,-0.0003707356518134474,0.44279018464048747,0.0,0.0,0.0,0.0,0.0,0.0,0.4427910711551058,0.0,0.0,0.0,0.0,0.0,0.0,0.01638012650563775,0.0,0.0,0.0,0.0,0.0,0.0,0.0,0.0,0.0,0.0,0.0,0.0,0.0,0.0,0.0,0.0,0.0,0.0,0.0,0.0,0.0
1713690051397257305,11910,1713690051314470856,uav32/gps_garmin_origin,uav32/fcu,-29.460501519765067,8.353525114676607,0.12064836805855533,-0.005288633846461169,0.005721931141045001,0.3827278881096705,0.9238282538008803,0.0023983421106166707,0.0,0.0,0.0,0.0,0.0,0.0,0.002398342110616669,0.0,0.0,0.0,0.0,0.0,0.0,0.028908811638748002,0.0,0.0,0.0,0.0,0.0,0.0,0.0,0.0,0.0,0.0,0.0,0.0,0.0,0.0,0.0,0.0,0.0,0.0,0.0,0.0,0.0,-0.07350009655881064,0.032191231599079405,0.0031824974604454945,0.0007751404191367328,-0.0003921751922462136,-0.00027404897264204914,0.441565438021303,0.0,0.0,0.0,0.0,0.0,0.0,0.44156651245533785,0.0,0.0,0.0,0.0,0.0,0.0,0.0163900000915289,0.0,0.0,0.0,0.0,0.0,0.0,0.0,0.0,0.0,0.0,0.0,0.0,0.0,0.0,0.0,0.0,0.0,0.0,0.0,0.0,0.0
1713690051439998299,11920,1713690051414412224,uav32/gps_garmin_origin,uav32/fcu,-29.467016176508174,8.351313147615878,0.12066493114465832,-0.005288131912433123,0.005741960050829267,0.38274934126777005,0.9238192579865252,0.0031326201550594024,0.0,0.0,0.0,0.0,0.0,0.0,0.003132620578895938,0.0,0.0,0.0,0.0,0.0,0.0,0.03736441740336751,0.0,0.0,0.0,0.0,0.0,0.0,0.0,0.0,0.0,0.0,0.0,0.0,0.0,0.0,0.0,0.0,0.0,0.0,0.0,0.0,0.0,-0.06999417951783372,0.031378569752472274,0.0027457240022432396,0.0002828036667779088,0.0002083219005726279,0.0008084838627837598,0.45272646248558046,0.0,0.0,0.0,0.0,0.0,0.0,0.45272744262013215,0.0,0.0,0.0,0.0,0.0,0.0,0.01638643966629303,0.0,0.0,0.0,0.0,0.0,0.0,0.0,0.0,0.0,0.0,0.0,0.0,0.0,0.0,0.0,0.0,0.0,0.0,0.0,0.0,0.0
1713690051530707240,11931,1713690051524467076,uav32/gps_garmin_origin,uav32/fcu,-29.474193879381406,8.348537894220426,0.12065583048686444,-0.005282666667329197,0.005755953609748992,0.3827758511816719,0.9238082230089201,0.0024893522279189166,0.0,0.0,0.0,0.0,0.0,0.0,0.0024893522279189175,0.0,0.0,0.0,0.0,0.0,0.0,0.039647284518188095,0.0,0.0,0.0,0.0,0.0,0.0,0.0,0.0,0.0,0.0,0.0,0.0,0.0,0.0,0.0,0.0,0.0,0.0,0.0,0.0,0.0,-0.06782755164520253,0.029949243517937624,0.002370372114667823,-0.00014879317313898355,0.00074378855060786,-0.000498191046062857,0.4427632716026298,0.0,0.0,0.0,0.0,0.0,0.0,0.44276394456187623,0.0,0.0,0.0,0.0,0.0,0.0,0.016492066429502593,0.0,0.0,0.0,0.0,0.0,0.0,0.0,0.0,0.0,0.0,0.0,0.0,0.0,0.0,0.0,0.0,0.0,0.0,0.0,0.0,0.0
1713690051703879831,11941,1713690051624467898,uav32/gps_garmin_origin,uav32/fcu,-29.481099400034985,8.346227176423291,0.12062981989287379,-0.005283651094360555,0.0057690401438073545,0.38279405874727807,0.9238005867257607,0.0023313107835797606,0.0,0.0,0.0,0.0,0.0,0.0,0.00233131078357976,0.0,0.0,0.0,0.0,0.0,0.0,0.03719948761619218,0.0,0.0,0.0,0.0,0.0,0.0,0.0,0.0,0.0,0.0,0.0,0.0,0.0,0.0,0.0,0.0,0.0,0.0,0.0,0.0,0.0,-0.066921307361663,0.030571416472118286,0.0019963216087161787,7.776538404868916e-05,0.0005641457973979414,-0.00033571314997971063,0.44065627294091253,0.0,0.0,0.0,0.0,0.0,0.0,0.4406567176864369,0.0,0.0,0.0,0.0,0.0,0.0,0.0070921548278352654,0.0,0.0,0.0,0.0,0.0,0.0,0.0,0.0,0.0,0.0,0.0,0.0,0.0,0.0,0.0,0.0,0.0,0.0,0.0,0.0,0.0
1713690051754551997,11952,1713690051734410792,uav32/gps_garmin_origin,uav32/fcu,-29.48834368741522,8.343575784550866,0.12063077241621567,-0.005285656699458199,0.005786797950321604,0.38280025267246015,0.9237979116288055,0.0023016887604049843,0.0,0.0,0.0,0.0,0.0,0.0,0.0023016887604049847,0.0,0.0,0.0,0.0,0.0,0.0,0.03963659336528385,0.0,0.0,0.0,0.0,0.0,0.0,0.0,0.0,0.0,0.0,0.0,0.0,0.0,0.0,0.0,0.0,0.0,0.0,0.0,0.0,0.0,-0.06544032598420715,0.029881863313493358,0.001982065188857986,0.00033852391061373055,-0.0004022510256618262,-0.000500555441249162,0.4404358304096028,0.0,0.0,0.0,0.0,0.0,0.0,0.44043608411893126,0.0,0.0,0.0,0.0,0.0,0.0,0.007266329648704659,0.0,0.0,0.0,0.0,0.0,0.0,0.0,0.0,0.0,0.0,0.0,0.0,0.0,0.0,0.0,0.0,0.0,0.0,0.0,0.0,0.0
1713690051876741230,11962,1713690051834414424,uav32/gps_garmin_origin,uav32/fcu,-29.494625752342817,8.341074084613508,0.12060974109356123,-0.0052829483867282,0.005799344903790214,0.3827997910245921,0.9237980393101881,0.002481645500830132,0.0,0.0,0.0,0.0,0.0,0.0,0.002481645500830132,0.0,0.0,0.0,0.0,0.0,0.0,0.03723911595384679,0.0,0.0,0.0,0.0,0.0,0.0,0.0,0.0,0.0,0.0,0.0,0.0,0.0,0.0,0.0,0.0,0.0,0.0,0.0,0.0,0.0,-0.06415553524475445,0.028497913858369514,0.001541914331965535,0.0003477136488072574,0.0006556456792168319,-0.00026951599284075206,0.44274814037553933,0.0,0.0,0.0,0.0,0.0,0.0,0.44274827325199645,0.0,0.0,0.0,0.0,0.0,0.0,0.016450514300621777,0.0,0.0,0.0,0.0,0.0,0.0,0.0,0.0,0.0,0.0,0.0,0.0,0.0,0.0,0.0,0.0,0.0,0.0,0.0,0.0,0.0
1713690051972802662,11972,1713690051934425681,uav32/gps_garmin_origin,uav32/fcu,-29.500590669249235,8.338591986310606,0.12056850566651689,-0.005278513889355941,0.005814376478784106,0.38278863025943566,0.9238025885268398,0.002422085680993855,0.0,0.0,0.0,0.0,0.0,0.0,0.002422085680993856,0.0,0.0,0.0,0.0,0.0,0.0,0.028939144836273717,0.0,0.0,0.0,0.0,0.0,0.0,0.0,0.0,0.0,0.0,0.0,0.0,0.0,0.0,0.0,0.0,0.0,0.0,0.0,0.0,0.0,-0.06228505999394373,0.026815650339462586,0.0008367351496652159,-0.00015390265616588295,0.00013905183004681026,0.0005166120245121419,0.44178808814476783,0.0,0.0,0.0,0.0,0.0,0.0,0.44178813758602997,0.0,0.0,0.0,0.0,0.0,0.0,0.01645625717537887,0.0,0.0,0.0,0.0,0.0,0.0,0.0,0.0,0.0,0.0,0.0,0.0,0.0,0.0,0.0,0.0,0.0,0.0,0.0,0.0,0.0
1713690052080614242,11983,1713690052044470581,uav32/gps_garmin_origin,uav32/fcu,-29.507083282603745,8.335818702790077,0.12056131613252416,-0.005271011797598435,0.005821764578245518,0.3827695067221387,0.9238104880216259,0.0023267740077288837,0.0,0.0,0.0,0.0,0.0,0.0,0.0023267740077288846,0.0,0.0,0.0,0.0,0.0,0.0,0.03216974329763378,0.0,0.0,0.0,0.0,0.0,0.0,0.0,0.0,0.0,0.0,0.0,0.0,0.0,0.0,0.0,0.0,0.0,0.0,0.0,0.0,0.0,-0.06095125624012494,0.025278923144544063,0.0005563716401026281,-8.951025847636629e-06,-0.0005868644220754504,-0.00033271437860094005,0.44062134981499607,0.0,0.0,0.0,0.0,0.0,0.0,0.4406213430969135,0.0,0.0,0.0,0.0,0.0,0.0,0.01647411052263756,0.0,0.0,0.0,0.0,0.0,0.0,0.0,0.0,0.0,0.0,0.0,0.0,0.0,0.0,0.0,0.0,0.0,0.0,0.0,0.0,0.0
1713690052303058392,11994,1713690052154469171,uav32/gps_garmin_origin,uav32/fcu,-29.51358424684163,8.332873036403752,0.12056030078411108,-0.005261248768842699,0.005831420871599828,0.38274766034241914,0.9238195327842499,0.002457001636852068,0.0,0.0,0.0,0.0,0.0,0.0,0.002457001636852068,0.0,0.0,0.0,0.0,0.0,0.0,0.03834882797901824,0.0,0.0,0.0,0.0,0.0,0.0,0.0,0.0,0.0,0.0,0.0,0.0,0.0,0.0,0.0,0.0,0.0,0.0,0.0,0.0,0.0,-0.060188229233551396,0.02384619495128263,0.00036864445996280006,-1.2559011338453274e-05,-1.3392176697379848e-05,0.0005006278515793383,0.442410239280025,0.0,0.0,0.0,0.0,0.0,0.0,0.44241020194290637,0.0,0.0,0.0,0.0,0.0,0.0,0.01643674090047171,0.0,0.0,0.0,0.0,0.0,0.0,0.0,0.0,0.0,0.0,0.0,0.0,0.0,0.0,0.0,0.0,0.0,0.0,0.0,0.0,0.0
1713690052314623441,12004,1713690052254472783,uav32/gps_garmin_origin,uav32/fcu,-29.519809513394797,8.32898045722852,0.1205377690675712,-0.005241191442387235,0.005824102556068756,0.3827282236829034,0.9238277470287151,0.002415606691784566,0.0,0.0,0.0,0.0,0.0,0.0,0.0024156066917845657,0.0,0.0,0.0,0.0,0.0,0.0,0.03206520253564924,0.0,0.0,0.0,0.0,0.0,0.0,0.0,0.0,0.0,0.0,0.0,0.0,0.0,0.0,0.0,0.0,0.0,0.0,0.0,0.0,0.0,-0.06356026431771304,0.020698171597998954,-8.031777070106134e-05,0.0003342644195072353,0.0006989453686401248,-0.0003784240980166943,0.4417746082917418,0.0,0.0,0.0,0.0,0.0,0.0,0.44177455778423314,0.0,0.0,0.0,0.0,0.0,0.0,0.01642201237081448,0.0,0.0,0.0,0.0,0.0,0.0,0.0,0.0,0.0,0.0,0.0,0.0,0.0,0.0,0.0,0.0,0.0,0.0,0.0,0.0,0.0
1713690052410395159,12015,1713690052364469702,uav32/gps_garmin_origin,uav32/fcu,-29.528007476252032,8.323201012437687,0.12052759402883732,-0.0052074790554337575,0.00579943199627947,0.3827067888003776,0.9238370007951684,0.002348699377120096,0.0,0.0,0.0,0.0,0.0,0.0,0.0023486993771200965,0.0,0.0,0.0,0.0,0.0,0.0,0.038360220125688654,0.0,0.0,0.0,0.0,0.0,0.0,0.0,0.0,0.0,0.0,0.0,0.0,0.0,0.0,0.0,0.0,0.0,0.0,0.0,0.0,0.0,-0.07213674852641612,0.01806979223701733,-0.0004899785502766742,-1.5600662663928233e-05,0.00012345792492851615,7.643783465027808e-05,0.44084777091608546,0.0,0.0,0.0,0.0,0.0,0.0,0.4408477159286661,0.0,0.0,0.0,0.0,0.0,0.0,0.014066401257420438,0.0,0.0,0.0,0.0,0.0,0.0,0.0,0.0,0.0,0.0,0.0,0.0,0.0,0.0,0.0,0.0,0.0,0.0,0.0,0.0,0.0
1713690052537893133,12026,1713690052474470550,uav32/gps_garmin_origin,uav32/fcu,-29.536984232266736,8.312244428542126,0.12048690349184232,-0.00512472235414951,0.00575173765354215,0.38268286856593486,0.9238476526882252,0.0023010250142491036,0.0,0.0,0.0,0.0,0.0,0.0,0.002301025014249104,0.0,0.0,0.0,0.0,0.0,0.0,0.029619394834406333,0.0,0.0,0.0,0.0,0.0,0.0,0.0,0.0,0.0,0.0,0.0,0.0,0.0,0.0,0.0,0.0,0.0,0.0,0.0,0.0,0.0,-0.09176078085978209,0.005809497575862275,-0.001897972003074706,-0.00031322267022915184,0.00031988631235435605,0.00015939766308292744,0.44042070926470656,0.0,0.0,0.0,0.0,0.0,0.0,0.440420655738459,0.0,0.0,0.0,0.0,0.0,0.0,0.016404279377603803,0.0,0.0,0.0,0.0,0.0,0.0,0.0,0.0,0.0,0.0,0.0,0.0,0.0,0.0,0.0,0.0,0.0,0.0,0.0,0.0,0.0
1713690052643856259,12036,1713690052574411645,uav32/gps_garmin_origin,uav32/fcu,-29.545581150705804,8.30265706307807,0.1450697410100654,-0.0050715634116596485,0.005714052761568161,0.38267647030356705,0.9238508421370355,0.003127630341991977,0.0,0.0,0.0,0.0,0.0,0.0,0.003127630322394578,0.0,0.0,0.0,0.0,0.0,0.0,0.03740961086834526,0.0,0.0,0.0,0.0,0.0,0.0,0.0,0.0,0.0,0.0,0.0,0.0,0.0,0.0,0.0,0.0,0.0,0.0,0.0,0.0,0.0,-0.10456047193945825,3.5458052392961965e-06,-0.0027954277005172055,-0.00015482987510040402,0.0004691784852184355,-1.2559345123008882e-05,0.4527215244798832,0.0,0.0,0.0,0.0,0.0,0.0,0.45272147208884045,0.0,0.0,0.0,0.0,0.0,0.0,0.016455394838936856,0.0,0.0,0.0,0.0,0.0,0.0,0.0,0.0,0.0,0.0,0.0,0.0,0.0,0.0,0.0,0.0,0.0,0.0,0.0,0.0,0.0
1713690052700710233,12047,1713690052684490904,uav32/gps_garmin_origin,uav32/fcu,-29.554846193602284,8.294489278730016,0.12124163801420032,-0.005070513576049195,0.00569866867854117,0.3826712358746684,0.9238531128837145,0.0024206477938359776,0.0,0.0,0.0,0.0,0.0,0.0,0.0024206477938359785,0.0,0.0,0.0,0.0,0.0,0.0,0.029591584314733507,0.0,0.0,0.0,0.0,0.0,0.0,0.0,0.0,0.0,0.0,0.0,0.0,0.0,0.0,0.0,0.0,0.0,0.0,0.0,0.0,0.0,-0.10916777011800306,0.000767369928949109,-0.003967226044360825,0.0006476412527263165,-0.00020762167696375392,0.0006075721466913819,0.441767761902836,0.0,0.0,0.0,0.0,0.0,0.0,0.441767717973065,0.0,0.0,0.0,0.0,0.0,0.0,0.01644583199507609,0.0,0.0,0.0,0.0,0.0,0.0,0.0,0.0,0.0,0.0,0.0,0.0,0.0,0.0,0.0,0.0,0.0,0.0,0.0,0.0,0.0
1713690052857187152,12058,1713690052794467456,uav32/gps_garmin_origin,uav32/fcu,-29.562878694407953,8.287803366059112,0.12040829309386446,-0.005090005463839664,0.005710080572400365,0.3826783282258142,0.9238499858136273,0.002496340600455029,0.0,0.0,0.0,0.0,0.0,0.0,0.0024963406004550287,0.0,0.0,0.0,0.0,0.0,0.0,0.03722244782099963,0.0,0.0,0.0,0.0,0.0,0.0,0.0,0.0,0.0,0.0,0.0,0.0,0.0,0.0,0.0,0.0,0.0,0.0,0.0,0.0,0.0,-0.10635087155252322,0.002132687691287631,-0.00507179768915782,0.00017478573136031628,0.0005988531629554927,0.00010618784290272736,0.44282186176565874,0.0,0.0,0.0,0.0,0.0,0.0,0.4428218238497258,0.0,0.0,0.0,0.0,0.0,0.0,0.0164431971738441,0.0,0.0,0.0,0.0,0.0,0.0,0.0,0.0,0.0,0.0,0.0,0.0,0.0,0.0,0.0,0.0,0.0,0.0,0.0,0.0,0.0
1713690052985098067,12069,1713690052904413628,uav32/gps_garmin_origin,uav32/fcu,-29.56966293357113,8.282955085758237,0.12031992579004239,-0.005109977487654596,0.005743338384103703,0.382694977033653,0.9238427636399713,0.0024545531043984473,0.0,0.0,0.0,0.0,0.0,0.0,0.0024545531043984477,0.0,0.0,0.0,0.0,0.0,0.0,0.03893707887262622,0.0,0.0,0.0,0.0,0.0,0.0,0.0,0.0,0.0,0.0,0.0,0.0,0.0,0.0,0.0,0.0,0.0,0.0,0.0,0.0,0.0,-0.09751620986734014,0.004552802552075982,-0.006201205253198336,5.270569090498611e-05,0.0002458336530253291,4.577673098538068e-05,0.4422579682098748,0.0,0.0,0.0,0.0,0.0,0.0,0.442257936328645,0.0,0.0,0.0,0.0,0.0,0.0,0.016443366235931525,0.0,0.0,0.0,0.0,0.0,0.0,0.0,0.0,0.0,0.0,0.0,0.0,0.0,0.0,0.0,0.0,0.0,0.0,0.0,0.0,0.0
1713690053087359147,12080,1713690053014469593,uav32/gps_garmin_origin,uav32/fcu,-29.57570112052482,8.278637165057285,0.12032722342663622,-0.005111768343555133,0.005774538336711078,0.3827192047554896,0.9238325332885743,0.0031663029429288645,0.0,0.0,0.0,0.0,0.0,0.0,0.003166302932079401,0.0,0.0,0.0,0.0,0.0,0.0,0.029617251450029896,0.0,0.0,0.0,0.0,0.0,0.0,0.0,0.0,0.0,0.0,0.0,0.0,0.0,0.0,0.0,0.0,0.0,0.0,0.0,0.0,0.0,-0.08829156469036531,0.005772231059590967,-0.006913952561141384,0.0008103357977233827,0.00021336457575671383,0.0005859873490408063,0.4531019167797597,0.0,0.0,0.0,0.0,0.0,0.0,0.4531018889107577,0.0,0.0,0.0,0.0,0.0,0.0,0.016444488600330077,0.0,0.0,0.0,0.0,0.0,0.0,0.0,0.0,0.0,0.0,0.0,0.0,0.0,0.0,0.0,0.0,0.0,0.0,0.0,0.0,0.0
1713690053173093865,12090,1713690053114473405,uav32/gps_garmin_origin,uav32/fcu,-29.581235543078474,8.274653579156169,0.12027111311535632,-0.005105767936957366,0.005800148891036675,0.3827440280581301,0.9238221222653566,0.0023134768232431885,0.0,0.0,0.0,0.0,0.0,0.0,0.0023134768232431894,0.0,0.0,0.0,0.0,0.0,0.0,0.03836679118161396,0.0,0.0,0.0,0.0,0.0,0.0,0.0,0.0,0.0,0.0,0.0,0.0,0.0,0.0,0.0,0.0,0.0,0.0,0.0,0.0,0.0,-0.08222329550146008,0.006631681921015456,-0.006821069880891846,-0.000259087624726817,-0.00033197467564605176,-0.0001702983281575143,0.440473836141548,0.0,0.0,0.0,0.0,0.0,0.0,0.44047381413676456,0.0,0.0,0.0,0.0,0.0,0.0,0.014062420483477358,0.0,0.0,0.0,0.0,0.0,0.0,0.0,0.0,0.0,0.0,0.0,0.0,0.0,0.0,0.0,0.0,0.0,0.0,0.0,0.0,0.0
1713690053381012391,12101,1713690053224472579,uav32/gps_garmin_origin,uav32/fcu,-29.586812002884777,8.270652084974827,0.1203172094379755,-0.005100356927955328,0.005818946273875829,0.3827615254427566,0.9238147694257294,0.003110476009049235,0.0,0.0,0.0,0.0,0.0,0.0,0.0031104760011604455,0.0,0.0,0.0,0.0,0.0,0.0,0.0296550589109453,0.0,0.0,0.0,0.0,0.0,0.0,0.0,0.0,0.0,0.0,0.0,0.0,0.0,0.0,0.0,0.0,0.0,0.0,0.0,0.0,0.0,-0.07536135388898267,0.007115195344728964,-0.006686007206038034,0.0006649954011663795,3.9968239434529076e-05,-0.00015965702186804265,0.4525862205520363,0.0,0.0,0.0,0.0,0.0,0.0,0.4525862015513115,0.0,0.0,0.0,0.0,0.0,0.0,0.016440684474933687,0.0,0.0,0.0,0.0,0.0,0.0,0.0,0.0,0.0,0.0,0.0,0.0,0.0,0.0,0.0,0.0,0.0,0.0,0.0,0.0,0.0
