%time,field.header.seq,field.header.stamp,field.header.frame_id,field.child_frame_id,field.pose.pose.position.x,field.pose.pose.position.y,field.pose.pose.position.z,field.pose.pose.orientation.x,field.pose.pose.orientation.y,field.pose.pose.orientation.z,field.pose.pose.orientation.w,field.pose.covariance0,field.pose.covariance1,field.pose.covariance2,field.pose.covariance3,field.pose.covariance4,field.pose.covariance5,field.pose.covariance6,field.pose.covariance7,field.pose.covariance8,field.pose.covariance9,field.pose.covariance10,field.pose.covariance11,field.pose.covariance12,field.pose.covariance13,field.pose.covariance14,field.pose.covariance15,field.pose.covariance16,field.pose.covariance17,field.pose.covariance18,field.pose.covariance19,field.pose.covariance20,field.pose.covariance21,field.pose.covariance22,field.pose.covariance23,field.pose.covariance24,field.pose.covariance25,field.pose.covariance26,field.pose.covariance27,field.pose.covariance28,field.pose.covariance29,field.pose.covariance30,field.pose.covariance31,field.pose.covariance32,field.pose.covariance33,field.pose.covariance34,field.pose.covariance35,field.twist.twist.linear.x,field.twist.twist.linear.y,field.twist.twist.linear.z,field.twist.twist.angular.x,field.twist.twist.angular.y,field.twist.twist.angular.z,field.twist.covariance0,field.twist.covariance1,field.twist.covariance2,field.twist.covariance3,field.twist.covariance4,field.twist.covariance5,field.twist.covariance6,field.twist.covariance7,field.twist.covariance8,field.twist.covariance9,field.twist.covariance10,field.twist.covariance11,field.twist.covariance12,field.twist.covariance13,field.twist.covariance14,field.twist.covariance15,field.twist.covariance16,field.twist.covariance17,field.twist.covariance18,field.twist.covariance19,field.twist.covariance20,field.twist.covariance21,field.twist.covariance22,field.twist.covariance23,field.twist.covariance24,field.twist.covariance25,field.twist.covariance26,field.twist.covariance27,field.twist.covariance28,field.twist.covariance29,field.twist.covariance30,field.twist.covariance31,field.twist.covariance32,field.twist.covariance33,field.twist.covariance34,field.twist.covariance35
1713690045568361893,11306,1713690045135358515,uav31/gps_garmin_origin,uav31/fcu,-38.05055120970199,4.649083362441484,0.06753840611025927,-0.012221295336379086,0.045246064389801784,0.44821839274476893,0.892694632283665,0.003519391448061334,0.0,0.0,0.0,0.0,0.0,0.0,0.003519391448068926,0.0,0.0,0.0,0.0,0.0,0.0,0.04210282619560554,0.0,0.0,0.0,0.0,0.0,0.0,0.0,0.0,0.0,0.0,0.0,0.0,0.0,0.0,0.0,0.0,0.0,0.0,0.0,0.0,0.0,0.0011511445531360806,0.001799866582217847,-0.006787038267199939,-0.0015099502634257078,0.002899361541494727,-0.0008109980844892565,0.4575654887467934,0.0,0.0,0.0,0.0,0.0,0.0,0.45756548876397446,0.0,0.0,0.0,0.0,0.0,0.0,0.01651784671753445,0.0,0.0,0.0,0.0,0.0,0.0,0.0,0.0,0.0,0.0,0.0,0.0,0.0,0.0,0.0,0.0,0.0,0.0,0.0,0.0,0.0
1713690045619745701,11316,1713690045235417838,uav31/gps_garmin_origin,uav31/fcu,-38.05046878076661,4.648884339365323,0.06754191150663057,-0.01219063384426456,0.045287785765414736,0.448241978737103,0.8926810993058104,0.0035274489851459846,0.0,0.0,0.0,0.0,0.0,0.0,0.00352744898515213,0.0,0.0,0.0,0.0,0.0,0.0,0.03755007433844717,0.0,0.0,0.0,0.0,0.0,0.0,0.0,0.0,0.0,0.0,0.0,0.0,0.0,0.0,0.0,0.0,0.0,0.0,0.0,0.0,0.0,-0.0014795710644079567,0.0008112130869233427,-0.007284884156800094,-0.0017671374371275306,0.0036716009490191936,0.001003760145977139,0.45754171197104015,0.0,0.0,0.0,0.0,0.0,0.0,0.4575417119849391,0.0,0.0,0.0,0.0,0.0,0.0,0.01644205666689927,0.0,0.0,0.0,0.0,0.0,0.0,0.0,0.0,0.0,0.0,0.0,0.0,0.0,0.0,0.0,0.0,0.0,0.0,0.0,0.0,0.0
1713690045626391143,11326,1713690045335352474,uav31/gps_garmin_origin,uav31/fcu,-38.05047285144958,4.647701634079734,0.0674848556972103,-0.01224271109409498,0.04531761352749017,0.4482832055061035,0.8926581621857157,0.0023967440663092924,0.0,0.0,0.0,0.0,0.0,0.0,0.002396744066309291,0.0,0.0,0.0,0.0,0.0,0.0,0.0420387017848161,0.0,0.0,0.0,0.0,0.0,0.0,0.0,0.0,0.0,0.0,0.0,0.0,0.0,0.0,0.0,0.0,0.0,0.0,0.0,0.0,0.0,-0.0060348120142691974,-0.001771515682469144,-0.008730576361486282,-0.004238144960254431,0.0014238804578781126,-0.001025210018269718,0.4413688883823822,0.0,0.0,0.0,0.0,0.0,0.0,0.4413688883931703,0.0,0.0,0.0,0.0,0.0,0.0,0.007287472542878005,0.0,0.0,0.0,0.0,0.0,0.0,0.0,0.0,0.0,0.0,0.0,0.0,0.0,0.0,0.0,0.0,0.0,0.0,0.0,0.0,0.0
1713690045781965818,11337,1713690045445356456,uav31/gps_garmin_origin,uav31/fcu,-38.05074002201478,4.646128446403329,0.06747147425038681,-0.012222253005154235,0.04531650416539086,0.4482998678084436,0.8926501356907347,0.0034365406823963834,0.0,0.0,0.0,0.0,0.0,0.0,0.0034365406824016067,0.0,0.0,0.0,0.0,0.0,0.0,0.03768207166376713,0.0,0.0,0.0,0.0,0.0,0.0,0.0,0.0,0.0,0.0,0.0,0.0,0.0,0.0,0.0,0.0,0.0,0.0,0.0,0.0,0.0,-0.010446774989542641,-0.003610659893588784,-0.01025723155122479,0.002836944768205285,-0.0035187960602343074,0.005884460173547268,0.45653832612658746,0.0,0.0,0.0,0.0,0.0,0.0,0.45653832613577816,0.0,0.0,0.0,0.0,0.0,0.0,0.016375856015303017,0.0,0.0,0.0,0.0,0.0,0.0,0.0,0.0,0.0,0.0,0.0,0.0,0.0,0.0,0.0,0.0,0.0,0.0,0.0,0.0,0.0
1713690045919840956,11357,1713690045645354652,uav31/gps_garmin_origin,uav31/fcu,-38.05245730358258,4.643964686181044,0.0674504310181895,-0.012232909373946608,0.04527682875746705,0.44833040382999867,0.8926366631894816,0.002362420681669008,0.0,0.0,0.0,0.0,0.0,0.0,0.0023624206816690073,0.0,0.0,0.0,0.0,0.0,0.0,0.038350329334098314,0.0,0.0,0.0,0.0,0.0,0.0,0.0,0.0,0.0,0.0,0.0,0.0,0.0,0.0,0.0,0.0,0.0,0.0,0.0,0.0,0.0,-0.015715074271196075,-0.0015564497925544122,-0.01088145692151976,0.0003671140584629029,0.0013599228113889696,0.000916037068236619,0.44091623293634397,0.0,0.0,0.0,0.0,0.0,0.0,0.44091623294156457,0.0,0.0,0.0,0.0,0.0,0.0,0.0072834768593790875,0.0,0.0,0.0,0.0,0.0,0.0,0.0,0.0,0.0,0.0,0.0,0.0,0.0,0.0,0.0,0.0,0.0,0.0,0.0,0.0,0.0
1713690045958675154,11367,1713690045745354936,uav31/gps_garmin_origin,uav31/fcu,-38.052985841770635,4.641649899333871,0.06749802800315621,-0.012221358868351635,0.04523841589057077,0.44832060690083875,0.8926436961242925,0.003510543989506374,0.0,0.0,0.0,0.0,0.0,0.0,0.0035105439895083716,0.0,0.0,0.0,0.0,0.0,0.0,0.032157691671080166,0.0,0.0,0.0,0.0,0.0,0.0,0.0,0.0,0.0,0.0,0.0,0.0,0.0,0.0,0.0,0.0,0.0,0.0,0.0,0.0,0.0,-0.01963127116483546,-0.004300670416381696,-0.011989603571572638,-0.0014338289620354772,-0.0019058869220316414,-0.004407112020999193,0.457450919335588,0.0,0.0,0.0,0.0,0.0,0.0,0.4574509193401615,0.0,0.0,0.0,0.0,0.0,0.0,0.016376092071411837,0.0,0.0,0.0,0.0,0.0,0.0,0.0,0.0,0.0,0.0,0.0,0.0,0.0,0.0,0.0,0.0,0.0,0.0,0.0,0.0,0.0
1713690046003158985,11378,1713690045855354254,uav31/gps_garmin_origin,uav31/fcu,-38.053381329762466,4.639709460304104,0.06744995138856667,-0.012230802389674328,0.04526977048596898,0.4483428612223733,0.8926307997126095,0.003515261143015291,0.0,0.0,0.0,0.0,0.0,0.0,0.0035152611430166337,0.0,0.0,0.0,0.0,0.0,0.0,0.03773294284319746,0.0,0.0,0.0,0.0,0.0,0.0,0.0,0.0,0.0,0.0,0.0,0.0,0.0,0.0,0.0,0.0,0.0,0.0,0.0,0.0,0.0,-0.02087112529885482,-0.005717995036128621,-0.011371491076714254,-0.0035090805031359196,0.00014818258932791623,-0.00216211611405015,0.4573667590195919,0.0,0.0,0.0,0.0,0.0,0.0,0.4573667590232162,0.0,0.0,0.0,0.0,0.0,0.0,0.016444501344444383,0.0,0.0,0.0,0.0,0.0,0.0,0.0,0.0,0.0,0.0,0.0,0.0,0.0,0.0,0.0,0.0,0.0,0.0,0.0,0.0,0.0
1713690046070754434,11388,1713690045955357751,uav31/gps_garmin_origin,uav31/fcu,-38.05402447167914,4.637691049725315,0.06751724265524205,-0.01227899069162269,0.04525161164972772,0.44840705470168707,0.892598812809899,0.003747229188922916,0.0,0.0,0.0,0.0,0.0,0.0,0.0037472291889440153,0.0,0.0,0.0,0.0,0.0,0.0,0.032180663402528745,0.0,0.0,0.0,0.0,0.0,0.0,0.0,0.0,0.0,0.0,0.0,0.0,0.0,0.0,0.0,0.0,0.0,0.0,0.0,0.0,0.0,-0.02262520751148182,-0.0063461432725082385,-0.011671107250374497,-0.0007426343508996069,-0.0004063365631736812,0.002325840760022402,0.46003842070459505,0.0,0.0,0.0,0.0,0.0,0.0,0.4600384207140311,0.0,0.0,0.0,0.0,0.0,0.0,0.017573718140314592,0.0,0.0,0.0,0.0,0.0,0.0,0.0,0.0,0.0,0.0,0.0,0.0,0.0,0.0,0.0,0.0,0.0,0.0,0.0,0.0,0.0
1713690046166431378,11399,1713690046065355214,uav31/gps_garmin_origin,uav31/fcu,-38.05448541799625,4.635722046799526,0.06741548941721726,-0.012253415552250882,0.04523051487076661,0.4484648065166654,0.8925712207244814,0.0035041671678786588,0.0,0.0,0.0,0.0,0.0,0.0,0.0035041671678805427,0.0,0.0,0.0,0.0,0.0,0.0,0.03835111206952749,0.0,0.0,0.0,0.0,0.0,0.0,0.0,0.0,0.0,0.0,0.0,0.0,0.0,0.0,0.0,0.0,0.0,0.0,0.0,0.0,0.0,-0.02274064949709699,-0.007022221485536903,-0.012772014556707052,-0.0010667103342711926,0.0018060100264847279,0.0002502801071386782,0.45735344491440216,0.0,0.0,0.0,0.0,0.0,0.0,0.45735344491633934,0.0,0.0,0.0,0.0,0.0,0.0,0.01644165679370909,0.0,0.0,0.0,0.0,0.0,0.0,0.0,0.0,0.0,0.0,0.0,0.0,0.0,0.0,0.0,0.0,0.0,0.0,0.0,0.0,0.0
1713690046183678613,11409,1713690046165354155,uav31/gps_garmin_origin,uav31/fcu,-38.055373607460524,4.633544020637107,0.06743777749519513,-0.012260465883727282,0.04523120880609087,0.4484982972315008,0.8925542599851324,0.0035331284185967653,0.0,0.0,0.0,0.0,0.0,0.0,0.0035331284185974774,0.0,0.0,0.0,0.0,0.0,0.0,0.037112304144408206,0.0,0.0,0.0,0.0,0.0,0.0,0.0,0.0,0.0,0.0,0.0,0.0,0.0,0.0,0.0,0.0,0.0,0.0,0.0,0.0,0.0,-0.024557888929679896,-0.006920804435322024,-0.01254718709342594,-0.0005599018768407404,0.001461719628423452,-0.0031733247451484203,0.45756716557654736,0.0,0.0,0.0,0.0,0.0,0.0,0.45756716557796784,0.0,0.0,0.0,0.0,0.0,0.0,0.016441552254721905,0.0,0.0,0.0,0.0,0.0,0.0,0.0,0.0,0.0,0.0,0.0,0.0,0.0,0.0,0.0,0.0,0.0,0.0,0.0,0.0,0.0
1713690046261488733,11419,1713690046265359423,uav31/gps_garmin_origin,uav31/fcu,-38.05603663173684,4.631659238031664,0.0674615945203108,-0.012286827314700042,0.0451781784583501,0.44849417841505906,0.8925586509867547,0.00241995408321355,0.0,0.0,0.0,0.0,0.0,0.0,0.0024199540832135517,0.0,0.0,0.0,0.0,0.0,0.0,0.03967127366468165,0.0,0.0,0.0,0.0,0.0,0.0,0.0,0.0,0.0,0.0,0.0,0.0,0.0,0.0,0.0,0.0,0.0,0.0,0.0,0.0,0.0,-0.024666160995062913,-0.006962201082482359,-0.011165170381313103,-0.004175400827080011,0.001201082952320576,0.00108035490848124,0.4415939097732999,0.0,0.0,0.0,0.0,0.0,0.0,0.44159390977782503,0.0,0.0,0.0,0.0,0.0,0.0,0.007292333811809903,0.0,0.0,0.0,0.0,0.0,0.0,0.0,0.0,0.0,0.0,0.0,0.0,0.0,0.0,0.0,0.0,0.0,0.0,0.0,0.0,0.0
1713690046418073153,11430,1713690046375359317,uav31/gps_garmin_origin,uav31/fcu,-38.05627919516486,4.628624496809521,0.06749111632419555,-0.012313410018689387,0.04518572894774826,0.4485048739433167,0.8925525261674611,0.003518473905912349,0.0,0.0,0.0,0.0,0.0,0.0,0.003518473905913387,0.0,0.0,0.0,0.0,0.0,0.0,0.03718654747992564,0.0,0.0,0.0,0.0,0.0,0.0,0.0,0.0,0.0,0.0,0.0,0.0,0.0,0.0,0.0,0.0,0.0,0.0,0.0,0.0,0.0,-0.02599630580242944,-0.01003460388542938,-0.011480494406519708,0.0005969243356958032,-0.0009177109459415077,0.0010971141746267679,0.457554029645714,0.0,0.0,0.0,0.0,0.0,0.0,0.45755402964622577,0.0,0.0,0.0,0.0,0.0,0.0,0.016514850481693114,0.0,0.0,0.0,0.0,0.0,0.0,0.0,0.0,0.0,0.0,0.0,0.0,0.0,0.0,0.0,0.0,0.0,0.0,0.0,0.0,0.0
1713690046531431042,11440,1713690046475358808,uav31/gps_garmin_origin,uav31/fcu,-38.05638076129357,4.62649214256737,0.06746349866445753,-0.012296563090110922,0.04513772221259529,0.4485258045063705,0.8925446688871187,0.003517865433307462,0.0,0.0,0.0,0.0,0.0,0.0,0.0035178654333076894,0.0,0.0,0.0,0.0,0.0,0.0,0.040712861999280106,0.0,0.0,0.0,0.0,0.0,0.0,0.0,0.0,0.0,0.0,0.0,0.0,0.0,0.0,0.0,0.0,0.0,0.0,0.0,0.0,0.0,-0.02503963175303278,-0.011158464017243254,-0.011257769751822857,-0.0004582350666169077,-0.005322876386344433,-0.0030036382377147666,0.4573558239332517,0.0,0.0,0.0,0.0,0.0,0.0,0.4573558239336606,0.0,0.0,0.0,0.0,0.0,0.0,0.016445138804196777,0.0,0.0,0.0,0.0,0.0,0.0,0.0,0.0,0.0,0.0,0.0,0.0,0.0,0.0,0.0,0.0,0.0,0.0,0.0,0.0,0.0
1713690046626211170,11451,1713690046585359092,uav31/gps_garmin_origin,uav31/fcu,-38.056684455035246,4.623688745704023,0.06755832354677999,-0.012288588468494541,0.04513802248633497,0.4484914164905526,0.8925620499372983,0.002362239544283276,0.0,0.0,0.0,0.0,0.0,0.0,0.0023622395442832777,0.0,0.0,0.0,0.0,0.0,0.0,0.037268150618842366,0.0,0.0,0.0,0.0,0.0,0.0,0.0,0.0,0.0,0.0,0.0,0.0,0.0,0.0,0.0,0.0,0.0,0.0,0.0,0.0,0.0,-0.025630976526265378,-0.012185171554474655,-0.009186909435974675,0.0010659614345058799,-0.00044849695404991524,-0.0014976828824728727,0.44091292548389033,0.0,0.0,0.0,0.0,0.0,0.0,0.44091292548432737,0.0,0.0,0.0,0.0,0.0,0.0,0.007264092001000255,0.0,0.0,0.0,0.0,0.0,0.0,0.0,0.0,0.0,0.0,0.0,0.0,0.0,0.0,0.0,0.0,0.0,0.0,0.0,0.0,0.0
1713690046626223147,11461,1713690046685354469,uav31/gps_garmin_origin,uav31/fcu,-38.0568690246145,4.620924418207782,0.06753999739889242,-0.012258421766793584,0.04509201358612281,0.44852423804264524,0.8925482958221523,0.0035052618495296584,0.0,0.0,0.0,0.0,0.0,0.0,0.0035052618495298514,0.0,0.0,0.0,0.0,0.0,0.0,0.04068818643845502,0.0,0.0,0.0,0.0,0.0,0.0,0.0,0.0,0.0,0.0,0.0,0.0,0.0,0.0,0.0,0.0,0.0,0.0,0.0,0.0,0.0,-0.026258150596161416,-0.01374799356517,-0.009594535706576457,-3.0612802220275626e-05,-0.00020438217325136028,0.0031945204827934504,0.4573707944141586,0.0,0.0,0.0,0.0,0.0,0.0,0.45737079441462225,0.0,0.0,0.0,0.0,0.0,0.0,0.016437459157179313,0.0,0.0,0.0,0.0,0.0,0.0,0.0,0.0,0.0,0.0,0.0,0.0,0.0,0.0,0.0,0.0,0.0,0.0,0.0,0.0,0.0
1713690046739043373,11472,1713690046795353692,uav31/gps_garmin_origin,uav31/fcu,-38.05734738041887,4.617586455607079,0.0675778046660608,-0.01226368982043723,0.045062983831621696,0.4485371468805101,0.8925431970007986,0.0035253261455079313,0.0,0.0,0.0,0.0,0.0,0.0,0.0035253261455081104,0.0,0.0,0.0,0.0,0.0,0.0,0.03721632127593383,0.0,0.0,0.0,0.0,0.0,0.0,0.0,0.0,0.0,0.0,0.0,0.0,0.0,0.0,0.0,0.0,0.0,0.0,0.0,0.0,0.0,-0.02781932692328886,-0.014655975259595194,-0.009355622546404964,-0.001799883903004229,0.0020835788454860445,-0.004713748581707478,0.4574563054694574,0.0,0.0,0.0,0.0,0.0,0.0,0.45745630546987354,0.0,0.0,0.0,0.0,0.0,0.0,0.016446642464895404,0.0,0.0,0.0,0.0,0.0,0.0,0.0,0.0,0.0,0.0,0.0,0.0,0.0,0.0,0.0,0.0,0.0,0.0,0.0,0.0,0.0
1713690046835721767,11482,1713690046895357472,uav31/gps_garmin_origin,uav31/fcu,-38.05770126163448,4.61456762537943,0.0675212481119525,-0.01225812252769753,0.04504042883848903,0.4484989361226282,0.8925636140507345,0.003780845667712594,0.0,0.0,0.0,0.0,0.0,0.0,0.0037808456677127624,0.0,0.0,0.0,0.0,0.0,0.0,0.0383964999382654,0.0,0.0,0.0,0.0,0.0,0.0,0.0,0.0,0.0,0.0,0.0,0.0,0.0,0.0,0.0,0.0,0.0,0.0,0.0,0.0,0.0,-0.02844136101394669,-0.015471382392838962,-0.01106592731981204,-0.0019888055976480246,-0.0011219866573810575,0.0017641269369050863,0.46021760556938895,0.0,0.0,0.0,0.0,0.0,0.0,0.4602176055697539,0.0,0.0,0.0,0.0,0.0,0.0,0.017532044579598144,0.0,0.0,0.0,0.0,0.0,0.0,0.0,0.0,0.0,0.0,0.0,0.0,0.0,0.0,0.0,0.0,0.0,0.0,0.0,0.0,0.0
1713690046986240939,11493,1713690047005357313,uav31/gps_garmin_origin,uav31/fcu,-38.058170753720574,4.610786078528315,0.06750426728698614,-0.01220706548523115,0.044995532906337815,0.4485619761978366,0.8925348972928047,0.003517952413365881,0.0,0.0,0.0,0.0,0.0,0.0,0.003517952413366013,0.0,0.0,0.0,0.0,0.0,0.0,0.03721832169135693,0.0,0.0,0.0,0.0,0.0,0.0,0.0,0.0,0.0,0.0,0.0,0.0,0.0,0.0,0.0,0.0,0.0,0.0,0.0,0.0,0.0,-0.03012908761275603,-0.016622500828937712,-0.011654540413272239,0.001827378524467349,0.0005120885325595738,0.0007540501537732779,0.45753162224215793,0.0,0.0,0.0,0.0,0.0,0.0,0.4575316222424576,0.0,0.0,0.0,0.0,0.0,0.0,0.016442518919107182,0.0,0.0,0.0,0.0,0.0,0.0,0.0,0.0,0.0,0.0,0.0,0.0,0.0,0.0,0.0,0.0,0.0,0.0,0.0,0.0,0.0
1713690047083545715,11503,1713690047105354379,uav31/gps_garmin_origin,uav31/fcu,-38.057986099203035,4.607314765014128,0.06749850397603127,-0.01223228962693203,0.04502247342580843,0.4485212843571458,0.8925536531983517,0.0035347285687923197,0.0,0.0,0.0,0.0,0.0,0.0,0.003534728568792429,0.0,0.0,0.0,0.0,0.0,0.0,0.03968640036658564,0.0,0.0,0.0,0.0,0.0,0.0,0.0,0.0,0.0,0.0,0.0,0.0,0.0,0.0,0.0,0.0,0.0,0.0,0.0,0.0,0.0,-0.030336735056007418,-0.019322644303915063,-0.010690258527810926,-0.003223436651751399,-0.0019463226199150092,-0.005339647643268108,0.45751351177986216,0.0,0.0,0.0,0.0,0.0,0.0,0.45751351178011146,0.0,0.0,0.0,0.0,0.0,0.0,0.01651002407998244,0.0,0.0,0.0,0.0,0.0,0.0,0.0,0.0,0.0,0.0,0.0,0.0,0.0,0.0,0.0,0.0,0.0,0.0,0.0,0.0,0.0
1713690047165917837,11513,1713690047205356439,uav31/gps_garmin_origin,uav31/fcu,-38.05776198609286,4.6039827365961745,0.06753509700476808,-0.012222243936976261,0.04502365129381987,0.44851682322821196,0.8925559685727782,0.0026101742859913784,0.0,0.0,0.0,0.0,0.0,0.0,0.002610174285991378,0.0,0.0,0.0,0.0,0.0,0.0,0.03728611221993117,0.0,0.0,0.0,0.0,0.0,0.0,0.0,0.0,0.0,0.0,0.0,0.0,0.0,0.0,0.0,0.0,0.0,0.0,0.0,0.0,0.0,-0.02975236836707485,-0.020689863528800787,-0.010549695694111929,0.0012720212107524276,-0.0013928087428212166,-0.00044890659046359344,0.4440430204507634,0.0,0.0,0.0,0.0,0.0,0.0,0.44404302045096083,0.0,0.0,0.0,0.0,0.0,0.0,0.007292888379838102,0.0,0.0,0.0,0.0,0.0,0.0,0.0,0.0,0.0,0.0,0.0,0.0,0.0,0.0,0.0,0.0,0.0,0.0,0.0,0.0,0.0
1713690047254758413,11524,1713690047315392888,uav31/gps_garmin_origin,uav31/fcu,-38.05741248794603,4.600099649027275,0.06750325188975988,-0.012241577580073448,0.04504464208398311,0.44854028887701514,0.8925428541270185,0.0035126219967744794,0.0,0.0,0.0,0.0,0.0,0.0,0.0035126219967745514,0.0,0.0,0.0,0.0,0.0,0.0,0.039696684320044466,0.0,0.0,0.0,0.0,0.0,0.0,0.0,0.0,0.0,0.0,0.0,0.0,0.0,0.0,0.0,0.0,0.0,0.0,0.0,0.0,0.0,-0.029654875516120796,-0.022621130609593917,-0.011051560806513181,-9.963605407392606e-05,0.0013875670265406372,0.001016890746541321,0.45743715717205596,0.0,0.0,0.0,0.0,0.0,0.0,0.45743715717222033,0.0,0.0,0.0,0.0,0.0,0.0,0.01653487750383901,0.0,0.0,0.0,0.0,0.0,0.0,0.0,0.0,0.0,0.0,0.0,0.0,0.0,0.0,0.0,0.0,0.0,0.0,0.0,0.0,0.0
1713690047388520665,11534,1713690047415355332,uav31/gps_garmin_origin,uav31/fcu,-38.05751944040481,4.597068461680245,0.06748157126053848,-0.012246441275645148,0.045077082147631196,0.44858485132782455,0.8925187479650264,0.0035253417747102755,0.0,0.0,0.0,0.0,0.0,0.0,0.0035253417747103354,0.0,0.0,0.0,0.0,0.0,0.0,0.03738987459803636,0.0,0.0,0.0,0.0,0.0,0.0,0.0,0.0,0.0,0.0,0.0,0.0,0.0,0.0,0.0,0.0,0.0,0.0,0.0,0.0,0.0,-0.028888449996084597,-0.021668022402256144,-0.0118525010930122,-0.00033007864840328693,0.0032011608127504587,7.21930482541207e-05,0.4574679721037883,0.0,0.0,0.0,0.0,0.0,0.0,0.45746797210392204,0.0,0.0,0.0,0.0,0.0,0.0,0.016443691132430834,0.0,0.0,0.0,0.0,0.0,0.0,0.0,0.0,0.0,0.0,0.0,0.0,0.0,0.0,0.0,0.0,0.0,0.0,0.0,0.0,0.0
1713690047499179042,11545,1713690047525358464,uav31/gps_garmin_origin,uav31/fcu,-38.05690224927653,4.592940081501952,0.06743713026876633,-0.012272360851195933,0.0450070691414205,0.448638904658546,0.8924947663308027,0.002362441958758228,0.0,0.0,0.0,0.0,0.0,0.0,0.0023624419587582293,0.0,0.0,0.0,0.0,0.0,0.0,0.039643743319957334,0.0,0.0,0.0,0.0,0.0,0.0,0.0,0.0,0.0,0.0,0.0,0.0,0.0,0.0,0.0,0.0,0.0,0.0,0.0,0.0,0.0,-0.02884464426259767,-0.02453214514847077,-0.01281065821486685,0.00278396881185472,-0.003272623056545854,-0.0031760472338646646,0.4409207706035774,0.0,0.0,0.0,0.0,0.0,0.0,0.44092077060367624,0.0,0.0,0.0,0.0,0.0,0.0,0.007265723223838725,0.0,0.0,0.0,0.0,0.0,0.0,0.0,0.0,0.0,0.0,0.0,0.0,0.0,0.0,0.0,0.0,0.0,0.0,0.0,0.0,0.0
1713690047579008969,11556,1713690047635354898,uav31/gps_garmin_origin,uav31/fcu,-38.056348146298376,4.58876286959322,0.06746807177320042,-0.01230623226622498,0.04495935698621631,0.4486572775353705,0.8924874658228946,0.0035102344266858794,0.0,0.0,0.0,0.0,0.0,0.0,0.0035102344266859167,0.0,0.0,0.0,0.0,0.0,0.0,0.03707153142998136,0.0,0.0,0.0,0.0,0.0,0.0,0.0,0.0,0.0,0.0,0.0,0.0,0.0,0.0,0.0,0.0,0.0,0.0,0.0,0.0,0.0,-0.028919209672194725,-0.026187042812001397,-0.01295417407851241,0.0006236154004000127,0.0034518365282565355,0.001368415891192853,0.45745396744742595,0.0,0.0,0.0,0.0,0.0,0.0,0.457453967447511,0.0,0.0,0.0,0.0,0.0,0.0,0.016441730546912954,0.0,0.0,0.0,0.0,0.0,0.0,0.0,0.0,0.0,0.0,0.0,0.0,0.0,0.0,0.0,0.0,0.0,0.0,0.0,0.0,0.0
1713690047685081664,11566,1713690047735357814,uav31/gps_garmin_origin,uav31/fcu,-38.05485645589802,4.584588131424818,0.06739844227598495,-0.012304733202026576,0.04494853762450048,0.4486947064140126,0.8924692108920761,0.003524828531747567,0.0,0.0,0.0,0.0,0.0,0.0,0.003524828531747597,0.0,0.0,0.0,0.0,0.0,0.0,0.03961047319548558,0.0,0.0,0.0,0.0,0.0,0.0,0.0,0.0,0.0,0.0,0.0,0.0,0.0,0.0,0.0,0.0,0.0,0.0,0.0,0.0,0.0,-0.02803685407342177,-0.030703990301089466,-0.013793406516117521,0.00046046957140788436,0.0019103500526398427,0.005009208805859089,0.4574521656401732,0.0,0.0,0.0,0.0,0.0,0.0,0.4574521656402421,0.0,0.0,0.0,0.0,0.0,0.0,0.016440070149605475,0.0,0.0,0.0,0.0,0.0,0.0,0.0,0.0,0.0,0.0,0.0,0.0,0.0,0.0,0.0,0.0,0.0,0.0,0.0,0.0,0.0
1713690047786711244,11577,1713690047845365064,uav31/gps_garmin_origin,uav31/fcu,-38.0535684745523,4.580786244932389,0.06746100329777076,-0.012294009660538981,0.04498396540847535,0.4487782832246483,0.8924255534923707,0.002493396999097019,0.0,0.0,0.0,0.0,0.0,0.0,0.002493396999097019,0.0,0.0,0.0,0.0,0.0,0.0,0.032068060666272574,0.0,0.0,0.0,0.0,0.0,0.0,0.0,0.0,0.0,0.0,0.0,0.0,0.0,0.0,0.0,0.0,0.0,0.0,0.0,0.0,0.0,-0.02587229778271587,-0.031556742484743286,-0.013840282568103974,-0.0006030375952832401,0.001092708087526262,0.0017514587379992006,0.4425001360942872,0.0,0.0,0.0,0.0,0.0,0.0,0.44250013609895944,0.0,0.0,0.0,0.0,0.0,0.0,0.007286315794695172,0.0,0.0,0.0,0.0,0.0,0.0,0.0,0.0,0.0,0.0,0.0,0.0,0.0,0.0,0.0,0.0,0.0,0.0,0.0,0.0,0.0
1713690047909465074,11588,1713690047955394013,uav31/gps_garmin_origin,uav31/fcu,-38.05203033660584,4.5756436673004215,0.06741428109105906,-0.012291466565417871,0.045014326375211536,0.44875187713416,0.8924373398072523,0.0035205284569913634,0.0,0.0,0.0,0.0,0.0,0.0,0.003520528456992215,0.0,0.0,0.0,0.0,0.0,0.0,0.03841575623437973,0.0,0.0,0.0,0.0,0.0,0.0,0.0,0.0,0.0,0.0,0.0,0.0,0.0,0.0,0.0,0.0,0.0,0.0,0.0,0.0,0.0,-0.02727936754169517,-0.035375797005271666,-0.012900950838708784,0.00038190753548406065,0.0026581236161291595,-0.004717692732810974,0.4575600655778292,0.0,0.0,0.0,0.0,0.0,0.0,0.4575600655773862,0.0,0.0,0.0,0.0,0.0,0.0,0.01650635955121725,0.0,0.0,0.0,0.0,0.0,0.0,0.0,0.0,0.0,0.0,0.0,0.0,0.0,0.0,0.0,0.0,0.0,0.0,0.0,0.0,0.0
1713690048002053629,11599,1713690048065354417,uav31/gps_garmin_origin,uav31/fcu,-38.05090565862072,4.571201391204671,0.06749878953616652,-0.012251227605467352,0.04496258243413592,0.4487150609312908,0.892459002745967,0.00352147664945048,0.0,0.0,0.0,0.0,0.0,0.0,0.0035214766494502015,0.0,0.0,0.0,0.0,0.0,0.0,0.03203090475975661,0.0,0.0,0.0,0.0,0.0,0.0,0.0,0.0,0.0,0.0,0.0,0.0,0.0,0.0,0.0,0.0,0.0,0.0,0.0,0.0,0.0,-0.027287487236928025,-0.03593500395384254,-0.012641427454434261,0.0006814000080339611,-0.0034780092537403107,-0.001086423639208078,0.4574540217347116,0.0,0.0,0.0,0.0,0.0,0.0,0.45745402173423916,0.0,0.0,0.0,0.0,0.0,0.0,0.016439357185495093,0.0,0.0,0.0,0.0,0.0,0.0,0.0,0.0,0.0,0.0,0.0,0.0,0.0,0.0,0.0,0.0,0.0,0.0,0.0,0.0,0.0
1713690048127293346,11609,1713690048165354871,uav31/gps_garmin_origin,uav31/fcu,-38.049789792806884,4.56583243852244,0.06744587957650176,-0.01219863134028073,0.04492941685394468,0.4486884048745818,0.892474801957252,0.002325061490828727,0.0,0.0,0.0,0.0,0.0,0.0,0.0023250614908287273,0.0,0.0,0.0,0.0,0.0,0.0,0.03837663914304086,0.0,0.0,0.0,0.0,0.0,0.0,0.0,0.0,0.0,0.0,0.0,0.0,0.0,0.0,0.0,0.0,0.0,0.0,0.0,0.0,0.0,-0.030367947695885803,-0.03878470244389779,-0.012212082194765399,-0.002595465397462249,0.004290893208235502,0.002812704304233193,0.4405890687269202,0.0,0.0,0.0,0.0,0.0,0.0,0.44058906872673087,0.0,0.0,0.0,0.0,0.0,0.0,0.0062184150556005005,0.0,0.0,0.0,0.0,0.0,0.0,0.0,0.0,0.0,0.0,0.0,0.0,0.0,0.0,0.0,0.0,0.0,0.0,0.0,0.0,0.0
1713690048213729564,11620,1713690048275357032,uav31/gps_garmin_origin,uav31/fcu,-38.04837720435147,4.559784550499022,0.06753350379215572,-0.012222430193159776,0.04492757297405158,0.4486885540292931,0.8924745009491187,0.0035102050581471847,0.0,0.0,0.0,0.0,0.0,0.0,0.0035102050581471466,0.0,0.0,0.0,0.0,0.0,0.0,0.032048029103517624,0.0,0.0,0.0,0.0,0.0,0.0,0.0,0.0,0.0,0.0,0.0,0.0,0.0,0.0,0.0,0.0,0.0,0.0,0.0,0.0,0.0,-0.03287299522757023,-0.0419669974885325,-0.01192229154961475,-0.0028064362704753876,0.0009493864490650592,-0.0017550282645970585,0.4574649854747617,0.0,0.0,0.0,0.0,0.0,0.0,0.4574649854746925,0.0,0.0,0.0,0.0,0.0,0.0,0.016503819600110818,0.0,0.0,0.0,0.0,0.0,0.0,0.0,0.0,0.0,0.0,0.0,0.0,0.0,0.0,0.0,0.0,0.0,0.0,0.0,0.0,0.0
1713690048331373524,11630,1713690048375356921,uav31/gps_garmin_origin,uav31/fcu,-38.04703976082585,4.554749605688244,0.0674760557247724,-0.012227988386567827,0.04491702074031815,0.4486818442243494,0.8924783306650795,0.0035203080173084635,0.0,0.0,0.0,0.0,0.0,0.0,0.003520308017308454,0.0,0.0,0.0,0.0,0.0,0.0,0.03837484903053797,0.0,0.0,0.0,0.0,0.0,0.0,0.0,0.0,0.0,0.0,0.0,0.0,0.0,0.0,0.0,0.0,0.0,0.0,0.0,0.0,0.0,-0.03321990441273502,-0.04302848518376151,-0.011799957228567203,-0.0014737611636519432,-0.0027522011660039425,0.001524245250038803,0.45744076004767187,0.0,0.0,0.0,0.0,0.0,0.0,0.4574407600476556,0.0,0.0,0.0,0.0,0.0,0.0,0.016441346109145112,0.0,0.0,0.0,0.0,0.0,0.0,0.0,0.0,0.0,0.0,0.0,0.0,0.0,0.0,0.0,0.0,0.0,0.0,0.0,0.0,0.0
1713690048740839651,11640,1713690048475361868,uav31/gps_garmin_origin,uav31/fcu,-38.04603342387277,4.550403890432485,0.06756693530021694,-0.012236718207956007,0.04495494205116206,0.4486716451796543,0.892481407867995,0.0036774926199585065,0.0,0.0,0.0,0.0,0.0,0.0,0.003677492619958509,0.0,0.0,0.0,0.0,0.0,0.0,0.032073407777485984,0.0,0.0,0.0,0.0,0.0,0.0,0.0,0.0,0.0,0.0,0.0,0.0,0.0,0.0,0.0,0.0,0.0,0.0,0.0,0.0,0.0,-0.03229497785169951,-0.041254849043188074,-0.010829468591527008,0.0015445317840203643,-7.407477096421742e-05,-0.007993453182280064,0.4589738017293647,0.0,0.0,0.0,0.0,0.0,0.0,0.45897380172937047,0.0,0.0,0.0,0.0,0.0,0.0,0.016594879303470714,0.0,0.0,0.0,0.0,0.0,0.0,0.0,0.0,0.0,0.0,0.0,0.0,0.0,0.0,0.0,0.0,0.0,0.0,0.0,0.0,0.0
1713690048754362385,11651,1713690048585355996,uav31/gps_garmin_origin,uav31/fcu,-38.0448139966467,4.545908880997075,0.06756522375755492,-0.012231895340669648,0.044928119364950794,0.44865917770856323,0.8924890979327461,0.0032765607576475267,0.0,0.0,0.0,0.0,0.0,0.0,0.00327656075826348,0.0,0.0,0.0,0.0,0.0,0.0,0.03835894184298159,0.0,0.0,0.0,0.0,0.0,0.0,0.0,0.0,0.0,0.0,0.0,0.0,0.0,0.0,0.0,0.0,0.0,0.0,0.0,0.0,0.0,-0.030696723676832408,-0.03933196420257588,-0.00908798682451559,-0.0024863292928785086,-0.0010518846102058887,-0.000651140697300434,0.45445329759794467,0.0,0.0,0.0,0.0,0.0,0.0,0.4544532975916742,0.0,0.0,0.0,0.0,0.0,0.0,0.016441307466543757,0.0,0.0,0.0,0.0,0.0,0.0,0.0,0.0,0.0,0.0,0.0,0.0,0.0,0.0,0.0,0.0,0.0,0.0,0.0,0.0,0.0
1713690048775734104,11662,1713690048695354303,uav31/gps_garmin_origin,uav31/fcu,-38.04318970540018,4.541213680208909,0.06766933356158433,-0.012267082753361287,0.04495854434972753,0.44867320582394427,0.8924800318285423,0.0035141652484019905,0.0,0.0,0.0,0.0,0.0,0.0,0.0035141652483996334,0.0,0.0,0.0,0.0,0.0,0.0,0.029638970093049867,0.0,0.0,0.0,0.0,0.0,0.0,0.0,0.0,0.0,0.0,0.0,0.0,0.0,0.0,0.0,0.0,0.0,0.0,0.0,0.0,0.0,-0.029321358624381306,-0.03977488348963554,-0.0079123354797648,-0.003464923705905676,0.00044971870374865895,0.005406815558671951,0.4574618766913389,0.0,0.0,0.0,0.0,0.0,0.0,0.45746187669180927,0.0,0.0,0.0,0.0,0.0,0.0,0.01638905629404522,0.0,0.0,0.0,0.0,0.0,0.0,0.0,0.0,0.0,0.0,0.0,0.0,0.0,0.0,0.0,0.0,0.0,0.0,0.0,0.0,0.0
1713690048778304977,11673,1713690048805357102,uav31/gps_garmin_origin,uav31/fcu,-38.041663249005936,4.53700702319024,0.06763545732026649,-0.01220155018596054,0.04492097759627007,0.44875249093007313,0.8924429681927194,0.002339472919691253,0.0,0.0,0.0,0.0,0.0,0.0,0.0023394729196912524,0.0,0.0,0.0,0.0,0.0,0.0,0.037397635259993255,0.0,0.0,0.0,0.0,0.0,0.0,0.0,0.0,0.0,0.0,0.0,0.0,0.0,0.0,0.0,0.0,0.0,0.0,0.0,0.0,0.0,-0.0270699856329123,-0.03839916110603128,-0.007530315832541215,0.006351761985570192,-0.0005880058160983023,0.0026393686421215534,0.44069223926359014,0.0,0.0,0.0,0.0,0.0,0.0,0.4406922392642265,0.0,0.0,0.0,0.0,0.0,0.0,0.006345859732953854,0.0,0.0,0.0,0.0,0.0,0.0,0.0,0.0,0.0,0.0,0.0,0.0,0.0,0.0,0.0,0.0,0.0,0.0,0.0,0.0,0.0
1713690048897195561,11684,1713690048915437224,uav31/gps_garmin_origin,uav31/fcu,-38.03976520817058,4.532434502998073,0.06761498377261803,-0.012174117626295614,0.04494085953092414,0.44886237173836946,0.8923870771249516,0.0025652052123826185,0.0,0.0,0.0,0.0,0.0,0.0,0.002565205212382619,0.0,0.0,0.0,0.0,0.0,0.0,0.03965101194131236,0.0,0.0,0.0,0.0,0.0,0.0,0.0,0.0,0.0,0.0,0.0,0.0,0.0,0.0,0.0,0.0,0.0,0.0,0.0,0.0,0.0,-0.025763132202954467,-0.039361888061819464,-0.007096717687036578,0.00026455626357346773,-0.00047746591735631217,0.0009443270973861219,0.4437339180714319,0.0,0.0,0.0,0.0,0.0,0.0,0.4437339180719201,0.0,0.0,0.0,0.0,0.0,0.0,0.016443389581436034,0.0,0.0,0.0,0.0,0.0,0.0,0.0,0.0,0.0,0.0,0.0,0.0,0.0,0.0,0.0,0.0,0.0,0.0,0.0,0.0,0.0
1713690049039768839,11695,1713690049025354951,uav31/gps_garmin_origin,uav31/fcu,-38.03794438563164,4.527782910803377,0.06764270542262366,-0.012167364660293459,0.04491170220615809,0.4489268417616612,0.8923562018487491,0.003511402594579433,0.0,0.0,0.0,0.0,0.0,0.0,0.0035114025945795838,0.0,0.0,0.0,0.0,0.0,0.0,0.0372011419643828,0.0,0.0,0.0,0.0,0.0,0.0,0.0,0.0,0.0,0.0,0.0,0.0,0.0,0.0,0.0,0.0,0.0,0.0,0.0,0.0,0.0,-0.025115273231215436,-0.03970749802279599,-0.006600894353459305,0.0010633422061800957,0.00027481341385282554,-0.0016887109959498048,0.45744576022713357,0.0,0.0,0.0,0.0,0.0,0.0,0.4574457602271644,0.0,0.0,0.0,0.0,0.0,0.0,0.016435963931082223,0.0,0.0,0.0,0.0,0.0,0.0,0.0,0.0,0.0,0.0,0.0,0.0,0.0,0.0,0.0,0.0,0.0,0.0,0.0,0.0,0.0
1713690049091038000,11705,1713690049125359743,uav31/gps_garmin_origin,uav31/fcu,-38.03585955403368,4.523308535188008,0.06767441988104568,-0.012191423452917016,0.04496857895225054,0.4488973275515581,0.8923678479121054,0.003549741302684375,0.0,0.0,0.0,0.0,0.0,0.0,0.0035497413026843523,0.0,0.0,0.0,0.0,0.0,0.0,0.04071828327946962,0.0,0.0,0.0,0.0,0.0,0.0,0.0,0.0,0.0,0.0,0.0,0.0,0.0,0.0,0.0,0.0,0.0,0.0,0.0,0.0,0.0,-0.02462951974019986,-0.04176822542603748,-0.005080566050451874,-0.0005505022127181292,-0.0012019525747746234,-0.004143937490880489,0.4576261645144047,0.0,0.0,0.0,0.0,0.0,0.0,0.45762616451430826,0.0,0.0,0.0,0.0,0.0,0.0,0.016573013232214218,0.0,0.0,0.0,0.0,0.0,0.0,0.0,0.0,0.0,0.0,0.0,0.0,0.0,0.0,0.0,0.0,0.0,0.0,0.0,0.0,0.0
1713690049195098558,11716,1713690049235353389,uav31/gps_garmin_origin,uav31/fcu,-38.03398348950203,4.518678553999798,0.06771754425742879,-0.012195446500872148,0.04494816913304559,0.4488956117282801,0.8923696963585881,0.0033320641759743016,0.0,0.0,0.0,0.0,0.0,0.0,0.0033320641759743102,0.0,0.0,0.0,0.0,0.0,0.0,0.03719820129564961,0.0,0.0,0.0,0.0,0.0,0.0,0.0,0.0,0.0,0.0,0.0,0.0,0.0,0.0,0.0,0.0,0.0,0.0,0.0,0.0,0.0,-0.02412983055088032,-0.04115538386256631,-0.004400378327409026,0.0010620005195960402,0.0015901832375675435,-0.003920735325664282,0.4550391605015353,0.0,0.0,0.0,0.0,0.0,0.0,0.4550391605014664,0.0,0.0,0.0,0.0,0.0,0.0,0.01642621943557785,0.0,0.0,0.0,0.0,0.0,0.0,0.0,0.0,0.0,0.0,0.0,0.0,0.0,0.0,0.0,0.0,0.0,0.0,0.0,0.0,0.0
1713690049887918383,11727,1713690049345354165,uav31/gps_garmin_origin,uav31/fcu,-38.031150029360354,4.513390680983604,0.06771291881679306,-0.012176833303789089,0.044955865852430645,0.44892322828738546,0.8923556683871006,0.0035138586066831966,0.0,0.0,0.0,0.0,0.0,0.0,0.003513858606683247,0.0,0.0,0.0,0.0,0.0,0.0,0.039599235503518244,0.0,0.0,0.0,0.0,0.0,0.0,0.0,0.0,0.0,0.0,0.0,0.0,0.0,0.0,0.0,0.0,0.0,0.0,0.0,0.0,0.0,-0.023714670534873448,-0.04485578893592822,-0.004268220933331035,-0.00022072202409617603,0.0007627759478054937,-0.0024098108988255262,0.4574240497368737,0.0,0.0,0.0,0.0,0.0,0.0,0.45742404973676454,0.0,0.0,0.0,0.0,0.0,0.0,0.01644867667028217,0.0,0.0,0.0,0.0,0.0,0.0,0.0,0.0,0.0,0.0,0.0,0.0,0.0,0.0,0.0,0.0,0.0,0.0,0.0,0.0,0.0
1713690049958842715,11737,1713690049445356334,uav31/gps_garmin_origin,uav31/fcu,-38.0293253624118,4.509497522627602,0.06776205969242666,-0.012221014198298125,0.04499051752288314,0.44890707795808443,0.892361451095351,0.0035590443988648872,0.0,0.0,0.0,0.0,0.0,0.0,0.003559044398864216,0.0,0.0,0.0,0.0,0.0,0.0,0.03722129860703333,0.0,0.0,0.0,0.0,0.0,0.0,0.0,0.0,0.0,0.0,0.0,0.0,0.0,0.0,0.0,0.0,0.0,0.0,0.0,0.0,0.0,-0.022597161484724335,-0.043321749389833124,-0.002939148944701615,-0.00013085575483273715,-0.0006147147505544129,-0.0023024226538836956,0.4577374256400208,0.0,0.0,0.0,0.0,0.0,0.0,0.4577374256397384,0.0,0.0,0.0,0.0,0.0,0.0,0.01646940747904846,0.0,0.0,0.0,0.0,0.0,0.0,0.0,0.0,0.0,0.0,0.0,0.0,0.0,0.0,0.0,0.0,0.0,0.0,0.0,0.0,0.0
1713690050049644418,11748,1713690049555356259,uav31/gps_garmin_origin,uav31/fcu,-38.02679863313595,4.504021089839193,0.06781768079420057,-0.012261333997801695,0.04500833287318286,0.4488751577680944,0.8923760520236699,0.0026121889314554858,0.0,0.0,0.0,0.0,0.0,0.0,0.002612188931455485,0.0,0.0,0.0,0.0,0.0,0.0,0.038453035770419065,0.0,0.0,0.0,0.0,0.0,0.0,0.0,0.0,0.0,0.0,0.0,0.0,0.0,0.0,0.0,0.0,0.0,0.0,0.0,0.0,0.0,-0.023729862478709906,-0.04554958608836557,-0.0015776958184365716,-9.824454900808632e-05,0.0006519380840472874,-0.0024220997001975775,0.4440720682046292,0.0,0.0,0.0,0.0,0.0,0.0,0.4440720682167595,0.0,0.0,0.0,0.0,0.0,0.0,0.016524430636808272,0.0,0.0,0.0,0.0,0.0,0.0,0.0,0.0,0.0,0.0,0.0,0.0,0.0,0.0,0.0,0.0,0.0,0.0,0.0,0.0,0.0
1713690050059227569,11759,1713690049665355996,uav31/gps_garmin_origin,uav31/fcu,-38.02475103027045,4.498865054151066,0.06786008026968682,-0.012243240619874767,0.04502380015218269,0.4488969628683279,0.8923645420817123,0.0025572879618719156,0.0,0.0,0.0,0.0,0.0,0.0,0.002557287961871915,0.0,0.0,0.0,0.0,0.0,0.0,0.037125295644322084,0.0,0.0,0.0,0.0,0.0,0.0,0.0,0.0,0.0,0.0,0.0,0.0,0.0,0.0,0.0,0.0,0.0,0.0,0.0,0.0,0.0,-0.024685141037300667,-0.04526575937065163,-0.0005300787162322582,-0.0015275519108399749,0.0035379284527152772,-0.0022129488643258814,0.44323317376627797,0.0,0.0,0.0,0.0,0.0,0.0,0.44323317376567173,0.0,0.0,0.0,0.0,0.0,0.0,0.016442537599527553,0.0,0.0,0.0,0.0,0.0,0.0,0.0,0.0,0.0,0.0,0.0,0.0,0.0,0.0,0.0,0.0,0.0,0.0,0.0,0.0,0.0
1713690050116612196,11769,1713690049765358364,uav31/gps_garmin_origin,uav31/fcu,-38.02315009931048,4.493175085357472,0.06790888601413715,-0.0122685546621504,0.04505035205163157,0.44891542963192654,0.8923535810374323,0.0023175893689502862,0.0,0.0,0.0,0.0,0.0,0.0,0.0023175893689502854,0.0,0.0,0.0,0.0,0.0,0.0,0.0377630893417471,0.0,0.0,0.0,0.0,0.0,0.0,0.0,0.0,0.0,0.0,0.0,0.0,0.0,0.0,0.0,0.0,0.0,0.0,0.0,0.0,0.0,-0.028386073715258888,-0.04634218117892034,0.0005204657744029915,0.002896849764510989,-0.004532337188720703,5.31497498741379e-05,0.4406314235357915,0.0,0.0,0.0,0.0,0.0,0.0,0.4406314235351903,0.0,0.0,0.0,0.0,0.0,0.0,0.006221340099452056,0.0,0.0,0.0,0.0,0.0,0.0,0.0,0.0,0.0,0.0,0.0,0.0,0.0,0.0,0.0,0.0,0.0,0.0,0.0,0.0,0.0
1713690050136827345,11780,1713690049875358471,uav31/gps_garmin_origin,uav31/fcu,-38.02200146034938,4.487719231654231,0.06794654750683217,-0.012258753362651536,0.04500582740662763,0.44887179374664143,0.8923778976538946,0.0024588351539100973,0.0,0.0,0.0,0.0,0.0,0.0,0.002458835153910096,0.0,0.0,0.0,0.0,0.0,0.0,0.029654688167846315,0.0,0.0,0.0,0.0,0.0,0.0,0.0,0.0,0.0,0.0,0.0,0.0,0.0,0.0,0.0,0.0,0.0,0.0,0.0,0.0,0.0,-0.030460800206555835,-0.0439221421740789,0.0021742577899464665,-0.0014286524383351207,-0.0006548397359438237,0.0026157961692661047,0.4420189911855237,0.0,0.0,0.0,0.0,0.0,0.0,0.4420189911853013,0.0,0.0,0.0,0.0,0.0,0.0,0.006368009163291724,0.0,0.0,0.0,0.0,0.0,0.0,0.0,0.0,0.0,0.0,0.0,0.0,0.0,0.0,0.0,0.0,0.0,0.0,0.0,0.0,0.0
1713690050300974674,11802,1713690050095360663,uav31/gps_garmin_origin,uav31/fcu,-38.01900210567999,4.477243730797856,0.06809888650381164,-0.012282334429867422,0.0450666713039089,0.4488805284315403,0.8923701073589091,0.003514454489870966,0.0,0.0,0.0,0.0,0.0,0.0,0.00351445448987098,0.0,0.0,0.0,0.0,0.0,0.0,0.04214852252934675,0.0,0.0,0.0,0.0,0.0,0.0,0.0,0.0,0.0,0.0,0.0,0.0,0.0,0.0,0.0,0.0,0.0,0.0,0.0,0.0,0.0,-0.031103725470192387,-0.042031996238999794,0.00421226100503182,-4.625607107300311e-05,0.0002568891504779453,-0.004123764578253031,0.4574189913869689,0.0,0.0,0.0,0.0,0.0,0.0,0.4574189913869967,0.0,0.0,0.0,0.0,0.0,0.0,0.016508895666592107,0.0,0.0,0.0,0.0,0.0,0.0,0.0,0.0,0.0,0.0,0.0,0.0,0.0,0.0,0.0,0.0,0.0,0.0,0.0,0.0,0.0
1713690050301008944,11823,1713690050305356218,uav31/gps_garmin_origin,uav31/fcu,-38.01637726030254,4.467707891215686,0.06812526884680346,-0.012327032840553639,0.04510432424824946,0.4489455008292009,0.8923349096824353,0.0027152950996379116,0.0,0.0,0.0,0.0,0.0,0.0,0.002715295099637911,0.0,0.0,0.0,0.0,0.0,0.0,0.04212819067201509,0.0,0.0,0.0,0.0,0.0,0.0,0.0,0.0,0.0,0.0,0.0,0.0,0.0,0.0,0.0,0.0,0.0,0.0,0.0,0.0,0.0,-0.030698547062613324,-0.03907814179628143,0.004828995414220704,0.0028222128748893738,-0.00033352233003824966,-0.0011881510727107525,0.4453774731741899,0.0,0.0,0.0,0.0,0.0,0.0,0.4453774731738301,0.0,0.0,0.0,0.0,0.0,0.0,0.016503908119133836,0.0,0.0,0.0,0.0,0.0,0.0,0.0,0.0,0.0,0.0,0.0,0.0,0.0,0.0,0.0,0.0,0.0,0.0,0.0,0.0,0.0
1713690050432167108,11834,1713690050415359043,uav31/gps_garmin_origin,uav31/fcu,-38.01532640028107,4.462733712827854,0.06812341323536972,-0.012350067384201205,0.04508818585864793,0.4489482432628897,0.8923340265282654,0.0035167550144765084,0.0,0.0,0.0,0.0,0.0,0.0,0.003516755014476551,0.0,0.0,0.0,0.0,0.0,0.0,0.03729185955298747,0.0,0.0,0.0,0.0,0.0,0.0,0.0,0.0,0.0,0.0,0.0,0.0,0.0,0.0,0.0,0.0,0.0,0.0,0.0,0.0,0.0,-0.03111278876965361,-0.03737913392275543,0.005357917109067183,0.0016535704489797354,-0.0021491788793355227,-0.0004823371709790078,0.4574388321106563,0.0,0.0,0.0,0.0,0.0,0.0,0.4574388321104082,0.0,0.0,0.0,0.0,0.0,0.0,0.0165151761193023,0.0,0.0,0.0,0.0,0.0,0.0,0.0,0.0,0.0,0.0,0.0,0.0,0.0,0.0,0.0,0.0,0.0,0.0,0.0,0.0,0.0
1713690050645890262,11845,1713690050525357627,uav31/gps_garmin_origin,uav31/fcu,-38.01453180342961,4.457826193833706,0.06813861766524668,-0.012366377002799363,0.04508336701246732,0.44897547986550906,0.8923203423028685,0.002361259805598492,0.0,0.0,0.0,0.0,0.0,0.0,0.0023612598055984917,0.0,0.0,0.0,0.0,0.0,0.0,0.03960855799711335,0.0,0.0,0.0,0.0,0.0,0.0,0.0,0.0,0.0,0.0,0.0,0.0,0.0,0.0,0.0,0.0,0.0,0.0,0.0,0.0,0.0,-0.031629614555885484,-0.03549473210395829,0.005196149220164617,-0.0009340838878415525,-0.0017089968314394348,0.005107811186462641,0.4408941593996981,0.0,0.0,0.0,0.0,0.0,0.0,0.44089415939956195,0.0,0.0,0.0,0.0,0.0,0.0,0.01434303220879617,0.0,0.0,0.0,0.0,0.0,0.0,0.0,0.0,0.0,0.0,0.0,0.0,0.0,0.0,0.0,0.0,0.0,0.0,0.0,0.0,0.0
1713690050659124876,11855,1713690050625320255,uav31/gps_garmin_origin,uav31/fcu,-38.014195105334025,4.453710424964567,0.06812569089575392,-0.012386748276836603,0.04509187620650638,0.4490198969261986,0.8922972771613695,0.00263258975283657,0.0,0.0,0.0,0.0,0.0,0.0,0.002632589752836571,0.0,0.0,0.0,0.0,0.0,0.0,0.03745578745320528,0.0,0.0,0.0,0.0,0.0,0.0,0.0,0.0,0.0,0.0,0.0,0.0,0.0,0.0,0.0,0.0,0.0,0.0,0.0,0.0,0.0,-0.03179328455396754,-0.03235977885545304,0.005104156968626704,0.0005815443582832813,-0.00038041418883949497,0.00183436693623662,0.44443917657748994,0.0,0.0,0.0,0.0,0.0,0.0,0.44443917657525783,0.0,0.0,0.0,0.0,0.0,0.0,0.016506399278110113,0.0,0.0,0.0,0.0,0.0,0.0,0.0,0.0,0.0,0.0,0.0,0.0,0.0,0.0,0.0,0.0,0.0,0.0,0.0,0.0,0.0
1713690050712450942,11866,1713690050735355280,uav31/gps_garmin_origin,uav31/fcu,-38.0126303366791,4.449043949332345,0.06815652461233394,-0.012415348827017815,0.04512612169930158,0.44901808873614407,0.8922960576583074,0.003516841139527123,0.0,0.0,0.0,0.0,0.0,0.0,0.0035168411395246364,0.0,0.0,0.0,0.0,0.0,0.0,0.04079301529113645,0.0,0.0,0.0,0.0,0.0,0.0,0.0,0.0,0.0,0.0,0.0,0.0,0.0,0.0,0.0,0.0,0.0,0.0,0.0,0.0,0.0,-0.030097947450361512,-0.033507981010974366,0.005330917002222956,0.0022188033908605576,0.0006295561324805022,0.0009213185985572635,0.4574650263930401,0.0,0.0,0.0,0.0,0.0,0.0,0.457465026393661,0.0,0.0,0.0,0.0,0.0,0.0,0.01651123619299632,0.0,0.0,0.0,0.0,0.0,0.0,0.0,0.0,0.0,0.0,0.0,0.0,0.0,0.0,0.0,0.0,0.0,0.0,0.0,0.0,0.0
1713690050780701078,11876,1713690050835356674,uav31/gps_garmin_origin,uav31/fcu,-38.01161651632183,4.4458217827031135,0.06814904672594045,-0.012461253169141331,0.04513920112343319,0.4490676075808315,0.8922698328506203,0.00236239755601356,0.0,0.0,0.0,0.0,0.0,0.0,0.0023623975560135603,0.0,0.0,0.0,0.0,0.0,0.0,0.03739764394287317,0.0,0.0,0.0,0.0,0.0,0.0,0.0,0.0,0.0,0.0,0.0,0.0,0.0,0.0,0.0,0.0,0.0,0.0,0.0,0.0,0.0,-0.027180884668379517,-0.031002613857947857,0.005848252725708333,0.0016882207710295916,-0.0019250356126576666,-0.0033561477903276678,0.4409135215191759,0.0,0.0,0.0,0.0,0.0,0.0,0.4409135215200535,0.0,0.0,0.0,0.0,0.0,0.0,0.007097619403766262,0.0,0.0,0.0,0.0,0.0,0.0,0.0,0.0,0.0,0.0,0.0,0.0,0.0,0.0,0.0,0.0,0.0,0.0,0.0,0.0,0.0
1713690050924649736,11886,1713690050935353382,uav31/gps_garmin_origin,uav31/fcu,-38.009770251687044,4.44103658297258,0.06809581468719997,-0.012464843905146406,0.045177379539138196,0.4490728172219259,0.8922652347679304,0.0035113596246342804,0.0,0.0,0.0,0.0,0.0,0.0,0.003511359624634517,0.0,0.0,0.0,0.0,0.0,0.0,0.032028633247120346,0.0,0.0,0.0,0.0,0.0,0.0,0.0,0.0,0.0,0.0,0.0,0.0,0.0,0.0,0.0,0.0,0.0,0.0,0.0,0.0,0.0,-0.02739946749349675,-0.034699055622017846,0.005453602497804405,0.002414967166259885,0.0016115088947117329,-0.0004420500190462919,0.457454700792738,0.0,0.0,0.0,0.0,0.0,0.0,0.4574547007932676,0.0,0.0,0.0,0.0,0.0,0.0,0.01643895727373505,0.0,0.0,0.0,0.0,0.0,0.0,0.0,0.0,0.0,0.0,0.0,0.0,0.0,0.0,0.0,0.0,0.0,0.0,0.0,0.0,0.0
1713690050982567413,11897,1713690051045354827,uav31/gps_garmin_origin,uav31/fcu,-38.008743767662956,4.436683665581362,0.07415082105581096,-0.012482759772823936,0.04522494178372784,0.44904985797462293,0.8922741209716398,0.0035288006210808165,0.0,0.0,0.0,0.0,0.0,0.0,0.0035288006210878213,0.0,0.0,0.0,0.0,0.0,0.0,0.03737934409560118,0.0,0.0,0.0,0.0,0.0,0.0,0.0,0.0,0.0,0.0,0.0,0.0,0.0,0.0,0.0,0.0,0.0,0.0,0.0,0.0,0.0,-0.027135039580457956,-0.03326623031009886,0.005442945027961809,0.004046527668833733,0.0019457305315881963,-0.00396651541814208,0.45748755703144417,0.0,0.0,0.0,0.0,0.0,0.0,0.4574875570325253,0.0,0.0,0.0,0.0,0.0,0.0,0.01643390285913885,0.0,0.0,0.0,0.0,0.0,0.0,0.0,0.0,0.0,0.0,0.0,0.0,0.0,0.0,0.0,0.0,0.0,0.0,0.0,0.0,0.0
1713690051268145432,11918,1713690051255361694,uav31/gps_garmin_origin,uav31/fcu,-38.00519118773436,4.4274426440220065,0.07577863243036631,-0.012509744673338161,0.045250194392235384,0.44905236718600916,0.8922712067380197,0.003510656782684961,0.0,0.0,0.0,0.0,0.0,0.0,0.0035106567826847946,0.0,0.0,0.0,0.0,0.0,0.0,0.037206010918476445,0.0,0.0,0.0,0.0,0.0,0.0,0.0,0.0,0.0,0.0,0.0,0.0,0.0,0.0,0.0,0.0,0.0,0.0,0.0,0.0,0.0,-0.026421937680004903,-0.03655824459936351,0.007711238858826581,-0.000300787651212886,0.004143621772527695,0.002199741313233971,0.45744878845177867,0.0,0.0,0.0,0.0,0.0,0.0,0.4574487884513828,0.0,0.0,0.0,0.0,0.0,0.0,0.016433251379982996,0.0,0.0,0.0,0.0,0.0,0.0,0.0,0.0,0.0,0.0,0.0,0.0,0.0,0.0,0.0,0.0,0.0,0.0,0.0,0.0,0.0
1713690051399096684,11929,1713690051365353981,uav31/gps_garmin_origin,uav31/fcu,-38.003267167506294,4.423959151407514,0.08287733622737337,-0.012520586941586682,0.045285234197470076,0.44905795257888004,0.8922664658424408,0.0035156236199864084,0.0,0.0,0.0,0.0,0.0,0.0,0.0035156236199811357,0.0,0.0,0.0,0.0,0.0,0.0,0.03957790029496727,0.0,0.0,0.0,0.0,0.0,0.0,0.0,0.0,0.0,0.0,0.0,0.0,0.0,0.0,0.0,0.0,0.0,0.0,0.0,0.0,0.0,-0.022784455857016234,-0.03523519613588891,0.008347512935631138,0.0006946079665794969,0.004168052226305008,-0.00027174982824362863,0.4573711305855271,0.0,0.0,0.0,0.0,0.0,0.0,0.4573711305851283,0.0,0.0,0.0,0.0,0.0,0.0,0.016376656231585292,0.0,0.0,0.0,0.0,0.0,0.0,0.0,0.0,0.0,0.0,0.0,0.0,0.0,0.0,0.0,0.0,0.0,0.0,0.0,0.0,0.0
1713690051464069587,11940,1713690051475358236,uav31/gps_garmin_origin,uav31/fcu,-38.001371212397764,4.4204595102569435,0.08053383169451676,-0.01256320655021588,0.04527352368585232,0.44908836958186643,0.8922511508422367,0.002370042068234592,0.0,0.0,0.0,0.0,0.0,0.0,0.0023700420682345917,0.0,0.0,0.0,0.0,0.0,0.0,0.03721431559278652,0.0,0.0,0.0,0.0,0.0,0.0,0.0,0.0,0.0,0.0,0.0,0.0,0.0,0.0,0.0,0.0,0.0,0.0,0.0,0.0,0.0,-0.020306432352399085,-0.03451987417098106,0.009750617432198997,-0.0012257040943950415,0.00188434321898967,-0.0012387291062623265,0.4410649650605634,0.0,0.0,0.0,0.0,0.0,0.0,0.44106496505985493,0.0,0.0,0.0,0.0,0.0,0.0,0.006239488829620155,0.0,0.0,0.0,0.0,0.0,0.0,0.0,0.0,0.0,0.0,0.0,0.0,0.0,0.0,0.0,0.0,0.0,0.0,0.0,0.0,0.0
1713690051530687892,11951,1713690051585326795,uav31/gps_garmin_origin,uav31/fcu,-37.998955380893314,4.416843590128701,0.07431378007191879,-0.012535433528750362,0.045368781090675055,0.44910648853135193,0.8922375907396755,0.0023166675637841835,0.0,0.0,0.0,0.0,0.0,0.0,0.002316667563784185,0.0,0.0,0.0,0.0,0.0,0.0,0.038388516924537625,0.0,0.0,0.0,0.0,0.0,0.0,0.0,0.0,0.0,0.0,0.0,0.0,0.0,0.0,0.0,0.0,0.0,0.0,0.0,0.0,0.0,-0.017894996667118475,-0.03532619574611113,0.011074186594020832,-0.0021999827586114407,-0.0023447533603757616,0.0024582827463746075,0.4405474883625203,0.0,0.0,0.0,0.0,0.0,0.0,0.440547488364067,0.0,0.0,0.0,0.0,0.0,0.0,0.014393261904645483,0.0,0.0,0.0,0.0,0.0,0.0,0.0,0.0,0.0,0.0,0.0,0.0,0.0,0.0,0.0,0.0,0.0,0.0,0.0,0.0,0.0
1713690051704050451,11962,1713690051695355740,uav31/gps_garmin_origin,uav31/fcu,-37.99655497968309,4.4134231813976115,0.06961837992517234,-0.012545740533218344,0.045366421567758816,0.44914527839743845,0.892218030481312,0.0035104653041052158,0.0,0.0,0.0,0.0,0.0,0.0,0.003510465304105621,0.0,0.0,0.0,0.0,0.0,0.0,0.03719748704187356,0.0,0.0,0.0,0.0,0.0,0.0,0.0,0.0,0.0,0.0,0.0,0.0,0.0,0.0,0.0,0.0,0.0,0.0,0.0,0.0,0.0,-0.015677341620652818,-0.035462109484997194,0.01269998794836533,-0.0025454903952777386,-0.0033459984697401524,-9.712012979434762e-05,0.4574879017948106,0.0,0.0,0.0,0.0,0.0,0.0,0.45748790179575155,0.0,0.0,0.0,0.0,0.0,0.0,0.016431478933605075,0.0,0.0,0.0,0.0,0.0,0.0,0.0,0.0,0.0,0.0,0.0,0.0,0.0,0.0,0.0,0.0,0.0,0.0,0.0,0.0,0.0
1713690051809315385,11973,1713690051805366187,uav31/gps_garmin_origin,uav31/fcu,-37.99412952113858,4.411409761982887,0.06844231235137885,-0.012592934558540696,0.045400940166332726,0.4491156605476482,0.8922305205484127,0.00232438334809523,0.0,0.0,0.0,0.0,0.0,0.0,0.0023243833480952295,0.0,0.0,0.0,0.0,0.0,0.0,0.03780357520329045,0.0,0.0,0.0,0.0,0.0,0.0,0.0,0.0,0.0,0.0,0.0,0.0,0.0,0.0,0.0,0.0,0.0,0.0,0.0,0.0,0.0,-0.010688039024411398,-0.03269898009563751,0.0141107009285347,0.0006674111937172711,-0.00113246007822454,-0.0014719082973897455,0.44055359531313615,0.0,0.0,0.0,0.0,0.0,0.0,0.44055359531355176,0.0,0.0,0.0,0.0,0.0,0.0,0.006226993907658101,0.0,0.0,0.0,0.0,0.0,0.0,0.0,0.0,0.0,0.0,0.0,0.0,0.0,0.0,0.0,0.0,0.0,0.0,0.0,0.0,0.0
1713690051876909013,11984,1713690051915353562,uav31/gps_garmin_origin,uav31/fcu,-37.99163502948278,4.408893529571,0.06850097059440093,-0.012612918987711504,0.04544296011257765,0.4490853107709736,0.8922433796277082,0.0026121164445964615,0.0,0.0,0.0,0.0,0.0,0.0,0.0026121164445964593,0.0,0.0,0.0,0.0,0.0,0.0,0.042148359081929675,0.0,0.0,0.0,0.0,0.0,0.0,0.0,0.0,0.0,0.0,0.0,0.0,0.0,0.0,0.0,0.0,0.0,0.0,0.0,0.0,0.0,-0.008255352794751614,-0.03204589034117841,0.015513683085050965,-0.0013648117892444134,-0.004066052846610546,0.0018625758821144704,0.4440580279780724,0.0,0.0,0.0,0.0,0.0,0.0,0.444058027990707,0.0,0.0,0.0,0.0,0.0,0.0,0.016445405630594354,0.0,0.0,0.0,0.0,0.0,0.0,0.0,0.0,0.0,0.0,0.0,0.0,0.0,0.0,0.0,0.0,0.0,0.0,0.0,0.0,0.0
1713690051993710559,11995,1713690052025358371,uav31/gps_garmin_origin,uav31/fcu,-37.98965540625349,4.406510033198088,0.06847240605122633,-0.01260966571182696,0.045493138333794404,0.4490591656299043,0.8922540263701588,0.0027173098462102184,0.0,0.0,0.0,0.0,0.0,0.0,0.0027173098462102184,0.0,0.0,0.0,0.0,0.0,0.0,0.03739728759367272,0.0,0.0,0.0,0.0,0.0,0.0,0.0,0.0,0.0,0.0,0.0,0.0,0.0,0.0,0.0,0.0,0.0,0.0,0.0,0.0,0.0,-0.0072346440133062425,-0.02970263419162729,0.017012554987785113,0.000713651068508625,0.0026675534900277853,0.0017627363558858629,0.44537100501714666,0.0,0.0,0.0,0.0,0.0,0.0,0.44537100501656834,0.0,0.0,0.0,0.0,0.0,0.0,0.007287845925947183,0.0,0.0,0.0,0.0,0.0,0.0,0.0,0.0,0.0,0.0,0.0,0.0,0.0,0.0,0.0,0.0,0.0,0.0,0.0,0.0,0.0
1713690052302170728,12005,1713690052125357126,uav31/gps_garmin_origin,uav31/fcu,-37.98710158322859,4.404169822758686,0.06842766391984721,-0.0126546930522011,0.045499229931518885,0.44909178550646317,0.8922366606756916,0.0035547693283571264,0.0,0.0,0.0,0.0,0.0,0.0,0.0035547693283670655,0.0,0.0,0.0,0.0,0.0,0.0,0.03204861506380023,0.0,0.0,0.0,0.0,0.0,0.0,0.0,0.0,0.0,0.0,0.0,0.0,0.0,0.0,0.0,0.0,0.0,0.0,0.0,0.0,0.0,-0.005615018369996254,-0.0308618098645007,0.01827380259251694,0.0018959140870720148,-0.0017150226049125195,-5.0306334742344706e-05,0.45772530320879795,0.0,0.0,0.0,0.0,0.0,0.0,0.4577253032098692,0.0,0.0,0.0,0.0,0.0,0.0,0.016505655375841605,0.0,0.0,0.0,0.0,0.0,0.0,0.0,0.0,0.0,0.0,0.0,0.0,0.0,0.0,0.0,0.0,0.0,0.0,0.0,0.0,0.0
1713690052302230839,12015,1713690052225359861,uav31/gps_garmin_origin,uav31/fcu,-37.98479476736114,4.402725674016867,0.06861575474732343,-0.012627339747621357,0.045577096239694116,0.4490523359583668,0.8922529292947466,0.0025483982591156993,0.0,0.0,0.0,0.0,0.0,0.0,0.0025483982591156997,0.0,0.0,0.0,0.0,0.0,0.0,0.038373943284350766,0.0,0.0,0.0,0.0,0.0,0.0,0.0,0.0,0.0,0.0,0.0,0.0,0.0,0.0,0.0,0.0,0.0,0.0,0.0,0.0,0.0,-0.002939994154417239,-0.02903640299487587,0.020967546919509205,-0.0009340883698314428,-0.0002412705653114251,-0.005516197998076677,0.4433045462776909,0.0,0.0,0.0,0.0,0.0,0.0,0.44330454627633625,0.0,0.0,0.0,0.0,0.0,0.0,0.01644672091535647,0.0,0.0,0.0,0.0,0.0,0.0,0.0,0.0,0.0,0.0,0.0,0.0,0.0,0.0,0.0,0.0,0.0,0.0,0.0,0.0,0.0
1713690052314505103,12026,1713690052335356582,uav31/gps_garmin_origin,uav31/fcu,-37.98157387051556,4.401626863019917,0.06854958072141784,-0.01263167308079788,0.04558554444653556,0.4490673707352498,0.8922448714638246,0.0032251131969384195,0.0,0.0,0.0,0.0,0.0,0.0,0.003225113196913333,0.0,0.0,0.0,0.0,0.0,0.0,0.03200892531588908,0.0,0.0,0.0,0.0,0.0,0.0,0.0,0.0,0.0,0.0,0.0,0.0,0.0,0.0,0.0,0.0,0.0,0.0,0.0,0.0,0.0,0.0017541110862590394,-0.028493341273893406,0.0231949345935523,-0.0007065426325425506,-0.0010857150191441178,0.0008377041667699815,0.4536434857852286,0.0,0.0,0.0,0.0,0.0,0.0,0.4536434857759081,0.0,0.0,0.0,0.0,0.0,0.0,0.016426356895019565,0.0,0.0,0.0,0.0,0.0,0.0,0.0,0.0,0.0,0.0,0.0,0.0,0.0,0.0,0.0,0.0,0.0,0.0,0.0,0.0,0.0
1713690052409519797,12037,1713690052445354019,uav31/gps_garmin_origin,uav31/fcu,-37.9785579543018,4.400840999004221,0.06870062102462852,-0.012692343418240474,0.04561313463674331,0.44909199010464973,0.8922302081079785,0.003522817962074005,0.0,0.0,0.0,0.0,0.0,0.0,0.003522817962072102,0.0,0.0,0.0,0.0,0.0,0.0,0.037711936091665996,0.0,0.0,0.0,0.0,0.0,0.0,0.0,0.0,0.0,0.0,0.0,0.0,0.0,0.0,0.0,0.0,0.0,0.0,0.0,0.0,0.0,0.005406791729247234,-0.027135853286019255,0.023618594212974797,-0.001964423805475235,0.0008072129567153756,0.0030999351292848587,0.45751712257136906,0.0,0.0,0.0,0.0,0.0,0.0,0.4575171225711885,0.0,0.0,0.0,0.0,0.0,0.0,0.016431189038405777,0.0,0.0,0.0,0.0,0.0,0.0,0.0,0.0,0.0,0.0,0.0,0.0,0.0,0.0,0.0,0.0,0.0,0.0,0.0,0.0,0.0
1713690052537805272,12047,1713690052545357450,uav31/gps_garmin_origin,uav31/fcu,-37.97592125768416,4.399687314644767,0.06889767420425646,-0.012669726967570794,0.045594749453766625,0.4491238441246506,0.8922154227272787,0.0024575370755881877,0.0,0.0,0.0,0.0,0.0,0.0,0.0024575370755881877,0.0,0.0,0.0,0.0,0.0,0.0,0.047120980303411726,0.0,0.0,0.0,0.0,0.0,0.0,0.0,0.0,0.0,0.0,0.0,0.0,0.0,0.0,0.0,0.0,0.0,0.0,0.0,0.0,0.0,0.006532727632463625,-0.02674358001643269,0.02312579508334899,-0.003031365806236863,-0.002742229728028178,0.0008072229102253917,0.4420019831315612,0.0,0.0,0.0,0.0,0.0,0.0,0.4420019831318579,0.0,0.0,0.0,0.0,0.0,0.0,0.0063682444021835255,0.0,0.0,0.0,0.0,0.0,0.0,0.0,0.0,0.0,0.0,0.0,0.0,0.0,0.0,0.0,0.0,0.0,0.0,0.0,0.0,0.0
1713690052643798540,12058,1713690052655403212,uav31/gps_garmin_origin,uav31/fcu,-37.9736982892459,4.398278552124237,0.06865875175675915,-0.012672215605886916,0.04562735635800191,0.4491307501753704,0.8922102556122421,0.003511687026459533,0.0,0.0,0.0,0.0,0.0,0.0,0.003511687026459611,0.0,0.0,0.0,0.0,0.0,0.0,0.03745488820122184,0.0,0.0,0.0,0.0,0.0,0.0,0.0,0.0,0.0,0.0,0.0,0.0,0.0,0.0,0.0,0.0,0.0,0.0,0.0,0.0,0.0,0.005770285727220527,-0.025181407377038795,0.02269140675837066,0.0017164337914437056,0.0030910433270037174,0.000790857651736587,0.45744513931194053,0.0,0.0,0.0,0.0,0.0,0.0,0.4574451393121231,0.0,0.0,0.0,0.0,0.0,0.0,0.016510605509683696,0.0,0.0,0.0,0.0,0.0,0.0,0.0,0.0,0.0,0.0,0.0,0.0,0.0,0.0,0.0,0.0,0.0,0.0,0.0,0.0,0.0
1713690052700916819,12068,1713690052755355582,uav31/gps_garmin_origin,uav31/fcu,-37.971425919762225,4.396419138805422,0.06848932646005526,-0.012683070871753202,0.04563668332736809,0.4491141002703659,0.8922180023705015,0.0035404874578515368,0.0,0.0,0.0,0.0,0.0,0.0,0.0035404874578565514,0.0,0.0,0.0,0.0,0.0,0.0,0.029645902600042216,0.0,0.0,0.0,0.0,0.0,0.0,0.0,0.0,0.0,0.0,0.0,0.0,0.0,0.0,0.0,0.0,0.0,0.0,0.0,0.0,0.0,0.004166717377522946,-0.02605161875539459,0.022574790616167146,3.2464413379784673e-05,0.0015106982318684457,-0.0016437609447166326,0.4575744797338774,0.0,0.0,0.0,0.0,0.0,0.0,0.457574479734847,0.0,0.0,0.0,0.0,0.0,0.0,0.016446064852723662,0.0,0.0,0.0,0.0,0.0,0.0,0.0,0.0,0.0,0.0,0.0,0.0,0.0,0.0,0.0,0.0,0.0,0.0,0.0,0.0,0.0
1713690052815299684,12079,1713690052865355528,uav31/gps_garmin_origin,uav31/fcu,-37.96929754993978,4.3944366446616385,0.06865892769221738,-0.012681646206478388,0.04565734998467658,0.44914284181364056,0.8922025045725945,0.002420928869760683,0.0,0.0,0.0,0.0,0.0,0.0,0.0024209288697606846,0.0,0.0,0.0,0.0,0.0,0.0,0.03739584249568467,0.0,0.0,0.0,0.0,0.0,0.0,0.0,0.0,0.0,0.0,0.0,0.0,0.0,0.0,0.0,0.0,0.0,0.0,0.0,0.0,0.0,0.0022793528743942754,-0.025782628650638257,0.022306225372062536,-0.00011605051258811727,0.003197843441739678,-0.0024199197068810467,0.4416047606977974,0.0,0.0,0.0,0.0,0.0,0.0,0.4416047607002845,0.0,0.0,0.0,0.0,0.0,0.0,0.0072874340044802215,0.0,0.0,0.0,0.0,0.0,0.0,0.0,0.0,0.0,0.0,0.0,0.0,0.0,0.0,0.0,0.0,0.0,0.0,0.0,0.0,0.0
1713690053004926869,12090,1713690052975359288,uav31/gps_garmin_origin,uav31/fcu,-37.96614163000604,4.392781872097943,0.0687923262475499,-0.012722309937880533,0.04566274713989443,0.44911743532771387,0.892214437519678,0.0035108312504980948,0.0,0.0,0.0,0.0,0.0,0.0,0.003510831250498399,0.0,0.0,0.0,0.0,0.0,0.0,0.04213988085920005,0.0,0.0,0.0,0.0,0.0,0.0,0.0,0.0,0.0,0.0,0.0,0.0,0.0,0.0,0.0,0.0,0.0,0.0,0.0,0.0,0.0,0.0033289208231633426,-0.027424720008663573,0.023530518741516467,-0.001371845486573875,0.0025010684039443736,0.0030858754180371757,0.4574495305538458,0.0,0.0,0.0,0.0,0.0,0.0,0.45744953055312904,0.0,0.0,0.0,0.0,0.0,0.0,0.016510178917290064,0.0,0.0,0.0,0.0,0.0,0.0,0.0,0.0,0.0,0.0,0.0,0.0,0.0,0.0,0.0,0.0,0.0,0.0,0.0,0.0,0.0
1713690053171127542,12101,1713690053085357177,uav31/gps_garmin_origin,uav31/fcu,-37.96366077667707,4.391649032658103,0.06869211839471134,-0.012728534481904643,0.04565952020376324,0.4491048986251217,0.8922208240938686,0.003518392237519438,0.0,0.0,0.0,0.0,0.0,0.0,0.0035183922375192677,0.0,0.0,0.0,0.0,0.0,0.0,0.037272655394077425,0.0,0.0,0.0,0.0,0.0,0.0,0.0,0.0,0.0,0.0,0.0,0.0,0.0,0.0,0.0,0.0,0.0,0.0,0.0,0.0,0.0,0.004237621178992448,-0.026045728953189518,0.023526286742000233,-0.002628551796078682,0.0006174697191454473,0.002304145833477378,0.4574251458664671,0.0,0.0,0.0,0.0,0.0,0.0,0.45742514586604155,0.0,0.0,0.0,0.0,0.0,0.0,0.01650416537157926,0.0,0.0,0.0,0.0,0.0,0.0,0.0,0.0,0.0,0.0,0.0,0.0,0.0,0.0,0.0,0.0,0.0,0.0,0.0,0.0,0.0
1713690053173084692,12111,1713690053185357326,uav31/gps_garmin_origin,uav31/fcu,-37.96108206444101,4.391315326724136,0.06874694886072408,-0.012682644228989463,0.04565689834858609,0.4490942391980309,0.8922269730302791,0.002397734306140231,0.0,0.0,0.0,0.0,0.0,0.0,0.0023977343061402307,0.0,0.0,0.0,0.0,0.0,0.0,0.04203307083212372,0.0,0.0,0.0,0.0,0.0,0.0,0.0,0.0,0.0,0.0,0.0,0.0,0.0,0.0,0.0,0.0,0.0,0.0,0.0,0.0,0.0,0.007178934730478717,-0.02438093747670183,0.02209724832854137,-8.127081673592329e-05,-0.0012719811638817191,-1.8212149370810792e-05,0.4412913458403724,0.0,0.0,0.0,0.0,0.0,0.0,0.44129134584020024,0.0,0.0,0.0,0.0,0.0,0.0,0.006230820414590683,0.0,0.0,0.0,0.0,0.0,0.0,0.0,0.0,0.0,0.0,0.0,0.0,0.0,0.0,0.0,0.0,0.0,0.0,0.0,0.0,0.0
1713690053329681904,12121,1713690053285356909,uav31/gps_garmin_origin,uav31/fcu,-37.95856396810012,4.39082057797932,0.068606219839914,-0.01273240290299621,0.04566958191523146,0.4490752767753317,0.8922351659507762,0.0032882308790398093,0.0,0.0,0.0,0.0,0.0,0.0,0.003288230878987862,0.0,0.0,0.0,0.0,0.0,0.0,0.03736331124727059,0.0,0.0,0.0,0.0,0.0,0.0,0.0,0.0,0.0,0.0,0.0,0.0,0.0,0.0,0.0,0.0,0.0,0.0,0.0,0.0,0.0,0.00883336147873627,-0.02355228655842048,0.021339786413033874,-0.00023648692877031863,0.0038587113376706847,0.006445168983191251,0.45452851622945795,0.0,0.0,0.0,0.0,0.0,0.0,0.4545285162115687,0.0,0.0,0.0,0.0,0.0,0.0,0.01637741075759974,0.0,0.0,0.0,0.0,0.0,0.0,0.0,0.0,0.0,0.0,0.0,0.0,0.0,0.0,0.0,0.0,0.0,0.0,0.0,0.0,0.0
1713690053381187592,12132,1713690053395354161,uav31/gps_garmin_origin,uav31/fcu,-37.955040649685614,4.390275555759331,0.06872321729385104,-0.0127601655633606,0.04568011901268796,0.4491059447906697,0.8922187890371301,0.0035260470028745704,0.0,0.0,0.0,0.0,0.0,0.0,0.003526047002875006,0.0,0.0,0.0,0.0,0.0,0.0,0.04204110880215352,0.0,0.0,0.0,0.0,0.0,0.0,0.0,0.0,0.0,0.0,0.0,0.0,0.0,0.0,0.0,0.0,0.0,0.0,0.0,0.0,0.0,0.011258426577606893,-0.024673740270662655,0.022212646173756102,0.000421181001001969,-0.0008486982551403337,0.005070534534752369,0.4575017841789628,0.0,0.0,0.0,0.0,0.0,0.0,0.4575017841797717,0.0,0.0,0.0,0.0,0.0,0.0,0.01638813784076902,0.0,0.0,0.0,0.0,0.0,0.0,0.0,0.0,0.0,0.0,0.0,0.0,0.0,0.0,0.0,0.0,0.0,0.0,0.0,0.0,0.0
1713690053495986680,12142,1713690053495356326,uav31/gps_garmin_origin,uav31/fcu,-37.95214225786994,4.389762927675394,0.06860113431980239,-0.012731056265268229,0.04570100297080426,0.44910534540231833,0.8922184316408379,0.0023623006092817083,0.0,0.0,0.0,0.0,0.0,0.0,0.0023623006092817088,0.0,0.0,0.0,0.0,0.0,0.0,0.037403793924497,0.0,0.0,0.0,0.0,0.0,0.0,0.0,0.0,0.0,0.0,0.0,0.0,0.0,0.0,0.0,0.0,0.0,0.0,0.0,0.0,0.0,0.01236034649079779,-0.025011982571881506,0.021401640418274595,-0.0006453250534832478,0.0031707196030765776,0.002911926712840795,0.44091627692812346,0.0,0.0,0.0,0.0,0.0,0.0,0.4409162769283766,0.0,0.0,0.0,0.0,0.0,0.0,0.007263206157026989,0.0,0.0,0.0,0.0,0.0,0.0,0.0,0.0,0.0,0.0,0.0,0.0,0.0,0.0,0.0,0.0,0.0,0.0,0.0,0.0,0.0
1713690053611699636,12152,1713690053595359120,uav31/gps_garmin_origin,uav31/fcu,-37.94889385675336,4.389354483284179,0.06867099619479165,-0.01277332556783578,0.04574768969834855,0.4491244627081395,0.8922058111385464,0.003510558627329949,0.0,0.0,0.0,0.0,0.0,0.0,0.003510558627329975,0.0,0.0,0.0,0.0,0.0,0.0,0.04214417735234677,0.0,0.0,0.0,0.0,0.0,0.0,0.0,0.0,0.0,0.0,0.0,0.0,0.0,0.0,0.0,0.0,0.0,0.0,0.0,0.0,0.0,0.013971235013612634,-0.025769015790672804,0.021191707295015468,-0.00010008650860982016,0.00279461476020515,0.003368293866515159,0.45745179408363085,0.0,0.0,0.0,0.0,0.0,0.0,0.45745179408365494,0.0,0.0,0.0,0.0,0.0,0.0,0.016441661307063055,0.0,0.0,0.0,0.0,0.0,0.0,0.0,0.0,0.0,0.0,0.0,0.0,0.0,0.0,0.0,0.0,0.0,0.0,0.0,0.0,0.0
1713690053766969962,12163,1713690053705353820,uav31/gps_garmin_origin,uav31/fcu,-37.94554345103905,4.388646747134818,0.06858915753984628,-0.012762200768796242,0.04571760840337118,0.44914641622971513,0.8921964721834014,0.0035389421440478394,0.0,0.0,0.0,0.0,0.0,0.0,0.003538942144052452,0.0,0.0,0.0,0.0,0.0,0.0,0.037452774462966076,0.0,0.0,0.0,0.0,0.0,0.0,0.0,0.0,0.0,0.0,0.0,0.0,0.0,0.0,0.0,0.0,0.0,0.0,0.0,0.0,0.0,0.014093293557684286,-0.026592273214143498,0.0216512189576093,-0.0018820157274603844,-0.002918148646131158,-0.0011160389985889192,0.4575518828762172,0.0,0.0,0.0,0.0,0.0,0.0,0.45755188287696463,0.0,0.0,0.0,0.0,0.0,0.0,0.016508746879506788,0.0,0.0,0.0,0.0,0.0,0.0,0.0,0.0,0.0,0.0,0.0,0.0,0.0,0.0,0.0,0.0,0.0,0.0,0.0,0.0,0.0
