%time,field.header.seq,field.header.stamp,field.header.frame_id,field.child_frame_id,field.pose.pose.position.x,field.pose.pose.position.y,field.pose.pose.position.z,field.pose.pose.orientation.x,field.pose.pose.orientation.y,field.pose.pose.orientation.z,field.pose.pose.orientation.w,field.pose.covariance0,field.pose.covariance1,field.pose.covariance2,field.pose.covariance3,field.pose.covariance4,field.pose.covariance5,field.pose.covariance6,field.pose.covariance7,field.pose.covariance8,field.pose.covariance9,field.pose.covariance10,field.pose.covariance11,field.pose.covariance12,field.pose.covariance13,field.pose.covariance14,field.pose.covariance15,field.pose.covariance16,field.pose.covariance17,field.pose.covariance18,field.pose.covariance19,field.pose.covariance20,field.pose.covariance21,field.pose.covariance22,field.pose.covariance23,field.pose.covariance24,field.pose.covariance25,field.pose.covariance26,field.pose.covariance27,field.pose.covariance28,field.pose.covariance29,field.pose.covariance30,field.pose.covariance31,field.pose.covariance32,field.pose.covariance33,field.pose.covariance34,field.pose.covariance35,field.twist.twist.linear.x,field.twist.twist.linear.y,field.twist.twist.linear.z,field.twist.twist.angular.x,field.twist.twist.angular.y,field.twist.twist.angular.z,field.twist.covariance0,field.twist.covariance1,field.twist.covariance2,field.twist.covariance3,field.twist.covariance4,field.twist.covariance5,field.twist.covariance6,field.twist.covariance7,field.twist.covariance8,field.twist.covariance9,field.twist.covariance10,field.twist.covariance11,field.twist.covariance12,field.twist.covariance13,field.twist.covariance14,field.twist.covariance15,field.twist.covariance16,field.twist.covariance17,field.twist.covariance18,field.twist.covariance19,field.twist.covariance20,field.twist.covariance21,field.twist.covariance22,field.twist.covariance23,field.twist.covariance24,field.twist.covariance25,field.twist.covariance26,field.twist.covariance27,field.twist.covariance28,field.twist.covariance29,field.twist.covariance30,field.twist.covariance31,field.twist.covariance32,field.twist.covariance33,field.twist.covariance34,field.twist.covariance35
1713690045563262650,11244,1713690045093370179,uav8/gps_garmin_origin,uav8/fcu,-39.543170040494026,17.149125611097823,0.1354124641147618,-0.0016506340820622131,-0.01460076425670376,-0.931780048782599,-0.36272583831448296,0.002300551326276311,0.0,0.0,0.0,0.0,0.0,0.0,0.002300551326276311,0.0,0.0,0.0,0.0,0.0,0.0,0.030711890959247083,0.0,0.0,0.0,0.0,0.0,0.0,0.0,0.0,0.0,0.0,0.0,0.0,0.0,0.0,0.0,0.0,0.0,0.0,0.0,0.0,0.0,0.01676074199515976,0.04307734602881535,-0.026012246387678187,0.0003960911126341671,-0.00023860602232161945,-0.0029732261318713427,0.4404004735439862,0.0,0.0,0.0,0.0,0.0,0.0,0.4404004735445263,0.0,0.0,0.0,0.0,0.0,0.0,0.006217673603513526,0.0,0.0,0.0,0.0,0.0,0.0,0.0,0.0,0.0,0.0,0.0,0.0,0.0,0.0,0.0,0.0,0.0,0.0,0.0,0.0,0.0
1713690045568352332,11255,1713690045203398176,uav8/gps_garmin_origin,uav8/fcu,-39.54930774640205,17.143310125649837,0.11857209231807517,-0.0016494666891103018,-0.014597624728460623,-0.9318318569732722,-0.3625928556131123,0.0039998560944538245,0.0,0.0,0.0,0.0,0.0,0.0,0.003999856094438445,0.0,0.0,0.0,0.0,0.0,0.0,0.03711790197005682,0.0,0.0,0.0,0.0,0.0,0.0,0.0,0.0,0.0,0.0,0.0,0.0,0.0,0.0,0.0,0.0,0.0,0.0,0.0,0.0,0.0,0.013247908369848018,0.055233161752165576,-0.028191129021937943,0.003571220673620701,-0.0009035902330651875,0.003716402454301715,0.4621866466337818,0.0,0.0,0.0,0.0,0.0,0.0,0.4621866466303013,0.0,0.0,0.0,0.0,0.0,0.0,0.016673489693473632,0.0,0.0,0.0,0.0,0.0,0.0,0.0,0.0,0.0,0.0,0.0,0.0,0.0,0.0,0.0,0.0,0.0,0.0,0.0,0.0,0.0
1713690045619157324,11266,1713690045313373109,uav8/gps_garmin_origin,uav8/fcu,-39.557206678210925,17.135740392543674,0.13299854624514404,-0.0016561079814577519,-0.01458309298827782,-0.9318780347771316,-0.3624747149873493,0.002184094286069606,0.0,0.0,0.0,0.0,0.0,0.0,0.0021840942860696065,0.0,0.0,0.0,0.0,0.0,0.0,0.03840758667444798,0.0,0.0,0.0,0.0,0.0,0.0,0.0,0.0,0.0,0.0,0.0,0.0,0.0,0.0,0.0,0.0,0.0,0.0,0.0,0.0,0.0,0.011130149316968036,0.07090658134589385,-0.03097827134521282,-0.0008343611261807382,0.004210127051919699,-0.00010816815483849547,0.4389503722672395,0.0,0.0,0.0,0.0,0.0,0.0,0.43895037226325584,0.0,0.0,0.0,0.0,0.0,0.0,0.006225125409217422,0.0,0.0,0.0,0.0,0.0,0.0,0.0,0.0,0.0,0.0,0.0,0.0,0.0,0.0,0.0,0.0,0.0,0.0,0.0,0.0,0.0
1713690045681744813,11274,1713690045393387451,uav8/gps_garmin_origin,uav8/fcu,-39.56286114818986,17.129974436469276,0.11869788026752418,-0.0016796015986169414,-0.01460515652705089,-0.931920240075093,-0.36236519490656316,0.003443311626600183,0.0,0.0,0.0,0.0,0.0,0.0,0.0034433116265985757,0.0,0.0,0.0,0.0,0.0,0.0,0.03751819197969916,0.0,0.0,0.0,0.0,0.0,0.0,0.0,0.0,0.0,0.0,0.0,0.0,0.0,0.0,0.0,0.0,0.0,0.0,0.0,0.0,0.0,0.009171087816006682,0.08028977233314592,-0.03244205316408884,0.003044022945687175,-0.0010684520239010455,-0.002460307441651821,0.4565819391892845,0.0,0.0,0.0,0.0,0.0,0.0,0.4565819391893276,0.0,0.0,0.0,0.0,0.0,0.0,0.01637653695270794,0.0,0.0,0.0,0.0,0.0,0.0,0.0,0.0,0.0,0.0,0.0,0.0,0.0,0.0,0.0,0.0,0.0,0.0,0.0,0.0,0.0
1713690045887097722,11288,1713690045533423181,uav8/gps_garmin_origin,uav8/fcu,-39.57243471632058,17.12100427129436,0.129239057286289,-0.0016431486924620184,-0.014580579964276091,-0.9320074964118377,-0.36214186913752217,0.0034541331217389564,0.0,0.0,0.0,0.0,0.0,0.0,0.003454133121741686,0.0,0.0,0.0,0.0,0.0,0.0,0.029710260635107323,0.0,0.0,0.0,0.0,0.0,0.0,0.0,0.0,0.0,0.0,0.0,0.0,0.0,0.0,0.0,0.0,0.0,0.0,0.0,0.0,0.0,0.00867113546656789,0.08911417126473548,-0.033034932505675164,-0.00047817520680837333,0.004241294693201781,0.00382647686637938,0.456962235664712,0.0,0.0,0.0,0.0,0.0,0.0,0.45696223566479854,0.0,0.0,0.0,0.0,0.0,0.0,0.016414837027870617,0.0,0.0,0.0,0.0,0.0,0.0,0.0,0.0,0.0,0.0,0.0,0.0,0.0,0.0,0.0,0.0,0.0,0.0,0.0,0.0,0.0
1713690045919723502,11300,1713690045653472073,uav8/gps_garmin_origin,uav8/fcu,-39.58148659772431,17.114590244278794,0.11797029357904311,-0.0016558251513632588,-0.014565920940739805,-0.9320887671031615,-0.36193317398426544,0.003499539498258877,0.0,0.0,0.0,0.0,0.0,0.0,0.003499539498264736,0.0,0.0,0.0,0.0,0.0,0.0,0.0298736135522892,0.0,0.0,0.0,0.0,0.0,0.0,0.0,0.0,0.0,0.0,0.0,0.0,0.0,0.0,0.0,0.0,0.0,0.0,0.0,0.0,0.0,0.013092083208755769,0.09269225263248934,-0.03163177273605683,-0.0008102167630568147,0.002636215183883906,0.0032030798029154535,0.4573059921651997,0.0,0.0,0.0,0.0,0.0,0.0,0.45730599216553597,0.0,0.0,0.0,0.0,0.0,0.0,0.016442422986406278,0.0,0.0,0.0,0.0,0.0,0.0,0.0,0.0,0.0,0.0,0.0,0.0,0.0,0.0,0.0,0.0,0.0,0.0,0.0,0.0,0.0
1713690045958714866,11312,1713690045773633514,uav8/gps_garmin_origin,uav8/fcu,-39.58862218701226,17.110650963110924,0.11735500199021508,-0.0016488230393690135,-0.014603881992668643,-0.9321714186308165,-0.361718750275874,0.002685215855866443,0.0,0.0,0.0,0.0,0.0,0.0,0.002685215855866443,0.0,0.0,0.0,0.0,0.0,0.0,0.03720939043918026,0.0,0.0,0.0,0.0,0.0,0.0,0.0,0.0,0.0,0.0,0.0,0.0,0.0,0.0,0.0,0.0,0.0,0.0,0.0,0.0,0.0,0.017011534290559703,0.0851499615811871,-0.03039146356761375,0.0012785845901817083,0.00028545569512061824,0.004032527562230825,0.4449933916000789,0.0,0.0,0.0,0.0,0.0,0.0,0.4449933915993303,0.0,0.0,0.0,0.0,0.0,0.0,0.01647708110289701,0.0,0.0,0.0,0.0,0.0,0.0,0.0,0.0,0.0,0.0,0.0,0.0,0.0,0.0,0.0,0.0,0.0,0.0,0.0,0.0,0.0
1713690046003208132,11324,1713690045893456592,uav8/gps_garmin_origin,uav8/fcu,-39.593651072436764,17.109507704479334,0.12391776193076379,-0.0016434678068070869,-0.014611266956560202,-0.9322027279713474,-0.36163777990452,0.002353712779947284,0.0,0.0,0.0,0.0,0.0,0.0,0.0023537127799472847,0.0,0.0,0.0,0.0,0.0,0.0,0.03769593444826411,0.0,0.0,0.0,0.0,0.0,0.0,0.0,0.0,0.0,0.0,0.0,0.0,0.0,0.0,0.0,0.0,0.0,0.0,0.0,0.0,0.0,0.021292604667817,0.07149086749362629,-0.02996691481229729,0.0018178207101300359,0.002177219605073333,-0.00023974204668775228,0.44121896639216196,0.0,0.0,0.0,0.0,0.0,0.0,0.4412189663982516,0.0,0.0,0.0,0.0,0.0,0.0,0.01641623052983702,0.0,0.0,0.0,0.0,0.0,0.0,0.0,0.0,0.0,0.0,0.0,0.0,0.0,0.0,0.0,0.0,0.0,0.0,0.0,0.0,0.0
1713690046070933403,11335,1713690046003413576,uav8/gps_garmin_origin,uav8/fcu,-39.59805012484758,17.109127666722014,0.12363471819245317,-0.001632252077974523,-0.014582477848699052,-0.9322048494717273,-0.3616335240465691,0.003494337267558767,0.0,0.0,0.0,0.0,0.0,0.0,0.0034943372675603195,0.0,0.0,0.0,0.0,0.0,0.0,0.028877436277910805,0.0,0.0,0.0,0.0,0.0,0.0,0.0,0.0,0.0,0.0,0.0,0.0,0.0,0.0,0.0,0.0,0.0,0.0,0.0,0.0,0.0,0.02429460359436019,0.05824461286080744,-0.02972049079023581,-0.0015321685932576656,0.0032868217676877975,0.001060605980455875,0.45723441103323104,0.0,0.0,0.0,0.0,0.0,0.0,0.4572344110326881,0.0,0.0,0.0,0.0,0.0,0.0,0.01625199969433719,0.0,0.0,0.0,0.0,0.0,0.0,0.0,0.0,0.0,0.0,0.0,0.0,0.0,0.0,0.0,0.0,0.0,0.0,0.0,0.0,0.0
1713690046165627089,11348,1713690046133532471,uav8/gps_garmin_origin,uav8/fcu,-39.60096442505761,17.10983089894713,0.15320359136585207,-0.0016176296157918708,-0.014564639097368529,-0.9321826837677494,-0.3616914412119061,0.0020941864253837196,0.0,0.0,0.0,0.0,0.0,0.0,0.002094186425383719,0.0,0.0,0.0,0.0,0.0,0.0,0.027606238792733332,0.0,0.0,0.0,0.0,0.0,0.0,0.0,0.0,0.0,0.0,0.0,0.0,0.0,0.0,0.0,0.0,0.0,0.0,0.0,0.0,0.0,0.02346015381657242,0.040058996695599584,-0.02936679388317935,-0.008596191182732582,0.002395454561337828,-0.002864794107154012,0.43757053750480873,0.0,0.0,0.0,0.0,0.0,0.0,0.4375705375141832,0.0,0.0,0.0,0.0,0.0,0.0,0.016139462819216334,0.0,0.0,0.0,0.0,0.0,0.0,0.0,0.0,0.0,0.0,0.0,0.0,0.0,0.0,0.0,0.0,0.0,0.0,0.0,0.0,0.0
1713690046223111585,11360,1713690046253430660,uav8/gps_garmin_origin,uav8/fcu,-39.60446180280705,17.10648916564435,0.1257592522440754,-0.0016502093008895686,-0.014615376670872786,-0.9321541932377154,-0.36176266750920566,0.0034831116530944974,0.0,0.0,0.0,0.0,0.0,0.0,0.0034831116530955426,0.0,0.0,0.0,0.0,0.0,0.0,0.028417051931799702,0.0,0.0,0.0,0.0,0.0,0.0,0.0,0.0,0.0,0.0,0.0,0.0,0.0,0.0,0.0,0.0,0.0,0.0,0.0,0.0,0.0,0.0161734658170777,0.039065454543308537,-0.028970397107636773,0.0027746749110519886,0.0011194308754056686,-0.004617154132574797,0.45708816199883934,0.0,0.0,0.0,0.0,0.0,0.0,0.4570881619989404,0.0,0.0,0.0,0.0,0.0,0.0,0.006225667484333564,0.0,0.0,0.0,0.0,0.0,0.0,0.0,0.0,0.0,0.0,0.0,0.0,0.0,0.0,0.0,0.0,0.0,0.0,0.0,0.0,0.0
1713690046417223732,11372,1713690046374143885,uav8/gps_garmin_origin,uav8/fcu,-39.60802080626769,17.101469698656178,0.14270273985111398,-0.0016456129696808797,-0.014594868222165583,-0.9321344006229623,-0.3618145118079186,0.0033307178589774924,0.0,0.0,0.0,0.0,0.0,0.0,0.0033307178589775063,0.0,0.0,0.0,0.0,0.0,0.0,0.02996950548580039,0.0,0.0,0.0,0.0,0.0,0.0,0.0,0.0,0.0,0.0,0.0,0.0,0.0,0.0,0.0,0.0,0.0,0.0,0.0,0.0,0.0,0.0072281597370814216,0.04239659541209119,-0.028027522774890807,-0.004381691105663776,0.0009116290602833025,-0.006458321586251259,0.45480901489581094,0.0,0.0,0.0,0.0,0.0,0.0,0.4548090148958842,0.0,0.0,0.0,0.0,0.0,0.0,0.01617288545309353,0.0,0.0,0.0,0.0,0.0,0.0,0.0,0.0,0.0,0.0,0.0,0.0,0.0,0.0,0.0,0.0,0.0,0.0,0.0,0.0,0.0
1713690046477470122,11382,1713690046473640695,uav8/gps_garmin_origin,uav8/fcu,-39.61205805385338,17.09528300217267,0.1528299763031229,-0.0016593525300362907,-0.014607328255586362,-0.9321014507969282,-0.36189882278431956,0.002263700382816307,0.0,0.0,0.0,0.0,0.0,0.0,0.0022637003828163064,0.0,0.0,0.0,0.0,0.0,0.0,0.037485876937949913,0.0,0.0,0.0,0.0,0.0,0.0,0.0,0.0,0.0,0.0,0.0,0.0,0.0,0.0,0.0,0.0,0.0,0.0,0.0,0.0,0.0,0.0004044837118298783,0.05140109269891325,-0.027759671690940874,-0.0018142664339393377,-0.0007767626666463919,-0.005834806244820356,0.44011699717362673,0.0,0.0,0.0,0.0,0.0,0.0,0.440116997172447,0.0,0.0,0.0,0.0,0.0,0.0,0.006232461053468669,0.0,0.0,0.0,0.0,0.0,0.0,0.0,0.0,0.0,0.0,0.0,0.0,0.0,0.0,0.0,0.0,0.0,0.0,0.0,0.0,0.0
1713690046626437984,11396,1713690046613440522,uav8/gps_garmin_origin,uav8/fcu,-39.618239789570964,17.08903129060212,0.14944463432231037,-0.0016509160234790495,-0.0146301131493327,-0.932050713098465,-0.3620285934538373,0.002726348660373521,0.0,0.0,0.0,0.0,0.0,0.0,0.002726348660373521,0.0,0.0,0.0,0.0,0.0,0.0,0.0379394191736413,0.0,0.0,0.0,0.0,0.0,0.0,0.0,0.0,0.0,0.0,0.0,0.0,0.0,0.0,0.0,0.0,0.0,0.0,0.0,0.0,0.0,0.0006204524679584368,0.05568204766192934,-0.026073285452245198,-0.00031109878909774125,0.0011536998208612195,-0.007433519698679447,0.44541688934568696,0.0,0.0,0.0,0.0,0.0,0.0,0.44541688934570867,0.0,0.0,0.0,0.0,0.0,0.0,0.016656276815185164,0.0,0.0,0.0,0.0,0.0,0.0,0.0,0.0,0.0,0.0,0.0,0.0,0.0,0.0,0.0,0.0,0.0,0.0,0.0,0.0,0.0
1713690046714859307,11407,1713690046723419192,uav8/gps_garmin_origin,uav8/fcu,-39.6230249566312,17.085095106893544,0.1478969138824041,-0.001649623999712488,-0.014653946196597255,-0.9320354813208804,-0.3620668476407106,0.0034989703972843327,0.0,0.0,0.0,0.0,0.0,0.0,0.0034989703972858207,0.0,0.0,0.0,0.0,0.0,0.0,0.02837533509149582,0.0,0.0,0.0,0.0,0.0,0.0,0.0,0.0,0.0,0.0,0.0,0.0,0.0,0.0,0.0,0.0,0.0,0.0,0.0,0.0,0.0,0.0026576181239713476,0.0557926936786055,-0.02508057762618045,0.004456469789147377,-0.0014517072122544055,-0.003251623595133424,0.45721310933774334,0.0,0.0,0.0,0.0,0.0,0.0,0.45721310933767345,0.0,0.0,0.0,0.0,0.0,0.0,0.016471517643996444,0.0,0.0,0.0,0.0,0.0,0.0,0.0,0.0,0.0,0.0,0.0,0.0,0.0,0.0,0.0,0.0,0.0,0.0,0.0,0.0,0.0
1713690046784442560,11420,1713690046853438019,uav8/gps_garmin_origin,uav8/fcu,-39.628294366584264,17.07985807686489,0.1444531573462487,-0.001616738900038325,-0.014624915508052472,-0.9320028698136372,-0.36215210707775203,0.003316753560058461,0.0,0.0,0.0,0.0,0.0,0.0,0.003316753559426941,0.0,0.0,0.0,0.0,0.0,0.0,0.038234302379997975,0.0,0.0,0.0,0.0,0.0,0.0,0.0,0.0,0.0,0.0,0.0,0.0,0.0,0.0,0.0,0.0,0.0,0.0,0.0,0.0,0.0,0.0021648448108120165,0.056444125328739804,-0.023493886049066704,-0.0051878890953958035,0.0009821548592299223,-7.143415132304666e-05,0.45483108596435706,0.0,0.0,0.0,0.0,0.0,0.0,0.45483108596740823,0.0,0.0,0.0,0.0,0.0,0.0,0.01629739300704954,0.0,0.0,0.0,0.0,0.0,0.0,0.0,0.0,0.0,0.0,0.0,0.0,0.0,0.0,0.0,0.0,0.0,0.0,0.0,0.0,0.0
1713690046892282691,11430,1713690046953458930,uav8/gps_garmin_origin,uav8/fcu,-39.63301579309751,17.076384782219463,0.14133146079526523,-0.0016635607654270509,-0.014659159250735932,-0.9319709542082726,-0.3622326353709216,0.002158271875124005,0.0,0.0,0.0,0.0,0.0,0.0,0.0021582718751240056,0.0,0.0,0.0,0.0,0.0,0.0,0.037223026956713465,0.0,0.0,0.0,0.0,0.0,0.0,0.0,0.0,0.0,0.0,0.0,0.0,0.0,0.0,0.0,0.0,0.0,0.0,0.0,0.0,0.0,0.005102707647481545,0.05692804074740532,-0.02226371617432242,0.004486739169806242,-0.0030526896007359024,0.003606901736930013,0.4386541760911104,0.0,0.0,0.0,0.0,0.0,0.0,0.43865417609336915,0.0,0.0,0.0,0.0,0.0,0.0,0.016214336559232476,0.0,0.0,0.0,0.0,0.0,0.0,0.0,0.0,0.0,0.0,0.0,0.0,0.0,0.0,0.0,0.0,0.0,0.0,0.0,0.0,0.0
1713690047018518045,11443,1713690047083513882,uav8/gps_garmin_origin,uav8/fcu,-39.63980360405584,17.071776527095356,0.14789245754063338,-0.0016397151987537022,-0.014676529177642611,-0.9319530919241983,-0.3622779944714995,0.0028643530196176157,0.0,0.0,0.0,0.0,0.0,0.0,0.0028643530198537784,0.0,0.0,0.0,0.0,0.0,0.0,0.03232398234729568,0.0,0.0,0.0,0.0,0.0,0.0,0.0,0.0,0.0,0.0,0.0,0.0,0.0,0.0,0.0,0.0,0.0,0.0,0.0,0.0,0.0,0.008964786836026981,0.05889700454268702,-0.02131451764537675,0.005159728229045868,-0.000898999976925551,0.00666324608027935,0.44951797563792645,0.0,0.0,0.0,0.0,0.0,0.0,0.44951797563107593,0.0,0.0,0.0,0.0,0.0,0.0,0.01411733719739322,0.0,0.0,0.0,0.0,0.0,0.0,0.0,0.0,0.0,0.0,0.0,0.0,0.0,0.0,0.0,0.0,0.0,0.0,0.0,0.0,0.0
1713690047127844091,11454,1713690047193422294,uav8/gps_garmin_origin,uav8/fcu,-39.64299136455006,17.067132835781734,0.1412158613178303,-0.0016058103471085733,-0.014632467946161545,-0.9319135930620003,-0.3623815217711937,0.003498115388970037,0.0,0.0,0.0,0.0,0.0,0.0,0.0034981153889682742,0.0,0.0,0.0,0.0,0.0,0.0,0.03776217278683264,0.0,0.0,0.0,0.0,0.0,0.0,0.0,0.0,0.0,0.0,0.0,0.0,0.0,0.0,0.0,0.0,0.0,0.0,0.0,0.0,0.0,0.002708467186391407,0.05604750862407275,-0.020018586695294147,-0.0005364019889384508,-0.001126877148635685,0.003612188622355461,0.45738385051797625,0.0,0.0,0.0,0.0,0.0,0.0,0.45738385051715813,0.0,0.0,0.0,0.0,0.0,0.0,0.01647126623408161,0.0,0.0,0.0,0.0,0.0,0.0,0.0,0.0,0.0,0.0,0.0,0.0,0.0,0.0,0.0,0.0,0.0,0.0,0.0,0.0,0.0
1713690047312094146,11468,1713690047333524334,uav8/gps_garmin_origin,uav8/fcu,-39.64287625859144,17.060533581539733,0.14863168838692958,-0.001594020626389483,-0.014650002857085849,-0.9318768474886236,-0.362475347615799,0.003485773555145947,0.0,0.0,0.0,0.0,0.0,0.0,0.003485773555145975,0.0,0.0,0.0,0.0,0.0,0.0,0.033021364682775514,0.0,0.0,0.0,0.0,0.0,0.0,0.0,0.0,0.0,0.0,0.0,0.0,0.0,0.0,0.0,0.0,0.0,0.0,0.0,0.0,0.0,-0.014882931680941095,0.047851058747703894,-0.018046763762586873,-0.0011420309310778975,-0.0012953677214682102,-0.0003432226076256482,0.4569655217775909,0.0,0.0,0.0,0.0,0.0,0.0,0.45696552177774424,0.0,0.0,0.0,0.0,0.0,0.0,0.017990857052094716,0.0,0.0,0.0,0.0,0.0,0.0,0.0,0.0,0.0,0.0,0.0,0.0,0.0,0.0,0.0,0.0,0.0,0.0,0.0,0.0,0.0
1713690047388448915,11480,1713690047453419912,uav8/gps_garmin_origin,uav8/fcu,-39.64688648682507,17.033964476923458,0.14147677457264887,-0.0016061267202950448,-0.014660460100618547,-0.9318559484424018,-0.3625285955881385,0.0022655965829640637,0.0,0.0,0.0,0.0,0.0,0.0,0.002265596582964064,0.0,0.0,0.0,0.0,0.0,0.0,0.03704043237534734,0.0,0.0,0.0,0.0,0.0,0.0,0.0,0.0,0.0,0.0,0.0,0.0,0.0,0.0,0.0,0.0,0.0,0.0,0.0,0.0,0.0,-0.06035709759629008,0.09830425313243378,-0.018860484575665123,0.000983446603640914,0.0022017657756805433,0.009344789199531078,0.4401383190935506,0.0,0.0,0.0,0.0,0.0,0.0,0.4401383190945444,0.0,0.0,0.0,0.0,0.0,0.0,0.006218565001139463,0.0,0.0,0.0,0.0,0.0,0.0,0.0,0.0,0.0,0.0,0.0,0.0,0.0,0.0,0.0,0.0,0.0,0.0,0.0,0.0,0.0
1713690047499143600,11491,1713690047564160469,uav8/gps_garmin_origin,uav8/fcu,-39.65123116725463,17.016055562708242,0.11830972746411816,-0.0015942765717098105,-0.01466602883875085,-0.9318208371733634,-0.3626186609785084,0.0029481947353816045,0.0,0.0,0.0,0.0,0.0,0.0,0.002948194735952238,0.0,0.0,0.0,0.0,0.0,0.0,0.03838190938915607,0.0,0.0,0.0,0.0,0.0,0.0,0.0,0.0,0.0,0.0,0.0,0.0,0.0,0.0,0.0,0.0,0.0,0.0,0.0,0.0,0.0,-0.07221003365350626,0.11682739203608383,-0.018990322589739497,0.0033493104856461287,-0.000672796624712646,0.0002935771190095694,0.45005395312265,0.0,0.0,0.0,0.0,0.0,0.0,0.4500539531228907,0.0,0.0,0.0,0.0,0.0,0.0,0.014945152249424306,0.0,0.0,0.0,0.0,0.0,0.0,0.0,0.0,0.0,0.0,0.0,0.0,0.0,0.0,0.0,0.0,0.0,0.0,0.0,0.0,0.0
1713690047613853238,11502,1713690047673394828,uav8/gps_garmin_origin,uav8/fcu,-39.65140548855379,17.002177303884313,0.13306257795926635,-0.001620445897505048,-0.014643738111271289,-0.9317936230825385,-0.3626893699461535,0.002265517296943951,0.0,0.0,0.0,0.0,0.0,0.0,0.002265517296943953,0.0,0.0,0.0,0.0,0.0,0.0,0.031990211703915056,0.0,0.0,0.0,0.0,0.0,0.0,0.0,0.0,0.0,0.0,0.0,0.0,0.0,0.0,0.0,0.0,0.0,0.0,0.0,0.0,0.0,-0.0808762299833418,0.11242682934427198,-0.018603734723152982,0.002295380225405097,-0.0023649933282285933,-0.0032008222769945856,0.4383087495649552,0.0,0.0,0.0,0.0,0.0,0.0,0.4383087495626543,0.0,0.0,0.0,0.0,0.0,0.0,0.0062058915885127176,0.0,0.0,0.0,0.0,0.0,0.0,0.0,0.0,0.0,0.0,0.0,0.0,0.0,0.0,0.0,0.0,0.0,0.0,0.0,0.0,0.0
1713690047714054189,11515,1713690047803399199,uav8/gps_garmin_origin,uav8/fcu,-39.65487182038019,16.988423448788257,0.13629545111232172,-0.0015962935724393328,-0.014647459717121428,-0.9317770372942769,-0.3627319348248314,0.002278088357797195,0.0,0.0,0.0,0.0,0.0,0.0,0.002278088357797193,0.0,0.0,0.0,0.0,0.0,0.0,0.037347265651913375,0.0,0.0,0.0,0.0,0.0,0.0,0.0,0.0,0.0,0.0,0.0,0.0,0.0,0.0,0.0,0.0,0.0,0.0,0.0,0.0,0.0,-0.06299434357786009,0.09564883933114988,-0.016888593692112142,-0.000660201592836529,0.0041314465925097466,-0.0020942962728440766,0.4009435230621995,0.0,0.0,0.0,0.0,0.0,0.0,0.4009435230635386,0.0,0.0,0.0,0.0,0.0,0.0,0.006181616576511692,0.0,0.0,0.0,0.0,0.0,0.0,0.0,0.0,0.0,0.0,0.0,0.0,0.0,0.0,0.0,0.0,0.0,0.0,0.0,0.0,0.0
1713690047843661396,11527,1713690047923399252,uav8/gps_garmin_origin,uav8/fcu,-39.65963713031817,16.976692144015384,0.14307733297837957,-0.001596224827075631,-0.014615220706767794,-0.9317106781055531,-0.3629036507037158,0.002262697016953836,0.0,0.0,0.0,0.0,0.0,0.0,0.002262697016953836,0.0,0.0,0.0,0.0,0.0,0.0,0.03726385723220011,0.0,0.0,0.0,0.0,0.0,0.0,0.0,0.0,0.0,0.0,0.0,0.0,0.0,0.0,0.0,0.0,0.0,0.0,0.0,0.0,0.0,-0.04107656981667823,0.07662345961375684,-0.017217135674082784,-0.0004244049487169832,-0.0009557593730278312,0.0005605585174635054,0.37164199999380265,0.0,0.0,0.0,0.0,0.0,0.0,0.37164199999412084,0.0,0.0,0.0,0.0,0.0,0.0,0.006188430235562564,0.0,0.0,0.0,0.0,0.0,0.0,0.0,0.0,0.0,0.0,0.0,0.0,0.0,0.0,0.0,0.0,0.0,0.0,0.0,0.0,0.0
1713690047957111712,11539,1713690048043517524,uav8/gps_garmin_origin,uav8/fcu,-39.66491114537015,16.967481719013144,0.14406851675873378,-0.0015997267027613921,-0.014607783279094339,-0.9317557085834708,-0.36278830337300255,0.002242835572514625,0.0,0.0,0.0,0.0,0.0,0.0,0.0022428355725146237,0.0,0.0,0.0,0.0,0.0,0.0,0.03804463085719716,0.0,0.0,0.0,0.0,0.0,0.0,0.0,0.0,0.0,0.0,0.0,0.0,0.0,0.0,0.0,0.0,0.0,0.0,0.0,0.0,0.0,-0.022852815471878753,0.0596175672498468,-0.015530878699196582,-0.0018942357273772359,-0.0007391113322228192,0.0011324068764224648,0.3557354853784301,0.0,0.0,0.0,0.0,0.0,0.0,0.35573548537854377,0.0,0.0,0.0,0.0,0.0,0.0,0.00619182125963156,0.0,0.0,0.0,0.0,0.0,0.0,0.0,0.0,0.0,0.0,0.0,0.0,0.0,0.0,0.0,0.0,0.0,0.0,0.0,0.0,0.0
1713690048127353355,11551,1713690048163395250,uav8/gps_garmin_origin,uav8/fcu,-39.66913478798172,16.95959084102678,0.1431991505338586,-0.0010019752988012207,-0.01431882284776261,-0.931770040387945,-0.36276515708265367,0.0020736994610816677,0.0,0.0,0.0,0.0,0.0,0.0,0.002073699460472531,0.0,0.0,0.0,0.0,0.0,0.0,0.03835758318360325,0.0,0.0,0.0,0.0,0.0,0.0,0.0,0.0,0.0,0.0,0.0,0.0,0.0,0.0,0.0,0.0,0.0,0.0,0.0,0.0,0.0,-0.014268121809648045,0.04665895722689133,-0.015063639777463205,-0.005625154357403517,0.006506140809506179,0.004892766941338777,0.3465550650425985,0.0,0.0,0.0,0.0,0.0,0.0,0.34655506504329403,0.0,0.0,0.0,0.0,0.0,0.0,0.006179827014959644,0.0,0.0,0.0,0.0,0.0,0.0,0.0,0.0,0.0,0.0,0.0,0.0,0.0,0.0,0.0,0.0,0.0,0.0,0.0,0.0,0.0
1713690048213905515,11563,1713690048283435240,uav8/gps_garmin_origin,uav8/fcu,-39.671382396303876,16.95263450992163,0.1553386325603704,-0.0010178147239358053,-0.01396171171172288,-0.9316792585685993,-0.363012112487079,0.003395581869749243,0.0,0.0,0.0,0.0,0.0,0.0,0.0033955818697504413,0.0,0.0,0.0,0.0,0.0,0.0,0.02837175439101536,0.0,0.0,0.0,0.0,0.0,0.0,0.0,0.0,0.0,0.0,0.0,0.0,0.0,0.0,0.0,0.0,0.0,0.0,0.0,0.0,0.0,-0.012745626176900848,0.03469330919459146,-0.008990356241687312,-0.02236976847052574,-0.0021983641199767585,0.003532996401190758,0.35470475949012326,0.0,0.0,0.0,0.0,0.0,0.0,0.35470475948985686,0.0,0.0,0.0,0.0,0.0,0.0,0.016193564960064574,0.0,0.0,0.0,0.0,0.0,0.0,0.0,0.0,0.0,0.0,0.0,0.0,0.0,0.0,0.0,0.0,0.0,0.0,0.0,0.0,0.0
1713690048331806685,11575,1713690048403469102,uav8/gps_garmin_origin,uav8/fcu,-39.67048842175564,16.950042839581563,0.13900910813347192,-0.0003108117833499332,-0.012374709828773586,-0.9314934674233466,-0.3635473698162588,0.0033943185992933956,0.0,0.0,0.0,0.0,0.0,0.0,0.0033943185992933037,0.0,0.0,0.0,0.0,0.0,0.0,0.029597704535685526,0.0,0.0,0.0,0.0,0.0,0.0,0.0,0.0,0.0,0.0,0.0,0.0,0.0,0.0,0.0,0.0,0.0,0.0,0.0,0.0,0.0,-0.010744421027160079,0.014663265551538686,-0.0013093850536717933,-0.10313989222049713,0.006291801575571298,-0.009961718693375587,0.3528994227483967,0.0,0.0,0.0,0.0,0.0,0.0,0.352899422748063,0.0,0.0,0.0,0.0,0.0,0.0,0.016159096334063573,0.0,0.0,0.0,0.0,0.0,0.0,0.0,0.0,0.0,0.0,0.0,0.0,0.0,0.0,0.0,0.0,0.0,0.0,0.0,0.0,0.0
1713690048740156193,11587,1713690048523423234,uav8/gps_garmin_origin,uav8/fcu,-39.66866033994943,16.94993561836383,0.13212979064638786,0.00218673773252467,-0.007731830954143008,-0.9313133294603417,-0.3641303603624379,0.0033939294024612028,0.0,0.0,0.0,0.0,0.0,0.0,0.003393929402461123,0.0,0.0,0.0,0.0,0.0,0.0,0.02968926654828145,0.0,0.0,0.0,0.0,0.0,0.0,0.0,0.0,0.0,0.0,0.0,0.0,0.0,0.0,0.0,0.0,0.0,0.0,0.0,0.0,0.0,-0.00677599030133723,-0.0014053340807660877,0.005431774476996142,-0.13089238107204437,0.029451480135321617,-0.013124161399900917,0.352044681601222,0.0,0.0,0.0,0.0,0.0,0.0,0.3520446816010551,0.0,0.0,0.0,0.0,0.0,0.0,0.01611783193737208,0.0,0.0,0.0,0.0,0.0,0.0,0.0,0.0,0.0,0.0,0.0,0.0,0.0,0.0,0.0,0.0,0.0,0.0,0.0,0.0,0.0
1713690048775813311,11597,1713690048623439417,uav8/gps_garmin_origin,uav8/fcu,-39.671923165982356,16.950498772325034,0.13145465169703757,0.00440379384481022,-0.00195581064246383,-0.9311565820986344,-0.36458771375197535,0.003462039310833759,0.0,0.0,0.0,0.0,0.0,0.0,0.0034620393108337087,0.0,0.0,0.0,0.0,0.0,0.0,0.03768364784270049,0.0,0.0,0.0,0.0,0.0,0.0,0.0,0.0,0.0,0.0,0.0,0.0,0.0,0.0,0.0,0.0,0.0,0.0,0.0,0.0,0.0,0.005128775805792078,-0.001832122898882537,0.022277150793177426,-0.15908388793468475,0.014027019031345844,0.001244211685843764,0.35227690123972644,0.0,0.0,0.0,0.0,0.0,0.0,0.35227690123963773,0.0,0.0,0.0,0.0,0.0,0.0,0.01611647186348404,0.0,0.0,0.0,0.0,0.0,0.0,0.0,0.0,0.0,0.0,0.0,0.0,0.0,0.0,0.0,0.0,0.0,0.0,0.0,0.0,0.0
1713690048778323246,11611,1713690048763436195,uav8/gps_garmin_origin,uav8/fcu,-39.680304064261314,16.95063926667028,0.15017248807660608,0.003000523274533295,0.0039619458123540145,-0.9316435537917047,-0.36333949485821354,0.0033867057782736502,0.0,0.0,0.0,0.0,0.0,0.0,0.0033867057782736333,0.0,0.0,0.0,0.0,0.0,0.0,0.03728126679403331,0.0,0.0,0.0,0.0,0.0,0.0,0.0,0.0,0.0,0.0,0.0,0.0,0.0,0.0,0.0,0.0,0.0,0.0,0.0,0.0,0.0,0.02139951941298546,0.0053444040055484,0.03531909556077845,-0.063912034034729,-0.08833368867635727,0.023058854043483745,0.3514149351478403,0.0,0.0,0.0,0.0,0.0,0.0,0.35141493514780403,0.0,0.0,0.0,0.0,0.0,0.0,0.016238148842134127,0.0,0.0,0.0,0.0,0.0,0.0,0.0,0.0,0.0,0.0,0.0,0.0,0.0,0.0,0.0,0.0,0.0,0.0,0.0,0.0,0.0
1713690048825801042,11623,1713690048883407578,uav8/gps_garmin_origin,uav8/fcu,-39.69004502932635,16.95251814969712,0.14217779411188136,0.003134852638180787,0.005884643654119134,-0.931824519336896,-0.3628479141879742,0.0033949908065851585,0.0,0.0,0.0,0.0,0.0,0.0,0.00339499080658515,0.0,0.0,0.0,0.0,0.0,0.0,0.03841965573675832,0.0,0.0,0.0,0.0,0.0,0.0,0.0,0.0,0.0,0.0,0.0,0.0,0.0,0.0,0.0,0.0,0.0,0.0,0.0,0.0,0.0,0.033477787104634234,0.009433978311491967,0.03882296006486805,0.015005192719399929,-0.07385294884443283,0.009195873513817796,0.3514018180480009,0.0,0.0,0.0,0.0,0.0,0.0,0.3514018180479839,0.0,0.0,0.0,0.0,0.0,0.0,0.0162411564156839,0.0,0.0,0.0,0.0,0.0,0.0,0.0,0.0,0.0,0.0,0.0,0.0,0.0,0.0,0.0,0.0,0.0,0.0,0.0,0.0,0.0
1713690048941295001,11635,1713690049003475754,uav8/gps_garmin_origin,uav8/fcu,-39.70083545230582,16.955633028929554,0.1268747612829313,-0.003621867311683117,0.0008006597664126872,-0.9318941265178595,-0.3627114252165633,0.003404612648609159,0.0,0.0,0.0,0.0,0.0,0.0,0.003404612648609152,0.0,0.0,0.0,0.0,0.0,0.0,0.03844205653024965,0.0,0.0,0.0,0.0,0.0,0.0,0.0,0.0,0.0,0.0,0.0,0.0,0.0,0.0,0.0,0.0,0.0,0.0,0.0,0.0,0.0,0.04284607863965914,0.010528703388716072,0.06601955086691129,0.07285557687282562,-0.05233008414506912,-0.02175119519233703,0.3514439410639762,0.0,0.0,0.0,0.0,0.0,0.0,0.3514439410639683,0.0,0.0,0.0,0.0,0.0,0.0,0.016254970861831836,0.0,0.0,0.0,0.0,0.0,0.0,0.0,0.0,0.0,0.0,0.0,0.0,0.0,0.0,0.0,0.0,0.0,0.0,0.0,0.0,0.0
1713690049090825856,11647,1713690049123490559,uav8/gps_garmin_origin,uav8/fcu,-39.70927192917961,16.958461535395568,0.1626111363063335,-0.005988706165236444,0.001969969608890495,-0.9307701150430083,-0.3655506087548366,0.003398522734315789,0.0,0.0,0.0,0.0,0.0,0.0,0.003398522734315787,0.0,0.0,0.0,0.0,0.0,0.0,0.02961267273081002,0.0,0.0,0.0,0.0,0.0,0.0,0.0,0.0,0.0,0.0,0.0,0.0,0.0,0.0,0.0,0.0,0.0,0.0,0.0,0.0,0.0,0.04037300956143982,0.006855823927972984,0.07872286960277945,-0.03157670423388481,-0.05234751477837563,-0.08304423093795776,0.35138311799095606,0.0,0.0,0.0,0.0,0.0,0.0,0.3513831179909524,0.0,0.0,0.0,0.0,0.0,0.0,0.016157243572503695,0.0,0.0,0.0,0.0,0.0,0.0,0.0,0.0,0.0,0.0,0.0,0.0,0.0,0.0,0.0,0.0,0.0,0.0,0.0,0.0,0.0
1713690049195044327,11659,1713690049243432892,uav8/gps_garmin_origin,uav8/fcu,-39.714915925350745,16.9637429929429,0.17157316087735433,-0.003208632323974588,0.0029795604356477904,-0.9285262087253862,-0.371241035727842,0.0033878928158811686,0.0,0.0,0.0,0.0,0.0,0.0,0.003387892815881167,0.0,0.0,0.0,0.0,0.0,0.0,0.02964737974762136,0.0,0.0,0.0,0.0,0.0,0.0,0.0,0.0,0.0,0.0,0.0,0.0,0.0,0.0,0.0,0.0,0.0,0.0,0.0,0.0,0.0,0.035303807126132625,-0.004625390537915587,0.08260374364884353,0.0560014508664608,0.04677823558449744,-0.13338038325309753,0.35128007495453867,0.0,0.0,0.0,0.0,0.0,0.0,0.3512800749545369,0.0,0.0,0.0,0.0,0.0,0.0,0.016214282719600435,0.0,0.0,0.0,0.0,0.0,0.0,0.0,0.0,0.0,0.0,0.0,0.0,0.0,0.0,0.0,0.0,0.0,0.0,0.0,0.0,0.0
1713690049886860017,11671,1713690049363397896,uav8/gps_garmin_origin,uav8/fcu,-39.71762625779844,16.968753417240933,0.20569649457583128,-0.005544370803993036,0.00039828142254519214,-0.9255428405017865,-0.3786021021074515,0.0033967494254722765,0.0,0.0,0.0,0.0,0.0,0.0,0.0033967494254722747,0.0,0.0,0.0,0.0,0.0,0.0,0.03719378820320429,0.0,0.0,0.0,0.0,0.0,0.0,0.0,0.0,0.0,0.0,0.0,0.0,0.0,0.0,0.0,0.0,0.0,0.0,0.0,0.0,0.0,0.02636179566117048,-0.01489969446705421,0.11635809419448584,0.0854216068983078,-0.060169447213411345,-0.12959133088588715,0.3513472907154214,0.0,0.0,0.0,0.0,0.0,0.0,0.35134729071542053,0.0,0.0,0.0,0.0,0.0,0.0,0.01618177237332083,0.0,0.0,0.0,0.0,0.0,0.0,0.0,0.0,0.0,0.0,0.0,0.0,0.0,0.0,0.0,0.0,0.0,0.0,0.0,0.0,0.0
1713690049956742996,11683,1713690049483416709,uav8/gps_garmin_origin,uav8/fcu,-39.716643153145974,16.97601954152027,0.21837726943501098,-0.003934304528897516,0.00011846475895179191,-0.9225495523188758,-0.385858563116353,0.003391688804474385,0.0,0.0,0.0,0.0,0.0,0.0,0.003391688804474386,0.0,0.0,0.0,0.0,0.0,0.0,0.03716767983652768,0.0,0.0,0.0,0.0,0.0,0.0,0.0,0.0,0.0,0.0,0.0,0.0,0.0,0.0,0.0,0.0,0.0,0.0,0.0,0.0,0.0,0.01782015018756365,-0.02959142802958041,0.11955204806016258,-0.005544655025005341,0.005675037857145058,-0.10350709408521652,0.3513045273984299,0.0,0.0,0.0,0.0,0.0,0.0,0.3513045273984294,0.0,0.0,0.0,0.0,0.0,0.0,0.0161885823792109,0.0,0.0,0.0,0.0,0.0,0.0,0.0,0.0,0.0,0.0,0.0,0.0,0.0,0.0,0.0,0.0,0.0,0.0,0.0,0.0,0.0
1713690050049658700,11695,1713690049603444615,uav8/gps_garmin_origin,uav8/fcu,-39.71787876108088,16.980212858863347,0.24507399421072076,-0.0019317049136094635,0.0019101280770389552,-0.9214815905107305,-0.38841253619916843,0.0034154637495033705,0.0,0.0,0.0,0.0,0.0,0.0,0.0034154637495033696,0.0,0.0,0.0,0.0,0.0,0.0,0.03770056195526719,0.0,0.0,0.0,0.0,0.0,0.0,0.0,0.0,0.0,0.0,0.0,0.0,0.0,0.0,0.0,0.0,0.0,0.0,0.0,0.0,0.0,0.01139864483948741,-0.028285070929938132,0.14296902689528743,-0.06734981387853622,0.02735680155456066,-0.000611749594099823,0.3515039159492611,0.0,0.0,0.0,0.0,0.0,0.0,0.35150391594926084,0.0,0.0,0.0,0.0,0.0,0.0,0.016151710435125533,0.0,0.0,0.0,0.0,0.0,0.0,0.0,0.0,0.0,0.0,0.0,0.0,0.0,0.0,0.0,0.0,0.0,0.0,0.0,0.0,0.0
1713690050059330814,11707,1713690049723419484,uav8/gps_garmin_origin,uav8/fcu,-39.72189731250433,16.98154576714071,0.27067966686511147,-0.0026622882252786656,0.004593539570317624,-0.9221128490865593,-0.38688461479501857,0.0033649542262631704,0.0,0.0,0.0,0.0,0.0,0.0,0.0033649542262631695,0.0,0.0,0.0,0.0,0.0,0.0,0.0383893667474603,0.0,0.0,0.0,0.0,0.0,0.0,0.0,0.0,0.0,0.0,0.0,0.0,0.0,0.0,0.0,0.0,0.0,0.0,0.0,0.0,0.0,0.008209509258301181,-0.01761012329295014,0.1755489312975878,-0.05055205523967743,-0.0009520677849650304,0.06456947326660156,0.351074313963431,0.0,0.0,0.0,0.0,0.0,0.0,0.351074313963431,0.0,0.0,0.0,0.0,0.0,0.0,0.016257404079575516,0.0,0.0,0.0,0.0,0.0,0.0,0.0,0.0,0.0,0.0,0.0,0.0,0.0,0.0,0.0,0.0,0.0,0.0,0.0,0.0,0.0
1713690050116507814,11719,1713690049843421285,uav8/gps_garmin_origin,uav8/fcu,-39.729675276529385,16.977776167298792,0.30376690741881934,-0.004456830764145236,0.007043319454931293,-0.9239310860601955,-0.38246813791768736,0.002233942550056412,0.0,0.0,0.0,0.0,0.0,0.0,0.002233942550056412,0.0,0.0,0.0,0.0,0.0,0.0,0.02839097951846068,0.0,0.0,0.0,0.0,0.0,0.0,0.0,0.0,0.0,0.0,0.0,0.0,0.0,0.0,0.0,0.0,0.0,0.0,0.0,0.0,0.0,0.00485284607703695,0.0031778286992868634,0.19659839884630642,-0.0012390224728733301,-0.046935912221670144,0.07000987231731415,0.34123466435296146,0.0,0.0,0.0,0.0,0.0,0.0,0.3412346643529614,0.0,0.0,0.0,0.0,0.0,0.0,0.006182909504116176,0.0,0.0,0.0,0.0,0.0,0.0,0.0,0.0,0.0,0.0,0.0,0.0,0.0,0.0,0.0,0.0,0.0,0.0,0.0,0.0,0.0
1713690050135107904,11729,1713690049943608399,uav8/gps_garmin_origin,uav8/fcu,-39.73747974820829,16.97260133333809,0.3285343918512383,-0.004945085129719878,0.007001116089718466,-0.9254464285131424,-0.3787815181061867,0.0026879103845852286,0.0,0.0,0.0,0.0,0.0,0.0,0.002687910384585229,0.0,0.0,0.0,0.0,0.0,0.0,0.032575436773037945,0.0,0.0,0.0,0.0,0.0,0.0,0.0,0.0,0.0,0.0,0.0,0.0,0.0,0.0,0.0,0.0,0.0,0.0,0.0,0.0,0.0,0.0015631103273087933,0.018472491116596875,0.21732521253394008,0.01178186945617199,0.03772657364606859,0.09781569987535477,0.34456898575558287,0.0,0.0,0.0,0.0,0.0,0.0,0.34456898575558287,0.0,0.0,0.0,0.0,0.0,0.0,0.007268104289812229,0.0,0.0,0.0,0.0,0.0,0.0,0.0,0.0,0.0,0.0,0.0,0.0,0.0,0.0,0.0,0.0,0.0,0.0,0.0,0.0,0.0
1713690050293635434,11741,1713690050063472223,uav8/gps_garmin_origin,uav8/fcu,-39.752149819989384,16.959043729818383,0.3602805463215992,-0.0076803799992368055,0.005447440660565179,-0.9281731948410337,-0.37202937724312257,0.003280110546067883,0.0,0.0,0.0,0.0,0.0,0.0,0.003280110546058537,0.0,0.0,0.0,0.0,0.0,0.0,0.03127609042278906,0.0,0.0,0.0,0.0,0.0,0.0,0.0,0.0,0.0,0.0,0.0,0.0,0.0,0.0,0.0,0.0,0.0,0.0,0.0,0.0,0.0,-0.002444264325910976,0.04959200663732994,0.23944546977387077,0.042363617569208145,-0.06747163832187651,0.11083500832319261,0.3506438400953532,0.0,0.0,0.0,0.0,0.0,0.0,0.3506438400929729,0.0,0.0,0.0,0.0,0.0,0.0,0.01603812898585347,0.0,0.0,0.0,0.0,0.0,0.0,0.0,0.0,0.0,0.0,0.0,0.0,0.0,0.0,0.0,0.0,0.0,0.0,0.0,0.0,0.0
1713690050294283848,11755,1713690050203439901,uav8/gps_garmin_origin,uav8/fcu,-39.77345169843546,16.943510635030638,0.41736822017640834,-0.005850107192910068,-0.0012715881006028988,-0.931546896972524,-0.36357191592640276,0.0033983890089421057,0.0,0.0,0.0,0.0,0.0,0.0,0.0033983890089419565,0.0,0.0,0.0,0.0,0.0,0.0,0.03734670307189467,0.0,0.0,0.0,0.0,0.0,0.0,0.0,0.0,0.0,0.0,0.0,0.0,0.0,0.0,0.0,0.0,0.0,0.0,0.0,0.0,0.0,0.0023043591555962613,0.07115257558815745,0.28537901435105745,0.1176440566778183,0.07123210281133653,0.16469880938529968,0.35152164134217245,0.0,0.0,0.0,0.0,0.0,0.0,0.3515216413423538,0.0,0.0,0.0,0.0,0.0,0.0,0.016119295836487326,0.0,0.0,0.0,0.0,0.0,0.0,0.0,0.0,0.0,0.0,0.0,0.0,0.0,0.0,0.0,0.0,0.0,0.0,0.0,0.0,0.0
1713690050294520085,11765,1713690050303857234,uav8/gps_garmin_origin,uav8/fcu,-39.789060317740955,16.935239701264873,0.4556388059443894,-0.004376642143339069,-0.008495046047878792,-0.9344215031628715,-0.3560409156586264,0.0033035705992383807,0.0,0.0,0.0,0.0,0.0,0.0,0.003303570599238425,0.0,0.0,0.0,0.0,0.0,0.0,0.02728127542023956,0.0,0.0,0.0,0.0,0.0,0.0,0.0,0.0,0.0,0.0,0.0,0.0,0.0,0.0,0.0,0.0,0.0,0.0,0.0,0.0,0.0,0.008612322892350758,0.07338440870194873,0.3091062732266663,0.062093138694763184,0.0008654255070723752,0.12920254468917847,0.3507036186246491,0.0,0.0,0.0,0.0,0.0,0.0,0.35070361862478494,0.0,0.0,0.0,0.0,0.0,0.0,0.016157683058980483,0.0,0.0,0.0,0.0,0.0,0.0,0.0,0.0,0.0,0.0,0.0,0.0,0.0,0.0,0.0,0.0,0.0,0.0,0.0,0.0,0.0
1713690050432219923,11779,1713690050443378510,uav8/gps_garmin_origin,uav8/fcu,-39.80932885469039,16.925122539546724,0.499796001240768,-0.007895512261565648,-0.009798464796742555,-0.9366399080946823,-0.35006761280949644,0.00223311178915011,0.0,0.0,0.0,0.0,0.0,0.0,0.0022331117891501084,0.0,0.0,0.0,0.0,0.0,0.0,0.03723775519252889,0.0,0.0,0.0,0.0,0.0,0.0,0.0,0.0,0.0,0.0,0.0,0.0,0.0,0.0,0.0,0.0,0.0,0.0,0.0,0.0,0.0,0.01561328697356918,0.06339772731784282,0.33673482994816095,0.08746369928121567,-0.05851489678025245,0.05843304097652436,0.3412783099567265,0.0,0.0,0.0,0.0,0.0,0.0,0.3412783099567817,0.0,0.0,0.0,0.0,0.0,0.0,0.006167142860198406,0.0,0.0,0.0,0.0,0.0,0.0,0.0,0.0,0.0,0.0,0.0,0.0,0.0,0.0,0.0,0.0,0.0,0.0,0.0,0.0,0.0
1713690050645901713,11791,1713690050563436769,uav8/gps_garmin_origin,uav8/fcu,-39.82413402149187,16.92291119383836,0.5461764465248827,-0.011334684811292572,-0.01283200103390818,-0.9375080319340972,-0.3475421625195285,0.003387416156997385,0.0,0.0,0.0,0.0,0.0,0.0,0.003387416156997397,0.0,0.0,0.0,0.0,0.0,0.0,0.038473472257987446,0.0,0.0,0.0,0.0,0.0,0.0,0.0,0.0,0.0,0.0,0.0,0.0,0.0,0.0,0.0,0.0,0.0,0.0,0.0,0.0,0.0,0.023658022120302817,0.04205767387744145,0.36669050766258493,0.07472279667854309,-0.014813814312219615,0.04615321755409241,0.3512793400066849,0.0,0.0,0.0,0.0,0.0,0.0,0.3512793400067122,0.0,0.0,0.0,0.0,0.0,0.0,0.016302262692229084,0.0,0.0,0.0,0.0,0.0,0.0,0.0,0.0,0.0,0.0,0.0,0.0,0.0,0.0,0.0,0.0,0.0,0.0,0.0,0.0,0.0
1713690050712213330,11801,1713690050663449026,uav8/gps_garmin_origin,uav8/fcu,-39.834659561932064,16.927268023825736,0.584509037813886,-0.011832089227540643,-0.012767799995037491,-0.9376821065010021,-0.34705799529133674,0.00224508211262272,0.0,0.0,0.0,0.0,0.0,0.0,0.002245082112622722,0.0,0.0,0.0,0.0,0.0,0.0,0.028360464298921265,0.0,0.0,0.0,0.0,0.0,0.0,0.0,0.0,0.0,0.0,0.0,0.0,0.0,0.0,0.0,0.0,0.0,0.0,0.0,0.0,0.0,0.03286845543724519,0.015129773854743315,0.39612579735305303,-0.048830803483724594,-0.009201676584780216,-0.002629467053338884,0.34126034979289516,0.0,0.0,0.0,0.0,0.0,0.0,0.3412603497929087,0.0,0.0,0.0,0.0,0.0,0.0,0.006156096896665039,0.0,0.0,0.0,0.0,0.0,0.0,0.0,0.0,0.0,0.0,0.0,0.0,0.0,0.0,0.0,0.0,0.0,0.0,0.0,0.0,0.0
1713690050743471341,11815,1713690050803433366,uav8/gps_garmin_origin,uav8/fcu,-39.84583571129564,16.93004353366474,0.6511711618055991,-0.015686181920621448,-0.007640572746804278,-0.9371636463279918,-0.34845353398419826,0.0022363756170951663,0.0,0.0,0.0,0.0,0.0,0.0,0.002236375617095166,0.0,0.0,0.0,0.0,0.0,0.0,0.02826238163774461,0.0,0.0,0.0,0.0,0.0,0.0,0.0,0.0,0.0,0.0,0.0,0.0,0.0,0.0,0.0,0.0,0.0,0.0,0.0,0.0,0.0,0.028308042368926502,-0.008206252174194814,0.4162474048272065,-0.0627884790301323,-0.0713038295507431,-0.020921945571899404,0.34128885649115986,0.0,0.0,0.0,0.0,0.0,0.0,0.3412888564911654,0.0,0.0,0.0,0.0,0.0,0.0,0.006164025833400634,0.0,0.0,0.0,0.0,0.0,0.0,0.0,0.0,0.0,0.0,0.0,0.0,0.0,0.0,0.0,0.0,0.0,0.0,0.0,0.0,0.0
1713690050875392570,11827,1713690050923413642,uav8/gps_garmin_origin,uav8/fcu,-39.85681683353367,16.931579267620247,0.6999199918900237,-0.014911760185903962,-0.007431712426611829,-0.9362731351673803,-0.35087750771802184,0.002234255030843204,0.0,0.0,0.0,0.0,0.0,0.0,0.002234255030843203,0.0,0.0,0.0,0.0,0.0,0.0,0.0320681545126066,0.0,0.0,0.0,0.0,0.0,0.0,0.0,0.0,0.0,0.0,0.0,0.0,0.0,0.0,0.0,0.0,0.0,0.0,0.0,0.0,0.0,0.02418168762798991,-0.013178335376099344,0.43238374642046556,-0.022556623443961143,0.018933128565549844,-0.05187412351369858,0.341254852839341,0.0,0.0,0.0,0.0,0.0,0.0,0.3412548528393436,0.0,0.0,0.0,0.0,0.0,0.0,0.00610954670715241,0.0,0.0,0.0,0.0,0.0,0.0,0.0,0.0,0.0,0.0,0.0,0.0,0.0,0.0,0.0,0.0,0.0,0.0,0.0,0.0,0.0
1713690050982264816,11839,1713690051043415749,uav8/gps_garmin_origin,uav8/fcu,-39.87143884587196,16.937335248865644,0.7475085522215186,-0.014159761103679528,-0.008401310473475816,-0.9348354485022031,-0.3546993140273878,0.00222227779836418,0.0,0.0,0.0,0.0,0.0,0.0,0.0022222777983641816,0.0,0.0,0.0,0.0,0.0,0.0,0.029933932030333562,0.0,0.0,0.0,0.0,0.0,0.0,0.0,0.0,0.0,0.0,0.0,0.0,0.0,0.0,0.0,0.0,0.0,0.0,0.0,0.0,0.0,0.03481792961845692,-0.015991641578841677,0.464180014350263,0.060962777584791183,0.03913289681077003,-0.07199062407016754,0.3411544438800174,0.0,0.0,0.0,0.0,0.0,0.0,0.3411544438800186,0.0,0.0,0.0,0.0,0.0,0.0,0.0062350261702779864,0.0,0.0,0.0,0.0,0.0,0.0,0.0,0.0,0.0,0.0,0.0,0.0,0.0,0.0,0.0,0.0,0.0,0.0,0.0,0.0,0.0
1713690051267684861,11849,1713690051143420408,uav8/gps_garmin_origin,uav8/fcu,-39.88568392078273,16.94426067089548,0.7716925967250396,-0.013626929055629249,-0.00978734080595205,-0.9337200678950012,-0.3576106116638816,0.0022335371740549777,0.0,0.0,0.0,0.0,0.0,0.0,0.0022335371740549786,0.0,0.0,0.0,0.0,0.0,0.0,0.027727781930927217,0.0,0.0,0.0,0.0,0.0,0.0,0.0,0.0,0.0,0.0,0.0,0.0,0.0,0.0,0.0,0.0,0.0,0.0,0.0,0.0,0.0,0.04656713634452827,-0.017372080875659633,0.4756663692079503,0.020431628450751305,-0.0335894636809826,-0.05887680128216743,0.34124712028690646,0.0,0.0,0.0,0.0,0.0,0.0,0.34124712028690707,0.0,0.0,0.0,0.0,0.0,0.0,0.00618845396606173,0.0,0.0,0.0,0.0,0.0,0.0,0.0,0.0,0.0,0.0,0.0,0.0,0.0,0.0,0.0,0.0,0.0,0.0,0.0,0.0,0.0
1713690051268319109,11863,1713690051283436827,uav8/gps_garmin_origin,uav8/fcu,-39.90930392555998,16.95844610415992,0.8076191165356295,-0.018481998058545807,-0.008030116986228802,-0.9322939494179778,-0.36113975805438575,0.0022346765842462916,0.0,0.0,0.0,0.0,0.0,0.0,0.00223467658424629,0.0,0.0,0.0,0.0,0.0,0.0,0.03834908694634423,0.0,0.0,0.0,0.0,0.0,0.0,0.0,0.0,0.0,0.0,0.0,0.0,0.0,0.0,0.0,0.0,0.0,0.0,0.0,0.0,0.0,0.07138561726144713,-0.02112514153238945,0.4942065335467955,-0.024823864921927452,-0.07829352468252183,-0.06154203787446021,0.3412438455063383,0.0,0.0,0.0,0.0,0.0,0.0,0.3412438455063386,0.0,0.0,0.0,0.0,0.0,0.0,0.006177721601815024,0.0,0.0,0.0,0.0,0.0,0.0,0.0,0.0,0.0,0.0,0.0,0.0,0.0,0.0,0.0,0.0,0.0,0.0,0.0,0.0,0.0
1713690051397294840,11875,1713690051403395701,uav8/gps_garmin_origin,uav8/fcu,-39.92453731196966,16.966687649467165,0.8873651686005498,-0.01911278267376864,-0.008660560763782956,-0.9302318086235404,-0.36637204922141514,0.002235663005322944,0.0,0.0,0.0,0.0,0.0,0.0,0.0022356630053229445,0.0,0.0,0.0,0.0,0.0,0.0,0.028366838136091928,0.0,0.0,0.0,0.0,0.0,0.0,0.0,0.0,0.0,0.0,0.0,0.0,0.0,0.0,0.0,0.0,0.0,0.0,0.0,0.0,0.0,0.059325914913729766,-0.023032044478803033,0.5193699484201414,0.014013501815497875,0.04925499483942984,-0.1210007295012474,0.3412484443935317,0.0,0.0,0.0,0.0,0.0,0.0,0.3412484443935318,0.0,0.0,0.0,0.0,0.0,0.0,0.006175572668945166,0.0,0.0,0.0,0.0,0.0,0.0,0.0,0.0,0.0,0.0,0.0,0.0,0.0,0.0,0.0,0.0,0.0,0.0,0.0,0.0,0.0
1713690051439963597,11887,1713690051523400444,uav8/gps_garmin_origin,uav8/fcu,-39.9399778298574,16.97559026455214,0.9869926871091462,-0.016625954890039197,-0.010146965552706708,-0.9272879408866195,-0.373841799963995,0.0022359561258509615,0.0,0.0,0.0,0.0,0.0,0.0,0.002235956125850961,0.0,0.0,0.0,0.0,0.0,0.0,0.02836087694712168,0.0,0.0,0.0,0.0,0.0,0.0,0.0,0.0,0.0,0.0,0.0,0.0,0.0,0.0,0.0,0.0,0.0,0.0,0.0,0.0,0.0,0.04720090527353111,-0.025934227629215,0.5039477905291722,-0.009119895286858082,0.014089929871261102,-0.14510348439216614,0.3412509760750729,0.0,0.0,0.0,0.0,0.0,0.0,0.3412509760750728,0.0,0.0,0.0,0.0,0.0,0.0,0.006174898866144319,0.0,0.0,0.0,0.0,0.0,0.0,0.0,0.0,0.0,0.0,0.0,0.0,0.0,0.0,0.0,0.0,0.0,0.0,0.0,0.0,0.0
1713690051622926853,11896,1713690051615170218,uav8/gps_garmin_origin,uav8/fcu,-39.948077849357155,16.985901404567763,1.036358022709634,-0.017965658747943883,-0.007097854313218181,-0.9246435326251796,-0.38034351991894,0.002239115446493044,0.0,0.0,0.0,0.0,0.0,0.0,0.0022391154464930438,0.0,0.0,0.0,0.0,0.0,0.0,0.03780052184560989,0.0,0.0,0.0,0.0,0.0,0.0,0.0,0.0,0.0,0.0,0.0,0.0,0.0,0.0,0.0,0.0,0.0,0.0,0.0,0.0,0.0,0.04316460619175636,-0.04376033375311422,0.4528145343865595,-0.04534520208835602,-0.09535372257232667,-0.15954603254795074,0.3412745394382445,0.0,0.0,0.0,0.0,0.0,0.0,0.3412745394382445,0.0,0.0,0.0,0.0,0.0,0.0,0.006192842199700832,0.0,0.0,0.0,0.0,0.0,0.0,0.0,0.0,0.0,0.0,0.0,0.0,0.0,0.0,0.0,0.0,0.0,0.0,0.0,0.0,0.0
1713690051705117896,11911,1713690051763564556,uav8/gps_garmin_origin,uav8/fcu,-39.96757622650379,17.00408377254595,1.073916962186712,-0.02130067952186943,-0.0016703749253163891,-0.9200231455943824,-0.3912811041567597,0.0022314673107008253,0.0,0.0,0.0,0.0,0.0,0.0,0.0022314673107008257,0.0,0.0,0.0,0.0,0.0,0.0,0.032176105875196946,0.0,0.0,0.0,0.0,0.0,0.0,0.0,0.0,0.0,0.0,0.0,0.0,0.0,0.0,0.0,0.0,0.0,0.0,0.0,0.0,0.0,0.0516530603929525,-0.05197646385399894,0.409362640695591,-0.06461717933416367,-0.06881996989250184,-0.1667066514492035,0.3412184489246974,0.0,0.0,0.0,0.0,0.0,0.0,0.3412184489246974,0.0,0.0,0.0,0.0,0.0,0.0,0.006188021415032421,0.0,0.0,0.0,0.0,0.0,0.0,0.0,0.0,0.0,0.0,0.0,0.0,0.0,0.0,0.0,0.0,0.0,0.0,0.0,0.0,0.0
1713690051809403682,11921,1713690051863467220,uav8/gps_garmin_origin,uav8/fcu,-39.986620284855725,17.011233332968427,1.1205706010210539,-0.022198581608482173,0.0009093056944544746,-0.9171584399479247,-0.39790299341675567,0.0022322601301339147,0.0,0.0,0.0,0.0,0.0,0.0,0.0022322601301339143,0.0,0.0,0.0,0.0,0.0,0.0,0.038315186843102346,0.0,0.0,0.0,0.0,0.0,0.0,0.0,0.0,0.0,0.0,0.0,0.0,0.0,0.0,0.0,0.0,0.0,0.0,0.0,0.0,0.0,0.05505465009549447,-0.03503041270534891,0.4300483477417404,-0.00782521441578865,-0.04544972255825998,-0.11310707032680511,0.341219273899308,0.0,0.0,0.0,0.0,0.0,0.0,0.341219273899308,0.0,0.0,0.0,0.0,0.0,0.0,0.006175600045024595,0.0,0.0,0.0,0.0,0.0,0.0,0.0,0.0,0.0,0.0,0.0,0.0,0.0,0.0,0.0,0.0,0.0,0.0,0.0,0.0,0.0
1713690051935097302,11935,1713690052003417788,uav8/gps_garmin_origin,uav8/fcu,-40.017671210995864,17.01574277631986,1.1786552515892927,-0.027800790543871964,-0.0010179113816524833,-0.9152362218732879,-0.40195613948870623,0.0022326044388767865,0.0,0.0,0.0,0.0,0.0,0.0,0.0022326044388767856,0.0,0.0,0.0,0.0,0.0,0.0,0.037791441329851995,0.0,0.0,0.0,0.0,0.0,0.0,0.0,0.0,0.0,0.0,0.0,0.0,0.0,0.0,0.0,0.0,0.0,0.0,0.0,0.0,0.0,0.05135228057296515,-0.0020570961852306863,0.42061949936931387,0.1051577627658844,-0.0914117619395256,-0.030335843563079824,0.341223877737045,0.0,0.0,0.0,0.0,0.0,0.0,0.341223877737045,0.0,0.0,0.0,0.0,0.0,0.0,0.006188652259474693,0.0,0.0,0.0,0.0,0.0,0.0,0.0,0.0,0.0,0.0,0.0,0.0,0.0,0.0,0.0,0.0,0.0,0.0,0.0,0.0,0.0
1713690052080386119,11947,1713690052123402169,uav8/gps_garmin_origin,uav8/fcu,-40.04688538823052,17.01620908957898,1.1916336165666583,-0.03372366111925925,-0.008030514191879255,-0.9148118800135865,-0.40238967395863295,0.002238808587880928,0.0,0.0,0.0,0.0,0.0,0.0,0.0022388085878809285,0.0,0.0,0.0,0.0,0.0,0.0,0.037774536096120505,0.0,0.0,0.0,0.0,0.0,0.0,0.0,0.0,0.0,0.0,0.0,0.0,0.0,0.0,0.0,0.0,0.0,0.0,0.0,0.0,0.0,0.04297746806128695,0.023298115971161146,0.3863768141005652,0.1392253041267395,-0.03459620103240013,-0.005974758882075544,0.3412833759064709,0.0,0.0,0.0,0.0,0.0,0.0,0.3412833759064709,0.0,0.0,0.0,0.0,0.0,0.0,0.006179529086372749,0.0,0.0,0.0,0.0,0.0,0.0,0.0,0.0,0.0,0.0,0.0,0.0,0.0,0.0,0.0,0.0,0.0,0.0,0.0,0.0,0.0
1713690052302763958,11957,1713690052223397953,uav8/gps_garmin_origin,uav8/fcu,-40.07489420057343,17.012352794554793,1.2356857545327096,-0.035710455224918815,-0.01035699735768472,-0.9141662495297662,-0.40363047978818845,0.002263039088989711,0.0,0.0,0.0,0.0,0.0,0.0,0.002263039088989713,0.0,0.0,0.0,0.0,0.0,0.0,0.03220426569309342,0.0,0.0,0.0,0.0,0.0,0.0,0.0,0.0,0.0,0.0,0.0,0.0,0.0,0.0,0.0,0.0,0.0,0.0,0.0,0.0,0.0,0.03480856096144706,0.04455251548092441,0.38551531958505475,0.035528626292943954,0.009001418016850945,-0.02493138797581196,0.34147082160688863,0.0,0.0,0.0,0.0,0.0,0.0,0.3414708216068887,0.0,0.0,0.0,0.0,0.0,0.0,0.006197122817016049,0.0,0.0,0.0,0.0,0.0,0.0,0.0,0.0,0.0,0.0,0.0,0.0,0.0,0.0,0.0,0.0,0.0,0.0,0.0,0.0,0.0
1713690052314566778,11971,1713690052363400888,uav8/gps_garmin_origin,uav8/fcu,-40.11052859625103,17.00722346002679,1.2857895463077813,-0.03872362048729641,-0.01578623249196328,-0.9138810422786241,-0.40382263017790554,0.002238776622839052,0.0,0.0,0.0,0.0,0.0,0.0,0.0022387766228390534,0.0,0.0,0.0,0.0,0.0,0.0,0.028446825871955888,0.0,0.0,0.0,0.0,0.0,0.0,0.0,0.0,0.0,0.0,0.0,0.0,0.0,0.0,0.0,0.0,0.0,0.0,0.0,0.0,0.0,0.02028867265798543,0.05102287846501842,0.38713208249410225,0.09249038994312286,-0.04080649092793465,0.007565337698906665,0.3412749202222464,0.0,0.0,0.0,0.0,0.0,0.0,0.3412749202222465,0.0,0.0,0.0,0.0,0.0,0.0,0.006193320625483122,0.0,0.0,0.0,0.0,0.0,0.0,0.0,0.0,0.0,0.0,0.0,0.0,0.0,0.0,0.0,0.0,0.0,0.0,0.0,0.0,0.0
1713690052409487865,11983,1713690052483443927,uav8/gps_garmin_origin,uav8/fcu,-40.132872645293645,17.007129109623094,1.3464569258550652,-0.03978749871980139,-0.01782853656322954,-0.9151964669047161,-0.40064264026032015,0.0022344692013358865,0.0,0.0,0.0,0.0,0.0,0.0,0.0022344692013358865,0.0,0.0,0.0,0.0,0.0,0.0,0.032120533846489885,0.0,0.0,0.0,0.0,0.0,0.0,0.0,0.0,0.0,0.0,0.0,0.0,0.0,0.0,0.0,0.0,0.0,0.0,0.0,0.0,0.0,0.0025325851922073893,0.023597849025724114,0.3443096527164209,0.04853542894124985,0.005702751222997914,0.08464182168245316,0.3412383164968266,0.0,0.0,0.0,0.0,0.0,0.0,0.34123831649682673,0.0,0.0,0.0,0.0,0.0,0.0,0.006174605438899357,0.0,0.0,0.0,0.0,0.0,0.0,0.0,0.0,0.0,0.0,0.0,0.0,0.0,0.0,0.0,0.0,0.0,0.0,0.0,0.0,0.0
1713690052537793472,11995,1713690052603423508,uav8/gps_garmin_origin,uav8/fcu,-40.15264652868691,17.01178991193692,1.396533871646149,-0.04071941769575197,-0.01891131704267735,-0.9173094390404888,-0.3956357973660293,0.002231934386472738,0.0,0.0,0.0,0.0,0.0,0.0,0.0022319343864727376,0.0,0.0,0.0,0.0,0.0,0.0,0.03744283607215976,0.0,0.0,0.0,0.0,0.0,0.0,0.0,0.0,0.0,0.0,0.0,0.0,0.0,0.0,0.0,0.0,0.0,0.0,0.0,0.0,0.0,-0.004807645714872289,-0.008690215730510417,0.31018164880929405,-0.03249654546380043,-0.046994622796773904,0.07877068221569061,0.34121826539092637,0.0,0.0,0.0,0.0,0.0,0.0,0.3412182653909265,0.0,0.0,0.0,0.0,0.0,0.0,0.00619278294388988,0.0,0.0,0.0,0.0,0.0,0.0,0.0,0.0,0.0,0.0,0.0,0.0,0.0,0.0,0.0,0.0,0.0,0.0,0.0,0.0,0.0
1713690052645014065,12007,1713690052723446197,uav8/gps_garmin_origin,uav8/fcu,-40.16680836625532,17.017339330395732,1.440868949529563,-0.04345006585069148,-0.01384798280935243,-0.9129993743966551,-0.4054040792850989,0.002239366692800269,0.0,0.0,0.0,0.0,0.0,0.0,0.002239366692800269,0.0,0.0,0.0,0.0,0.0,0.0,0.03773782572078412,0.0,0.0,0.0,0.0,0.0,0.0,0.0,0.0,0.0,0.0,0.0,0.0,0.0,0.0,0.0,0.0,0.0,0.0,0.0,0.0,0.0,-0.017090170131967425,-0.04295624098420727,0.27903227000757763,-0.035038117319345474,-0.05315271392464638,-0.01441164128482341,0.3412769348894789,0.0,0.0,0.0,0.0,0.0,0.0,0.3412769348894791,0.0,0.0,0.0,0.0,0.0,0.0,0.006198397572979422,0.0,0.0,0.0,0.0,0.0,0.0,0.0,0.0,0.0,0.0,0.0,0.0,0.0,0.0,0.0,0.0,0.0,0.0,0.0,0.0,0.0
1713690052797328109,12019,1713690052843593535,uav8/gps_garmin_origin,uav8/fcu,-40.17728165869272,17.017285645120804,1.4761226767250502,-0.04204377163574625,-0.012362491788583714,-0.9127950654721254,-0.40605991985562495,0.002239360489457088,0.0,0.0,0.0,0.0,0.0,0.0,0.0022393604894570865,0.0,0.0,0.0,0.0,0.0,0.0,0.03773438906542329,0.0,0.0,0.0,0.0,0.0,0.0,0.0,0.0,0.0,0.0,0.0,0.0,0.0,0.0,0.0,0.0,0.0,0.0,0.0,0.0,0.0,-0.04738053879941534,-0.06138279083337928,0.2215377739425496,-0.06300061196088791,0.05630203336477279,-0.06282180547714233,0.34127776085446904,0.0,0.0,0.0,0.0,0.0,0.0,0.34127776085446915,0.0,0.0,0.0,0.0,0.0,0.0,0.006172778609510988,0.0,0.0,0.0,0.0,0.0,0.0,0.0,0.0,0.0,0.0,0.0,0.0,0.0,0.0,0.0,0.0,0.0,0.0,0.0,0.0,0.0
1713690052982882347,12031,1713690052963419443,uav8/gps_garmin_origin,uav8/fcu,-40.18411181396746,17.012695909233884,1.5252302974453216,-0.031250406265183786,-0.009493846612646387,-0.910966273800262,-0.41118575727184725,0.002250479163590048,0.0,0.0,0.0,0.0,0.0,0.0,0.0022504791635900483,0.0,0.0,0.0,0.0,0.0,0.0,0.03795607739659784,0.0,0.0,0.0,0.0,0.0,0.0,0.0,0.0,0.0,0.0,0.0,0.0,0.0,0.0,0.0,0.0,0.0,0.0,0.0,0.0,0.0,-0.06643540246877161,-0.05786225535511297,0.13802972109624434,-0.25368332862854004,0.2574100196361542,-0.18483835458755496,0.3413709455175617,0.0,0.0,0.0,0.0,0.0,0.0,0.3413709455175617,0.0,0.0,0.0,0.0,0.0,0.0,0.006174328780101371,0.0,0.0,0.0,0.0,0.0,0.0,0.0,0.0,0.0,0.0,0.0,0.0,0.0,0.0,0.0,0.0,0.0,0.0,0.0,0.0,0.0
1713690053004934263,12043,1713690053083413782,uav8/gps_garmin_origin,uav8/fcu,-40.19234578396034,17.00232213249357,1.5166963399931048,-0.012500171881768494,-0.002868577504001239,-0.9081840746242307,-0.41837447766918046,0.0022273258487362805,0.0,0.0,0.0,0.0,0.0,0.0,0.0022273258487362814,0.0,0.0,0.0,0.0,0.0,0.0,0.028299697757049647,0.0,0.0,0.0,0.0,0.0,0.0,0.0,0.0,0.0,0.0,0.0,0.0,0.0,0.0,0.0,0.0,0.0,0.0,0.0,0.0,0.0,-0.056962888183799715,-0.019224617831997033,0.15014910212322588,-0.18206650018692017,0.17072494328022,-0.16681988537311557,0.34118743909263677,0.0,0.0,0.0,0.0,0.0,0.0,0.3411874390926368,0.0,0.0,0.0,0.0,0.0,0.0,0.006176308900336063,0.0,0.0,0.0,0.0,0.0,0.0,0.0,0.0,0.0,0.0,0.0,0.0,0.0,0.0,0.0,0.0,0.0,0.0,0.0,0.0,0.0
1713690053173089506,12053,1713690053184410987,uav8/gps_garmin_origin,uav8/fcu,-40.20175443525291,16.99060701123329,1.517911953878432,-0.004309254143258007,-0.0005142410302746139,-0.9057404218083189,-0.423810634821001,0.0035415956127180393,0.0,0.0,0.0,0.0,0.0,0.0,0.0035415956127180376,0.0,0.0,0.0,0.0,0.0,0.0,0.031149497023090656,0.0,0.0,0.0,0.0,0.0,0.0,0.0,0.0,0.0,0.0,0.0,0.0,0.0,0.0,0.0,0.0,0.0,0.0,0.0,0.0,0.0,-0.04134193815161163,0.0202261764774035,0.18663922668348876,-0.05290985852479935,0.09574299305677413,-0.16333971917629242,0.35256665637428125,0.0,0.0,0.0,0.0,0.0,0.0,0.3525666563742812,0.0,0.0,0.0,0.0,0.0,0.0,0.01873221363199863,0.0,0.0,0.0,0.0,0.0,0.0,0.0,0.0,0.0,0.0,0.0,0.0,0.0,0.0,0.0,0.0,0.0,0.0,0.0,0.0,0.0
1713690053329512000,12067,1713690053323423637,uav8/gps_garmin_origin,uav8/fcu,-40.226810239313316,16.969597536721587,1.5643411955284299,-0.005996913096487721,-0.006373969365477379,-0.9025757071213183,-0.4304422173327024,0.0022322592877268305,0.0,0.0,0.0,0.0,0.0,0.0,0.0022322592877268305,0.0,0.0,0.0,0.0,0.0,0.0,0.032109533380337806,0.0,0.0,0.0,0.0,0.0,0.0,0.0,0.0,0.0,0.0,0.0,0.0,0.0,0.0,0.0,0.0,0.0,0.0,0.0,0.0,0.0,-0.011917348892901974,0.07819646541123182,0.10161037583579965,0.20452728867530823,-0.06521189957857133,-0.0844876393675804,0.34124958689607104,0.0,0.0,0.0,0.0,0.0,0.0,0.341249586896071,0.0,0.0,0.0,0.0,0.0,0.0,0.0061805509360269816,0.0,0.0,0.0,0.0,0.0,0.0,0.0,0.0,0.0,0.0,0.0,0.0,0.0,0.0,0.0,0.0,0.0,0.0,0.0,0.0,0.0
1713690053381171476,12079,1713690053443388996,uav8/gps_garmin_origin,uav8/fcu,-40.251764982363426,16.954293858544222,1.5990708867120869,-0.017332848170672495,-0.01781819184684523,-0.9014833282528851,-0.4320994021006077,0.002246759620367994,0.0,0.0,0.0,0.0,0.0,0.0,0.0022467596203679966,0.0,0.0,0.0,0.0,0.0,0.0,0.03694141240302587,0.0,0.0,0.0,0.0,0.0,0.0,0.0,0.0,0.0,0.0,0.0,0.0,0.0,0.0,0.0,0.0,0.0,0.0,0.0,0.0,0.0,0.010082195104004116,0.08509517327528199,-0.020630807555902658,0.24505990743637085,-0.0882721096277237,-0.035918779671192155,0.3413435748930672,0.0,0.0,0.0,0.0,0.0,0.0,0.3413435748930672,0.0,0.0,0.0,0.0,0.0,0.0,0.006151885723264861,0.0,0.0,0.0,0.0,0.0,0.0,0.0,0.0,0.0,0.0,0.0,0.0,0.0,0.0,0.0,0.0,0.0,0.0,0.0,0.0,0.0
1713690053496280393,12091,1713690053563423006,uav8/gps_garmin_origin,uav8/fcu,-40.276142880482006,16.941378052825236,1.5926270914037506,-0.026057420287263905,-0.027731768772848258,-0.9007638907265713,-0.4326388482462385,0.002233416420717954,0.0,0.0,0.0,0.0,0.0,0.0,0.002233416420717953,0.0,0.0,0.0,0.0,0.0,0.0,0.03874771348655817,0.0,0.0,0.0,0.0,0.0,0.0,0.0,0.0,0.0,0.0,0.0,0.0,0.0,0.0,0.0,0.0,0.0,0.0,0.0,0.0,0.0,0.01790470275451438,0.055228583501059594,-0.07593549751139454,0.19374515116214752,-0.009768944233655933,-0.031988754868507385,0.3412322039992492,0.0,0.0,0.0,0.0,0.0,0.0,0.34123220399924914,0.0,0.0,0.0,0.0,0.0,0.0,0.006246791936307976,0.0,0.0,0.0,0.0,0.0,0.0,0.0,0.0,0.0,0.0,0.0,0.0,0.0,0.0,0.0,0.0,0.0,0.0,0.0,0.0,0.0
1713690053628413837,12100,1713690053659168072,uav8/gps_garmin_origin,uav8/fcu,-40.29313290469916,16.933451846182564,1.5609852172763024,-0.02819426094871204,-0.03284603738779819,-0.9003571240453214,-0.4329933840814581,0.003190681151928222,0.0,0.0,0.0,0.0,0.0,0.0,0.003190681151928222,0.0,0.0,0.0,0.0,0.0,0.0,0.030600027242723732,0.0,0.0,0.0,0.0,0.0,0.0,0.0,0.0,0.0,0.0,0.0,0.0,0.0,0.0,0.0,0.0,0.0,0.0,0.0,0.0,0.0,0.017431066479743497,0.018697183204297113,-0.06889290371357439,0.11485704779624939,0.025427386164665222,-0.009998337365686897,0.34949567590781305,0.0,0.0,0.0,0.0,0.0,0.0,0.34949567590781305,0.0,0.0,0.0,0.0,0.0,0.0,0.006416383851689822,0.0,0.0,0.0,0.0,0.0,0.0,0.0,0.0,0.0,0.0,0.0,0.0,0.0,0.0,0.0,0.0,0.0,0.0,0.0,0.0,0.0
1713690053769221680,12113,1713690053783409417,uav8/gps_garmin_origin,uav8/fcu,-40.316454036285805,16.922632095919752,1.5383429000104551,-0.030460485630387085,-0.03948710534544266,-0.9001748150742646,-0.4326641071693059,0.0022246212664287753,0.0,0.0,0.0,0.0,0.0,0.0,0.002224621266428774,0.0,0.0,0.0,0.0,0.0,0.0,0.02957157529173843,0.0,0.0,0.0,0.0,0.0,0.0,0.0,0.0,0.0,0.0,0.0,0.0,0.0,0.0,0.0,0.0,0.0,0.0,0.0,0.0,0.0,0.012072188140808324,-0.022322569473116186,0.07426922999218129,0.09675267338752747,-0.013536510057747364,-0.004115683957934378,0.34129702426909075,0.0,0.0,0.0,0.0,0.0,0.0,0.34129702426842484,0.0,0.0,0.0,0.0,0.0,0.0,0.0061832048152655385,0.0,0.0,0.0,0.0,0.0,0.0,0.0,0.0,0.0,0.0,0.0,0.0,0.0,0.0,0.0,0.0,0.0,0.0,0.0,0.0,0.0
1713690053892815506,12127,1713690053923384479,uav8/gps_garmin_origin,uav8/fcu,-40.33535515490679,16.91645418477252,1.551345164636731,-0.03228087486435414,-0.04245955145439147,-0.8999537975224808,-0.4327104042349218,0.0022331339460888856,0.0,0.0,0.0,0.0,0.0,0.0,0.002233133946088887,0.0,0.0,0.0,0.0,0.0,0.0,0.02827100228598814,0.0,0.0,0.0,0.0,0.0,0.0,0.0,0.0,0.0,0.0,0.0,0.0,0.0,0.0,0.0,0.0,0.0,0.0,0.0,0.0,0.0,0.0037365058972370167,-0.08539980290360982,0.07742476676203584,0.029547467827796936,-0.00464177830144763,-0.00047740584705024903,0.3412574443494177,0.0,0.0,0.0,0.0,0.0,0.0,0.3412574443501958,0.0,0.0,0.0,0.0,0.0,0.0,0.006168340495679672,0.0,0.0,0.0,0.0,0.0,0.0,0.0,0.0,0.0,0.0,0.0,0.0,0.0,0.0,0.0,0.0,0.0,0.0,0.0,0.0,0.0
1713690053983649359,12139,1713690054043426757,uav8/gps_garmin_origin,uav8/fcu,-40.34962041778116,16.91642096134975,1.5541967474801106,-0.03450372857190833,-0.039668780532317524,-0.8997616707790904,-0.43320297363076166,0.002232352449738945,0.0,0.0,0.0,0.0,0.0,0.0,0.0022323524497389453,0.0,0.0,0.0,0.0,0.0,0.0,0.031241415282557198,0.0,0.0,0.0,0.0,0.0,0.0,0.0,0.0,0.0,0.0,0.0,0.0,0.0,0.0,0.0,0.0,0.0,0.0,0.0,0.0,0.0,0.0028929667169490117,-0.13287320257489169,0.022259784819258648,-0.09267184883356094,-0.07239820063114166,-0.014239885844290248,0.34123414096553933,0.0,0.0,0.0,0.0,0.0,0.0,0.3412341409659345,0.0,0.0,0.0,0.0,0.0,0.0,0.006302695067398883,0.0,0.0,0.0,0.0,0.0,0.0,0.0,0.0,0.0,0.0,0.0,0.0,0.0,0.0,0.0,0.0,0.0,0.0,0.0,0.0,0.0
1713690054113527704,12151,1713690054163409693,uav8/gps_garmin_origin,uav8/fcu,-40.35970861270247,16.924760019197915,1.5342347339257918,-0.03226741067751573,-0.03403564276269769,-0.8999140656232549,-0.43353784577972254,0.002233339551502905,0.0,0.0,0.0,0.0,0.0,0.0,0.002233339551502904,0.0,0.0,0.0,0.0,0.0,0.0,0.0372475973665181,0.0,0.0,0.0,0.0,0.0,0.0,0.0,0.0,0.0,0.0,0.0,0.0,0.0,0.0,0.0,0.0,0.0,0.0,0.0,0.0,0.0,0.011832940348001014,-0.1679753367555904,0.06559699077659262,-0.14830240607261658,0.010127883404493334,0.01853073388338089,0.34124033251624203,0.0,0.0,0.0,0.0,0.0,0.0,0.3412403325164272,0.0,0.0,0.0,0.0,0.0,0.0,0.006186525523098248,0.0,0.0,0.0,0.0,0.0,0.0,0.0,0.0,0.0,0.0,0.0,0.0,0.0,0.0,0.0,0.0,0.0,0.0,0.0,0.0,0.0
1713690054215953037,12163,1713690054283402450,uav8/gps_garmin_origin,uav8/fcu,-40.370065025253545,16.938090492480573,1.5720524429117848,-0.03289284037120622,-0.023866090117308728,-0.9008132573635474,-0.4323007589085427,0.002233002531126713,0.0,0.0,0.0,0.0,0.0,0.0,0.0022330025311267125,0.0,0.0,0.0,0.0,0.0,0.0,0.03736482594635474,0.0,0.0,0.0,0.0,0.0,0.0,0.0,0.0,0.0,0.0,0.0,0.0,0.0,0.0,0.0,0.0,0.0,0.0,0.0,0.0,0.0,0.019453306736039976,-0.18957516890367318,0.08648671812446984,-0.09726174920797348,-0.1384388953447342,0.027617905288934725,0.3412309412926998,0.0,0.0,0.0,0.0,0.0,0.0,0.3412309412927859,0.0,0.0,0.0,0.0,0.0,0.0,0.006181162608123281,0.0,0.0,0.0,0.0,0.0,0.0,0.0,0.0,0.0,0.0,0.0,0.0,0.0,0.0,0.0,0.0,0.0,0.0,0.0,0.0,0.0
1713690054432551823,12175,1713690054403409634,uav8/gps_garmin_origin,uav8/fcu,-40.38079835428927,16.952176895157194,1.5956632040729462,-0.03814301026097094,-0.018587531140137666,-0.9023496053301407,-0.4289111845299504,0.0022362229131864973,0.0,0.0,0.0,0.0,0.0,0.0,0.0022362229131864995,0.0,0.0,0.0,0.0,0.0,0.0,0.03833291986087784,0.0,0.0,0.0,0.0,0.0,0.0,0.0,0.0,0.0,0.0,0.0,0.0,0.0,0.0,0.0,0.0,0.0,0.0,0.0,0.0,0.0,0.008282717830219947,-0.20315876116748643,-0.03523538368197114,-0.008944000117480755,-0.09399148821830748,0.09341612458229066,0.34125322900603483,0.0,0.0,0.0,0.0,0.0,0.0,0.34125322900607485,0.0,0.0,0.0,0.0,0.0,0.0,0.006179986704619221,0.0,0.0,0.0,0.0,0.0,0.0,0.0,0.0,0.0,0.0,0.0,0.0,0.0,0.0,0.0,0.0,0.0,0.0,0.0,0.0,0.0
